t,x,y,z,roll,pitch,yaw,desired_x,desired_y
0.0,-0.24411088937522551,-0.0672224880582243,0.8531488416032277,4.777296888017792,21.440938631346903,3.736335712000757,-0.0395,-0.1
0.0640141000039871,-0.24413544045030663,-0.06716813677946856,0.85317607946371,4.9951050276407845,21.414003777417776,3.859699872651383,-0.0395,-0.1
0.1178014000179246,-0.24412753791283986,-0.06722989833465451,0.8531993238097607,4.914649432821777,21.42226163636424,3.73343038607898,-0.0395,-0.1
0.17347840004367754,-0.2440922125045203,-0.06715593188242967,0.8530657918671392,5.044169311879874,21.45964714105008,3.870475873653903,-0.0395,-0.1
0.22716820001369342,-0.24431837841860105,-0.06722429828271077,0.853821639412357,5.079235701027665,21.398671848099163,3.825693463518296,-0.0395,-0.1
0.27972450002562255,-0.24405468244893355,-0.06712921888414299,0.8529318600286717,5.048730470304966,21.43881069866368,3.86261977630484,-0.0395,-0.1
0.3332374000456184,-0.24414675123261423,-0.06721944096623175,0.8532687222183452,4.852076208094507,21.413689292190675,3.762375196454305,-0.0395,-0.1
0.3859861000091769,-0.24379946791007256,-0.06705244338682352,0.852113147129258,5.041908160289302,21.45327779894731,3.880370551823988,-0.0395,-0.1
0.4376098000211641,-0.2434875714136907,-0.0670504716158339,0.8519461827729259,5.167847363765573,21.508924357887164,3.725820244267551,-0.0395,-0.1
0.4895916000241418,-0.24237809543381228,-0.06755274499431765,0.8542574007836676,4.672515898824504,21.404053678382056,2.284953406249629,-0.0395,-0.1
0.5410757000208828,-0.24018167624352055,-0.06710791438547173,0.8527480250736179,5.661052422280761,21.493531622028648,3.5358425985583417,-0.0395,-0.1
0.5941762000438757,-0.23403857144529633,-0.06645423434989567,0.8489654369488302,6.087609867270987,21.242249733299477,4.86973216666892,-0.0395,-0.1
0.646140700031538,-0.2270066376948683,-0.06579874059543961,0.8462141959410858,6.198116735288341,21.309870531600293,4.863626202925781,-0.0395,-0.1
0.6958104000077578,-0.22306007836406508,-0.06554046174329253,0.8442816236552293,6.080804308820149,21.204006743586344,4.250188064190981,-0.0395,-0.1
0.7462632000097069,-0.21442179439808048,-0.06527301645370567,0.8405557667574839,5.051888275865394,21.734261068089825,1.2066996484274612,-0.0395,-0.1
0.799221400055103,-0.21094797806454338,-0.06560022045540548,0.841113700844782,4.491672025471776,21.53686627574624,-0.6944569949438295,-0.0395,-0.1
0.8510690000257459,-0.20292622557937012,-0.06685804774204616,0.8389515133784029,2.4458086264908334,21.783561180094903,-5.512185530818663,-0.0395,-0.1
0.9025472000357699,-0.19883881183114718,-0.06772146503300126,0.8382811753601378,1.7027788050313206,21.65957382070709,-7.091921186124009,-0.0395,-0.1
0.9528795000514947,-0.1904711641580832,-0.06941909060338622,0.8353343789938564,0.9461874867675034,21.696437099401216,-9.37056388228872,-0.0395,-0.1
1.006299400003627,-0.18657291933538928,-0.07052744066521108,0.8349522437824419,0.4865046205387087,21.467814438980515,-10.630429943155107,-0.0395,-0.1
1.0710405000136234,-0.17882219117330578,-0.07269977982447412,0.8325037256886303,-0.1464203330489888,21.30592338818373,-12.940234845596716,-0.0395,-0.1
1.1273824000381865,-0.1715106989263717,-0.07496666039564956,0.8304101705622221,-0.4254960629253081,21.08558238863965,-14.473844019733066,-0.0395,-0.1
1.1830779000301845,-0.1681321894219946,-0.0761332953561218,0.8290663054746867,-0.6865450078564992,21.143926506399023,-14.433232887461614,-0.0395,-0.1
1.2480460000224411,-0.16135112044368183,-0.07796404715380467,0.8259375167886779,-0.0617598851691581,21.00128189626664,-12.43590607473108,-0.0395,-0.1
1.3005746000562795,-0.1552805793932166,-0.07903821305975313,0.8226272222939133,1.0816069543097608,21.138152362438323,-9.532295713238623,-0.0395,-0.1
1.3515142000396736,-0.15000260157740794,-0.07981734592107678,0.8216891208486944,2.4391136445301407,20.82396822449773,-6.571874445906222,-0.0395,-0.1
1.4017960000201128,-0.14672175681109428,-0.07977626337738682,0.8177684082129866,2.6490443522604026,21.19619118195635,-5.382545306523212,-0.0395,-0.1
1.4526786000351422,-0.14211491074732754,-0.0800463035317384,0.8164155582810807,3.552849764680494,21.02723803057229,-3.1993487269226883,-0.0395,-0.1
1.504765400022734,-0.13991459818690202,-0.08005443937701957,0.815014359087009,3.9217016392360433,21.01332899868373,-2.0590791551072662,-0.0395,-0.1
1.556953400024213,-0.13583479160502746,-0.08024395416380087,0.812958099706641,3.8116148031489785,21.23062145686395,-2.129128106224922,-0.0395,-0.1
1.6117969000479206,-0.13412819075557303,-0.08042245288862769,0.8126471426444396,3.735561114416549,21.165840753290208,-2.7719936411022754,-0.0395,-0.1
1.6655099000199698,-0.1309289037114618,-0.08108843970368614,0.8122224775250312,3.0231691667954377,21.199225237170783,-5.6765226795229164,-0.0395,-0.1
1.7185192000470124,-0.12764899772735783,-0.0821117652493418,0.8118207075414388,1.505025276782521,21.267786444789127,-8.972399511204834,-0.0395,-0.1
1.7693607000401244,-0.12605423175441216,-0.08274942561617431,0.8125793529537725,1.3032593732281237,21.11427567662791,-10.355497363405936,-0.0395,-0.1
1.820147900027223,-0.12232654682696806,-0.08403840746193234,0.8112819313225853,0.0333616006402157,21.10962395157734,-13.136819218327272,-0.0395,-0.1
1.8718754000146873,-0.12055120183676145,-0.08480119516859229,0.8106266373444379,-0.7101952205795009,21.13597428364698,-14.128800691781803,-0.0395,-0.1
1.9237675000331356,-0.11737571541583507,-0.08611347238786843,0.8102793363883591,-0.783857938681208,20.90818673517617,-15.51561401869349,-0.0395,-0.1
1.9752133000292824,-0.11547996924835519,-0.08675321243361772,0.8090933365788227,-1.179734279969313,20.973355760220095,-16.404927986095487,-0.0395,-0.1
2.026999900001101,-0.11175121601656764,-0.08830899933750129,0.8076127500786583,-1.9084109519886732,20.81996257578447,-18.064351496259977,-0.0395,-0.1
2.0806797000113875,-0.10989246088178484,-0.08902324818250777,0.8069127561157763,-1.703573173771264,20.886016325854303,-17.561553549006785,-0.0395,-0.1
2.134122200019192,-0.10653683803580119,-0.0903040448215059,0.8069032751281098,-0.4569073928275008,20.679485328162528,-15.273447458408365,-0.0395,-0.1
2.18858190003084,-0.1030613382655306,-0.09144578836441095,0.8054038583404315,-0.0621336530567097,20.75126196451137,-12.878562771418196,-0.0395,-0.1
2.240556300035678,-0.10145983638630086,-0.0918210214477193,0.8052880673057278,0.7984825021840339,20.7166765723905,-11.268716356128689,-0.0395,-0.1
2.295358400035184,-0.0979338439591318,-0.09232095230867267,0.8032780082054959,1.6909883246341535,20.659813018607583,-8.452171066527336,-0.0395,-0.1
2.3473570000496693,-0.09619909199535084,-0.09247794975861566,0.8016588858771347,2.018968160524073,20.83028872498124,-7.680897138151939,-0.0395,-0.1
2.399687100027222,-0.09345453313366434,-0.09312405164132201,0.8016104693748527,2.8286336184972383,20.6106906150881,-5.922190892684855,-0.0395,-0.1
2.4500932000228204,-0.09031853843684308,-0.0933006625407516,0.799110198659336,2.912101194744426,20.56579332024905,-4.601505960512804,-0.0395,-0.1
2.499654100043699,-0.08888172644889852,-0.09350359796748187,0.7993371468847639,3.475542907092402,20.510630744321528,-3.704619313379947,-0.0395,-0.1
2.5520046000019647,-0.08529591398708719,-0.0935924628940492,0.7965360356525295,3.546654956841702,20.572115302708,-3.106570188557414,-0.0395,-0.1
2.6019395000184886,-0.08379800845492918,-0.09379288752570702,0.796125712741255,3.5167594534734903,20.54270320687956,-3.4301666926487004,-0.0395,-0.1
2.6546291000558995,-0.08053009820607115,-0.09406175618892736,0.7938524670182292,3.006053904578589,20.793886517767977,-4.562850345855932,-0.0395,-0.1
2.7048337000305764,-0.07918143417133705,-0.09440401898981561,0.7945198165079124,2.811493146240289,20.73270657935717,-5.250245693390721,-0.0395,-0.1
2.7563260000315504,-0.07577038301391803,-0.09504168674521475,0.7935015711656833,2.2839783025890146,20.784011073796396,-7.435233746481372,-0.0395,-0.1
2.8079325000289828,-0.07404321229779412,-0.09544461112277239,0.7929875341724818,1.7746575110951388,20.86351181452454,-8.67131075756167,-0.0395,-0.1
2.859327900048811,-0.07076902196948359,-0.0963667617214471,0.7925543332758006,1.2272430279376838,20.881218596089877,-10.591847154212122,-0.0395,-0.1
2.911971600027755,-0.06911360942311477,-0.09684592440542196,0.7920873080027779,0.9516203173562252,20.995558117763597,-11.796612250229444,-0.0395,-0.1
2.965048900048714,-0.06578602398974943,-0.09802707779022746,0.7909978994901438,-0.0872901941951153,20.95429854273313,-14.70161611383587,-0.0395,-0.1
3.0184118000324824,-0.06222119045163349,-0.09926559549546936,0.7896582004988015,-0.825014379217215,21.14705200483493,-16.738643978608938,-0.0395,-0.1
3.0718215000233613,-0.06064733172171573,-0.10007779402052688,0.7907867270078989,-0.5097754314613754,20.84595269234811,-16.37505242836077,-0.0395,-0.1
3.1276669000508264,-0.05709076001814169,-0.10100885242243836,0.788398663097053,-0.2221606404091071,21.014795073053577,-14.681507829750336,-0.0395,-0.1
3.1803307000081986,-0.05550542811556036,-0.10146739953115745,0.7883962143218411,0.6371416031805642,21.077874612993543,-13.592344341743056,0.3445,-0.0912
3.2370197000564076,-0.053113612419046594,-0.10241838796307577,0.7874810076442652,0.9978566408961664,21.011524854376127,-11.28416658577806,0.3445,-0.0912
3.2983559000422247,-0.051050951924046545,-0.10281472632072887,0.7862107737361299,2.4605070947164904,21.011110886300877,-7.671111965865316,0.3445,-0.0912
3.355474900046829,-0.04971508680941311,-0.10295319982375065,0.785388826921916,2.768602618629461,20.75040088884592,-6.074867310644242,0.3445,-0.0912
3.4088968000141904,-0.04715090737179366,-0.10289477040249057,0.7834823897599736,4.262697739774773,20.94738984685923,-3.38106702610116,0.3445,-0.0912
3.4746077000163504,-0.04751613879976908,-0.10293652202128208,0.7832291438865584,3.977792535170656,20.86778661280843,-3.132122273907727,0.3445,-0.0912
3.529584900010377,-0.047798826511045,-0.1029334523621537,0.7832842712699553,3.683767634379931,20.7977973651689,-3.319231545336702,0.3445,-0.0912
3.58163740002783,-0.04678915414976718,-0.10367302431288415,0.7837049011986995,3.827860952285223,21.00001414454703,-4.484301065701765,0.3445,-0.0912
3.6319993000361137,-0.04259762949552051,-0.10576429401326423,0.7837285132880533,3.83665608235832,20.82165665220884,-6.077079418856459,0.3445,-0.0912
3.685268700006418,-0.03249303703907004,-0.1073120843030025,0.7802646118985881,5.701027244493422,20.91154272794021,-2.2806532941740096,0.3445,-0.0912
3.7383265000535184,-0.025069602430730743,-0.10775781731806322,0.7762002083923475,5.831242531277787,21.959015086351464,-2.3196303327852044,0.3445,-0.0912
3.7894923000130802,-0.00815913712398536,-0.11049551385449295,0.7722481708758638,4.7014905709394,22.37310293455892,-6.822793597339063,0.3445,-0.0912
3.840860100055579,0.01021272321117566,-0.11432548628196329,0.7671755792766443,5.220502262280219,22.589631165525216,-8.729643476253786,0.3445,-0.0912
3.8953226000303403,0.019734325349319758,-0.11670964735579906,0.7640886920944046,4.712629169194275,23.11302891684943,-9.081824796211198,0.3445,-0.0912
3.951639700040687,0.029926203704896133,-0.11883153048316758,0.760997256625246,5.512810575607748,23.09426466106036,-7.711153188696915,0.3445,-0.0912
4.002279500011355,0.0513579148959771,-0.1221836538185826,0.7536322717968977,6.646481168848695,23.23068694402076,-5.515550362420597,0.3445,-0.0912
4.055158700037282,0.07295711908315322,-0.12458493306722565,0.7443701225867679,7.677237631410953,23.18947075928716,-3.0985513589318208,0.3445,-0.0912
4.106641300022602,0.08370218371526705,-0.12548529960892732,0.7421805973852594,8.60158144734918,22.5839424740275,-1.4813186109987024,0.3445,-0.0912
4.157432100037113,0.10431984683022999,-0.12627589297077546,0.7348341147619477,8.94379098183415,20.84675293442748,1.1868952593008697,0.3445,-0.0912
4.209163100051228,0.12360704911999287,-0.125305991445988,0.7269540285902326,9.479792099850878,20.101948370655634,4.002783798835478,0.3445,-0.0912
4.261612100002821,0.13328920876120295,-0.12661682057497056,0.7228389893361642,7.804058513406598,-5.247824737098507,0.6462101461959742,0.3445,-0.0912
4.313258400012273,0.14316447153998318,-0.12527128224747403,0.7252268093687892,7.073122613074149,14.242851671081072,4.455263237240406,0.3445,-0.0912
4.365811300056521,0.15972179702670283,-0.12210672927601683,0.7139583232862468,7.968498511612727,16.794841461407245,6.950208194140139,0.3445,-0.0912
4.418399800022598,0.16786418651679672,-0.12099697948926212,0.711112316839624,7.429258349826963,14.828835483657796,7.400631535185945,0.3445,-0.0912
4.469051000021864,0.1825942088458219,-0.11818519568365986,0.7024987783652366,4.708946880352777,12.53762906644694,6.9222982636106245,0.3445,-0.0912
4.521311400050763,0.196400847311658,-0.11597262343550103,0.6954608268948729,4.315799126189701,11.418670192558498,5.488271327882167,0.3445,-0.0912
4.57313700002851,0.2014121667613425,-0.1130215622884185,0.6886056641989301,19.82540529505147,19.98331644050446,8.014367351152751,0.3445,-0.0912
4.625959200027864,0.21378763465471295,-0.11250087847361961,0.6832896169014382,1.2788218156974709,8.02421579916236,6.667545120816615,0.3445,-0.0912
4.6784577000071295,0.21811522602525035,-0.10920637057414971,0.6782187022948897,21.88827671789268,22.72626443035131,9.493775291209982,0.3445,-0.0912
4.730030000035185,0.22987680145412298,-0.11025923256123783,0.6773320370270102,0.723667893212184,11.08186227302463,5.079762682743263,0.3445,-0.0912
4.782456600049045,0.2346129553329471,-0.10966041449945939,0.6755866924940042,0.9361939911239742,10.74873732290784,5.549012904621551,0.3445,-0.0912
4.833779100037645,0.24300090094099389,-0.1082788026534855,0.6706839418812232,0.5125351422925656,9.36623282177394,6.912744199174647,0.3445,-0.0912
4.886337100004312,0.2512547575057208,-0.10705608359979875,0.6678491772556406,0.1770861809130568,10.22045036344057,5.697699153837936,0.3445,-0.0912
4.939961300056893,0.2549704171236762,-0.10640187392662458,0.6653300950791161,-0.7230465187799647,9.597322022456748,5.130000052843114,0.3445,-0.0912
4.994953200046439,0.2633392643204145,-0.10563295922336997,0.6646699827801168,-0.070264224787904,10.377974159861738,6.4806612565602295,0.3445,-0.0912
5.047822400054429,0.2709468500074293,-0.10422363611996885,0.6612504741997141,-0.2686351425572,9.503313389039118,8.732399095774323,0.3445,-0.0912
5.100354200054426,0.27519122897081244,-0.10361254169137199,0.6607238152067716,0.0045405937744179,9.574189069556656,9.920182286709323,0.3445,-0.0912
5.154657400038559,0.2789971665047769,-0.10273027090558483,0.6587395189023273,0.1474334672804642,8.705532658094057,10.403838674093238,0.3445,-0.0912
5.207340200024191,0.2873827168628744,-0.10116243686529502,0.6563666831301529,0.1564071285893634,8.678993240243976,8.99013725140322,0.3445,-0.0912
5.260435700009111,0.29616341464174695,-0.09996045787123815,0.6552470916022695,0.3678303957570001,8.990591320007713,9.0439118936772,0.3445,-0.0912
5.315311200043652,0.3008399503959098,-0.09942475161503629,0.6553408665123766,0.6576442384862219,9.302101691951425,10.042896265219634,0.3445,-0.0912
5.383108900045045,0.3096552135236213,-0.09773025308006728,0.6529677253718904,1.6344073024997043,8.640465211319647,9.843767435477742,0.3445,-0.0912
5.434934700024314,0.3190576644039374,-0.09638763515320652,0.6507618259390555,1.2176845009536876,8.262191922334413,7.7337315473291905,0.3445,-0.0912
5.488895700022113,0.32399698617817724,-0.09579357988717227,0.6496908402040543,0.613325435472877,8.627130162891039,6.607819732950521,0.3445,-0.0912
5.541600200056564,0.3343424568437426,-0.09501002092501576,0.6478640732742058,0.2184957621380208,8.744311933314005,4.775312083134845,0.3445,-0.0912
