t,x,y,z,roll,pitch,yaw,desired_x,desired_y
0.0,-0.2655907807955158,-0.07765988207145386,0.8596122012813674,3.8827599422296015,20.780793868724466,-1.0458932917180097,-0.0395,-0.1
0.05044090002775148,-0.2650762481162655,-0.07755360488889132,0.8586272579126032,4.020524429037494,20.821783192562165,-0.8675154169605347,-0.0395,-0.1
0.10082920000422702,-0.2646553167145688,-0.0774720316738961,0.8579579749637576,4.095468831344604,21.005742332327,-0.6099016698959215,-0.0395,-0.1
0.15173189999768466,-0.2646524547534083,-0.0774306328313203,0.8581239170711022,4.229622319124589,20.774058871632043,-0.583790061040724,-0.0395,-0.1
0.20284710003761575,-0.2645286917245673,-0.07760525010848393,0.8584396769471571,3.641998749034761,20.808091569101112,-0.5642890746194319,-0.0395,-0.1
0.2543218000209886,-0.26310398563006965,-0.07780501620269172,0.8576088710447336,3.6423056437116106,20.423286331196454,-1.4240972051618577,-0.0395,-0.1
0.30469090002588883,-0.26048694315312276,-0.07812166566917052,0.8578193730449122,3.717875959306067,20.46802799772476,-2.036287195249829,-0.0395,-0.1
0.35567870002705604,-0.2561387563873865,-0.07837709359504168,0.8555895807970864,3.249578024034736,21.456563829759357,-2.453529081930002,-0.0395,-0.1
0.4049268999951887,-0.24813559107155048,-0.07872152337816736,0.8518825583830818,3.2538157086085127,21.754755119128856,-2.1618498112631825,-0.0395,-0.1
0.4532410000101659,-0.24453379634286526,-0.07908865700624343,0.8514539158853893,3.541229232278197,21.74714169849923,-2.4133675353634967,-0.0395,-0.1
0.5014559000264849,-0.2368708359366854,-0.08005156012337099,0.8485018954704673,2.956582714725707,21.625818118504725,-4.2935287605812364,-0.0395,-0.1
0.5504924000124438,-0.22892556967625888,-0.0818164838917404,0.8460873883561965,1.7972659047879207,21.51205737540452,-7.378865675589069,-0.0395,-0.1
0.5993105000234209,-0.2250641050466613,-0.08291319830301448,0.8457595381233556,1.5746805420146623,21.493685852482624,-8.612552890511717,-0.0395,-0.1
0.6487278999993573,-0.21591127091465498,-0.08536835217241368,0.841573748896093,-0.0714864752934604,21.433337768271475,-12.382380983443715,-0.0395,-0.1
0.7001465000212188,-0.2122790666112763,-0.08695426212227715,0.8425179398549896,-0.4776002531107686,21.260073914265664,-13.844800076779814,-0.0395,-0.1
0.7504731999943028,-0.2077167572692152,-0.08836058638083294,0.8398460860836638,-1.3180534658533287,21.264768752188115,-15.518805960567496,-0.0395,-0.1
0.8002939000143665,-0.19979547854556523,-0.09138732859005498,0.8374930116553603,-1.6652278338971358,21.34636179893847,-16.255508929552217,-0.0395,-0.1
0.8471564000356007,-0.19625715081286074,-0.09305846439234347,0.8364837838780959,-1.7443610330372366,21.0471102825008,-15.840697603095489,-0.0395,-0.1
0.8955347000155593,-0.18942706341523136,-0.09529111586386128,0.8341958253744016,-0.5079879110531652,21.13136434849376,-12.59677872178428,-0.0395,-0.1
0.947442800039425,-0.18563025817588447,-0.09592225404833622,0.832241820685535,0.2397993521182897,21.138057378339514,-10.726835606584537,-0.0395,-0.1
0.9993226000224236,-0.1788369252014252,-0.09692496789690402,0.8292572523853576,1.6857135417036615,21.22074916365889,-7.572830776762814,-0.0395,-0.1
1.0484313000342804,-0.17597027377389116,-0.09740412499269874,0.8291380207093086,2.3787604989192057,21.022271634786435,-6.143361438170495,-0.0395,-0.1
1.0986305000260468,-0.1698055856685832,-0.09773986344148798,0.825882719291119,3.3528155085062648,20.914418562019225,-3.728620309112996,-0.0395,-0.1
1.148527800047304,-0.16691525636196006,-0.0979150442257563,0.8239146972739677,3.290995962591204,20.9120652937792,-3.2781418117741774,-0.0395,-0.1
1.1986084000091073,-0.16214459989774016,-0.09828500056984481,0.8236701077395188,4.4033007273610485,20.579918464415638,-1.3715813808835653,-0.0395,-0.1
1.2483436000184152,-0.1592974101758705,-0.09820888820559237,0.8212936223437224,4.408233207426555,20.5133235755564,-0.3345199344146945,-0.0395,-0.1
1.299043200036976,-0.15485437771257554,-0.09822622805616055,0.8198974125717698,4.487332326163263,20.58502952195222,-0.3277477696299926,-0.0395,-0.1
1.350480600027367,-0.15290675467201825,-0.09832488615220837,0.8194410304273071,4.181316646927529,20.72037039284918,-1.04411772677696,-0.0395,-0.1
1.4009773000143473,-0.14949124762462568,-0.099070292619724,0.8188134879886292,3.4063200561746494,20.71255725685525,-3.456542458131231,-0.0395,-0.1
1.4538106000400144,-0.1461545286669057,-0.09971746674762241,0.8171664832939592,2.384491999629757,20.71439358529713,-5.823877500562082,-0.0395,-0.1
1.5065956000471483,-0.14457383151768083,-0.100236672155962,0.8174005690468802,1.8900968024042808,20.88370718153317,-7.272499254631887,-0.0395,-0.1
1.5573014999972652,-0.14283723086269276,-0.10062484929526336,0.8168455347885445,1.426787364254945,20.90805200721688,-8.524603829779231,-0.0395,-0.1
1.6088003000477324,-0.13977636404238655,-0.10174935638970399,0.817226021147026,0.779638196412937,20.696804121411738,-10.482679185040585,-0.0395,-0.1
1.6606456000008616,-0.13630724181139536,-0.10261285286637849,0.8154551118588891,0.1585868802775595,20.83686062731318,-12.002794750520302,-0.0395,-0.1
1.7103059000219214,-0.13465797835265586,-0.10317237749408932,0.8152670210664487,0.0651646257928876,20.84019455258194,-11.697891353446789,-0.0395,-0.1
1.7631556999986056,-0.13107748994072882,-0.10379899328570251,0.8140101102165456,0.8513808907678183,20.707068003070997,-10.007180459663845,-0.0395,-0.1
1.8148470000014636,-0.12922687355653864,-0.10420464902174968,0.8133839607661162,0.9968951010037392,20.64000494188969,-9.26356107215076,-0.0395,-0.1
1.8669723999919365,-0.12552901508102116,-0.10473846688254566,0.811612789980778,1.7036938454329602,20.52149730615006,-7.406461945349859,-0.0395,-0.1
1.9194232000154439,-0.12367821873168211,-0.10486573820401235,0.8100767528991519,1.710868480985998,20.634744492372366,-6.487020402308771,-0.0395,-0.1
1.9819407000322822,-0.12029594691451215,-0.10532048944816977,0.8100037511060627,2.792568190282092,20.30495818366902,-4.004817596713551,-0.0395,-0.1
2.035044800024479,-0.11827362634924618,-0.10524872307749757,0.8081081232224127,3.1798218781767926,20.506863857018008,-2.71321783977389,-0.0395,-0.1
2.088521900004707,-0.11468359590460883,-0.10535536439351285,0.8076056834342744,4.370921313852247,20.258926348112336,-0.1150898655694595,-0.0395,-0.1
2.13840200001141,-0.11141630199135291,-0.10514529598756761,0.8067286913405322,5.303099980299043,19.969629605987247,2.5314899986100783,-0.0395,-0.1
2.1914417000371027,-0.10862546739597952,-0.10453535402650804,0.8041205012798547,6.288878503828081,20.273235758657133,5.247629740450623,-0.0395,-0.1
2.244284700020216,-0.10778923609785745,-0.10444098263625219,0.8044956942952508,6.208871157014227,20.19672557060892,6.075977229168687,-0.0395,-0.1
2.294605900009628,-0.10671432108813174,-0.10400633041235058,0.8031634001291951,6.753452543177638,20.289285072960205,6.467186219218564,-0.0395,-0.1
2.3468392000067975,-0.10514489852298671,-0.10380031111584101,0.8022212930136724,6.718977128464835,20.30697423018697,5.90711484360765,-0.0395,-0.1
2.398543999996036,-0.1033323903364806,-0.10379110856192593,0.8016031734297023,5.943287090351916,20.32517316843323,4.377019282126246,-0.0395,-0.1
2.449944899999536,-0.10233968050102686,-0.1038493728796037,0.80131612479824,5.432136980116479,20.36142875269666,3.684889240441112,-0.0395,-0.1
2.5015584999928246,-0.10051746851962917,-0.10382856882778654,0.8013401547374575,5.6264218242293245,20.15471419763481,3.050665156463049,-0.0395,-0.1
2.5541809000424105,-0.09945112861047828,-0.10359239794159363,0.8000983196327979,5.809574833568527,20.35904024896045,2.9739406944722444,-0.0395,-0.1
2.6072328000445846,-0.09766852401607767,-0.10389086211355296,0.7999319749140843,4.948011682954514,20.35802269619134,1.4091873249353322,-0.0395,-0.1
2.6585123999975617,-0.09643879562730479,-0.10381996001275748,0.7985546067823248,4.698240363017437,20.501144845573663,0.561236020936848,-0.0395,-0.1
2.708910999994259,-0.09426342282762692,-0.10406701556070788,0.7989915655570669,4.786155766857792,20.49851272763897,0.0714573913043221,-0.0395,-0.1
2.758803700038697,-0.09312650406968506,-0.10412849345486923,0.7983540426551862,4.741441653788265,20.434550684974003,0.0868459208258708,-0.0395,-0.1
2.809006900002714,-0.09122808740356071,-0.10406112527769347,0.7970324934904933,4.542252904312698,20.50472816421123,0.4403991728079131,-0.0395,-0.1
2.861266600026283,-0.08967792297019694,-0.10418262850360792,0.7977789970022937,5.029294905041217,20.28013632766033,1.6030460214300688,-0.0395,-0.1
2.910281000018585,-0.08879794843284797,-0.10410545989394408,0.7975573247960502,5.668337575297976,20.27755770367729,2.0273032327752487,-0.0395,-0.1
2.9614660000079307,-0.08667035405054005,-0.1035883160011232,0.7937859644114216,5.473547070825569,20.723078253444765,2.6163768870580864,-0.0395,-0.1
3.012429700000211,-0.08572046191217642,-0.10345291826716148,0.7928769630537321,5.7948667780941685,20.496735489684163,3.0515014393227915,-0.0395,-0.1
3.0649379999958906,-0.08480331284137167,-0.1034309365443027,0.7923814061412183,5.906937015839891,20.29782795895976,3.100712294256917,-0.0395,-0.1
3.118599100038409,-0.0835370810619259,-0.10343783926813388,0.7929428132716433,6.058646352044855,20.5088932991246,3.268163312064447,-0.0395,-0.1
3.1707731000497,-0.08199094144723727,-0.10355163007757268,0.7949443757769004,6.666133370381031,19.71687095629463,5.090829409112993,-0.0395,-0.1
3.2218360000406387,-0.08036982203429816,-0.10319918667213811,0.7932950217405343,6.919844803856487,19.874610075045645,6.070122033517237,-0.0395,-0.1
3.273668100009672,-0.07685898249507009,-0.1026022373878281,0.7919599045764157,8.157399777912916,19.7856255725157,7.42939504481626,-0.0395,-0.1
3.3241223000222813,-0.07319842346373014,-0.10240260540514635,0.7910238285346667,7.121672755024741,19.969372528666,5.572938320854378,-0.0395,-0.1
3.377323900000192,-0.07150632196646889,-0.10223125890356138,0.7909007727554487,7.20436941647825,19.9852402391784,5.318428366089302,-0.0395,-0.1
3.4286460000439543,-0.0681309654033819,-0.1018251419387893,0.7901380823995728,7.894728334962472,20.002001702727927,6.597684547120942,-0.0395,-0.1
3.478045500000007,-0.06629174080506874,-0.10151154694633667,0.7884000947802318,7.519288766029272,20.03016203043278,6.503499270391801,-0.0395,-0.1
3.529547500016633,-0.06283409212868105,-0.10119716486789482,0.7863309931752742,6.677087980745334,20.53934706453912,4.341546776566522,-0.0395,-0.1
3.5808683999930513,-0.06143550978456189,-0.10139146692699197,0.786642782083383,6.478179148795789,20.35665955938553,2.404805408430271,-0.0395,-0.1
3.6345425000181417,-0.0585872665461382,-0.10180580178458742,0.7853725786166098,4.588344965691891,20.71877442287264,-1.759457016626922,-0.0395,-0.1
3.6865958000416863,-0.05730909794101595,-0.10207076086767863,0.7850206909004338,3.883511638553116,21.00066365099348,-3.58084464685325,0.3445,-0.0912
3.737760699994396,-0.05608583433473242,-0.10305744290839786,0.7859633023450661,3.064727434898945,20.70726440554427,-5.623975866658897,0.3445,-0.0912
3.788316900026984,-0.05581034840216936,-0.10392146354305616,0.7860809744177859,2.64695402354634,20.72375217587126,-6.849388000600507,0.3445,-0.0912
3.840805300045758,-0.05561458891180956,-0.1042319318155185,0.7857494881094759,2.5512829236161574,20.822040713428567,-7.325959234873906,0.3445,-0.0912
3.8912932000239375,-0.05548767289094714,-0.10466178403596423,0.7864972148782392,2.578736671493133,20.59276245371302,-7.467303922084985,0.3445,-0.0912
3.955698000034317,-0.054675911843292506,-0.10482013140402091,0.7854854468637881,2.840093112713755,20.563812973992466,-5.906410237790964,0.3445,-0.0912
4.008812799991574,-0.05408091985059009,-0.10510212740334025,0.7863784652263057,3.700525185452556,20.396517310353293,-4.791165610653894,0.3445,-0.0912
4.061984600033611,-0.05040127458522774,-0.10605517526155693,0.7847128641939384,4.134489198069404,20.5443759132346,-4.1160623900264,0.3445,-0.0912
4.113898400042672,-0.04324660301265479,-0.10799064012889656,0.7831865348640898,4.626366498859751,20.755571673660576,-3.459165951905685,0.3445,-0.0912
4.1769473000313155,-0.03035630932391204,-0.10992810971341399,0.7784317326139147,4.705686754421466,21.4207035050804,-4.368178235091839,0.3445,-0.0912
4.2282833000062965,-0.023279386552910022,-0.11107485228888876,0.7768175485722622,4.90673487330886,21.534445341562563,-4.1349215706737015,0.3445,-0.0912
4.28004530002363,-0.00789499507870707,-0.1132057243149827,0.7717558727562591,6.149733783304355,21.324370416470213,-2.4742583379988337,0.3445,-0.0912
4.32958590000635,0.00028204457125265495,-0.11415600625292942,0.7692209636810243,6.574917395699409,21.36572828066314,-1.6711272277168037,0.3445,-0.0912
4.3834599000401795,0.01873617230036007,-0.11449046160760466,0.7616482747979046,8.80088470811689,21.520424869393945,2.4046370621239146,0.3445,-0.0912
4.434991599991918,0.038948960682959985,-0.11432366672437204,0.7551516972935505,8.134445986414182,21.66777223647302,2.9377166676932718,0.3445,-0.0912
4.4872111000004224,0.04892712056928679,-0.11371759038512065,0.7502178717580624,9.03947112153094,21.552310761283568,3.97808447092604,0.3445,-0.0912
4.5386750000179745,0.06934857564867608,-0.1126771764885779,0.7464682045885768,9.783405692132735,20.2430068580284,6.153839670858173,0.3445,-0.0912
4.593500300019514,0.08932618727714411,-0.10934943165663401,0.7366177220018829,12.01842468729816,20.624395964917987,9.165520691167735,0.3445,-0.0912
4.645017400034703,0.09938691896771508,-0.10816754961233203,0.7347687696334921,11.399852232133677,19.61838116845974,9.49740349980102,0.3445,-0.0912
4.696444700006396,0.1088526796010052,-0.10589889403270165,0.7288766166457088,12.544277323033842,20.709968941798277,10.4566270608712,0.3445,-0.0912
4.747773400042206,0.12849934543838615,-0.10427342165137267,0.7195681767786763,4.684719682180501,-8.165344593174233,7.1350954747630455,0.3445,-0.0912
4.80217460001586,0.14680670277636632,-0.09973722516663801,0.7118737905148057,5.006338919532937,-4.2738915484921645,7.687639060002185,0.3445,-0.0912
4.8564585000276566,0.15532563320696532,-0.09748730104237345,0.7064708255007913,4.011246807030882,-3.725021420834704,7.1061661146416135,0.3445,-0.0912
4.912079000030644,0.1723406709611787,-0.09470017464687201,0.7064013343530949,4.441879188273136,9.082684073975718,6.296050239393985,0.3445,-0.0912
4.968032600008883,0.1865827548059573,-0.09253185760197422,0.6991482153622443,2.9094618339690146,10.70917149173064,3.7738021181746353,0.3445,-0.0912
5.027597500011325,0.192464124198295,-0.09044717694927852,0.6924947942252603,15.134230302853156,20.411104700483808,4.0810343325102725,0.3445,-0.0912
5.082766000006814,0.20456708401723675,-0.08897579952737622,0.6824946636053753,16.72910058253652,24.319109334768477,2.201011126781414,0.3445,-0.0912
5.153994299995247,0.21087460690204143,-0.08938978006955714,0.6817424134881783,15.445886480657787,23.63280117512021,0.4348665085656928,0.3445,-0.0912
5.212311000039335,0.22179328111399274,-0.09087895672957354,0.6763148238418519,-2.471156079578467,7.076362725459263,-4.186801392255571,0.3445,-0.0912
5.264825500024017,0.23202005523252217,-0.09174611337591142,0.673581902946226,-2.7789902895606424,8.126849977524843,-6.876754742809252,0.3445,-0.0912
5.316498500003945,0.24124468606090266,-0.09271503079380716,0.6706550593879298,-3.664229339043357,8.851467175479362,-6.578530370601152,0.3445,-0.0912
5.368313400016632,0.24906954676618884,-0.09312443361047942,0.6653224924439933,-3.660067922980118,8.003933030201868,-4.325622579954897,0.3445,-0.0912
5.420607600011863,0.25364021695790767,-0.09357314044225654,0.6659779052897593,-3.2857252006656377,9.610125712026347,-3.0876679103662763,0.3445,-0.0912
5.475420400034636,0.26067606075664335,-0.0934270524108607,0.6618921144399557,-2.8917312489586906,8.504915752998278,-0.8976165756531014,0.3445,-0.0912
5.528456100029871,0.2649974644327198,-0.09356581751444912,0.6626811452391439,-2.092529968887593,9.328702368986438,0.2408693091619689,0.3445,-0.0912
5.581565100001171,0.2717407308597276,-0.0930207840293965,0.6586992226341815,-2.126445239176188,8.080189856969604,2.4331194783103243,0.3445,-0.0912
5.676529299991671,0.28019232103922864,-0.09265136757662414,0.6584954432298844,-1.0743688680834425,9.212362544985954,4.614058337104886,0.3445,-0.0912
5.731183300027624,0.2841931730286027,-0.09238649424183243,0.6573916012233655,-0.8686458628270187,9.106177304203277,4.922844304458834,0.3445,-0.0912
5.783702400047332,0.2965820954851339,-0.09161946161591694,0.6536506149684316,-1.4107544874697546,8.422062124983778,2.4404980269749488,0.3445,-0.0912
5.835257700004149,0.30076426998784445,-0.09154793322927786,0.6520609460494536,-0.911415499222062,7.519026983192202,1.0703360880624726,0.3445,-0.0912
5.885260500013828,0.3107646689043238,-0.09195763796594528,0.6522580793063242,-0.5185426229456046,8.041824931589375,-1.5824229810211483,0.3445,-0.0912
5.937891600013245,0.32041491649906073,-0.09237668988429228,0.6498217753881183,-0.8241341099958277,7.518781567182205,-4.1540809516695445,0.3445,-0.0912
5.988704700022936,0.32590687367078713,-0.09298385398245185,0.649846804353928,-0.6233671549734716,7.504275861360339,-5.679875847854127,0.3445,-0.0912
