t,x,y,z,roll,pitch,yaw,desired_x,desired_y
3.115952600026503,-0.26632439617031095,-0.08093113816029049,0.8802604923615471,7.527581411373904,-33.787213843062325,-0.6586570343798718,-0.0716,-0.0852
3.1709516000701115,-0.26787956226272425,-0.08131884672609647,0.8842897999616487,4.7214168823457126,-1.7724290881307505,2.6205043626001516,-0.0716,-0.0852
3.2256062000524253,-0.2677720796674497,-0.08129649601246965,0.8839579198656178,4.775707101347979,-1.565857217628796,2.633512045647995,-0.0716,-0.0852
3.280084600090049,-0.2663820478668882,-0.08096388556332963,0.8805208667782443,7.700728891036676,-33.81199506366773,-0.653591223108479,-0.0716,-0.0852
3.33614790008869,-0.26622863757956655,-0.08089252100061761,0.8799778650332705,8.050290901674959,-33.869741828883896,-0.7422771903112609,-0.0716,-0.0852
3.393798000062816,-0.2661793022293759,-0.08091394225627052,0.8798723330087345,7.4559198535941995,-33.993022331840635,-0.5989113825463985,-0.0716,-0.0852
3.460845399997197,-0.2647812833771973,-0.08131941238999743,0.8831960125207343,3.2836540243269403,-0.5862490350350833,2.6730242163030615,-0.0716,-0.0852
3.5146450999891385,-0.2539843850577332,-0.08173273050779964,0.8822937886805511,2.89236939266466,2.5608766770741997,3.0825296120246453,-0.0716,-0.0852
3.571961299981922,-0.23647913843274615,-0.07923450057270856,0.8818878978899835,12.245550039788508,-18.079355193961597,-2.0282686761147444,-0.0716,-0.0852
3.628941500093788,-0.22121150921466418,-0.07618554575442543,0.8875380662381274,11.75057987195078,-8.272260168925921,-7.526197352608502,-0.0716,-0.0852
3.682074200012721,-0.2038446515847927,-0.07719285946754124,0.8849156528689283,8.659297060957117,-26.558135851046952,-13.479454946946888,-0.0716,-0.0852
3.7381168000865728,-0.19437404989079035,-0.07997078870672557,0.8872986808093863,11.481582232488181,-23.974093016674047,-14.518980215271814,-0.0716,-0.0852
3.7931918000103906,-0.17443521383638275,-0.08415994840626832,0.8886428940343997,2.062536420539487,-7.286125696233848,-13.633005059688697,-0.0716,-0.0852
3.861269099987112,-0.16569805418586514,-0.08637178123683133,0.8908946353061151,1.5603498434919474,-4.131701408024926,-13.752403182288184,-0.0716,-0.0852
3.914697500062175,-0.14584818255706694,-0.09125188033341296,0.8869821890218383,-0.2187503350989376,-4.8456261815971935,-11.774054257636344,-0.0716,-0.0852
3.9673707000911236,-0.12729097017339028,-0.09587631172643096,0.8865704151079105,0.7050006995136842,-2.2624565394318212,-9.061967003318411,-0.0716,-0.0852
4.021739899995737,-0.10653933014917952,-0.09938124659362094,0.8790545690402716,-2.10216114376555,-9.055236278235592,-6.85784941772558,-0.0716,-0.0852
4.077756799990311,-0.09550643223456455,-0.10014185238792071,0.8710966988098219,-3.22004003215703,-7.182748761386439,-5.474346462972284,0.1076,-0.0866
4.130649400060065,-0.0803806109597985,-0.10354659922589886,0.8791668370646979,-0.20355412009030693,-7.385471690657896,-2.8295584491697885,0.1076,-0.0866
4.188151700072922,-0.0645149091257968,-0.10720088188873102,0.8809413295754925,-2.867353143778888,-2.642933538988415,1.3490604105984012,0.1076,-0.0866
4.243074800004251,-0.05664419069394943,-0.10869803090263716,0.8850623582132102,-0.6480616268608913,-3.244354028390131,3.677153434722982,0.1076,-0.0866
4.296523299999535,-0.03911577819932847,-0.10470582379970765,0.8802950566569923,-1.6317005050016837,-5.514477194717522,4.146046443013448,0.1076,-0.0866
4.350570200011134,-0.026264399348387816,-0.10288172992748619,0.870728822766486,0.5525834055461875,-8.067781726901618,4.822141323876443,0.1076,-0.0866
4.404096000012942,-0.025699065513771085,-0.10260344749597418,0.8684601592160826,-3.4653261606531878,-5.537780534965754,5.320631695884772,0.1076,-0.0866
4.456279800040647,-0.02218504594566146,-0.10470792509804484,0.8801963233614896,-2.644546391860697,-4.563696537261776,6.718119688275067,0.1076,-0.0866
4.5097983999876305,-0.00637636143692749,-0.1041336986682774,0.8806719247941772,-2.104880939129845,-4.977222589085605,8.900045196546186,0.1076,-0.0866
4.5759801000822335,0.002310207523618166,-0.10235299128152722,0.8793420977036983,-3.2130104155803156,-4.957086177053016,8.218423630148717,0.1076,-0.0866
4.630109700025059,0.011242562892742537,-0.1010667032703549,0.8835641192286707,0.41021654280066583,-4.237922108814294,7.014141162713433,0.1076,-0.0866
4.685260500060394,0.02984195817461907,-0.09889764188290152,0.8780369053965443,-2.035692884234069,-6.560945524087087,5.721408753085115,0.1076,-0.0866
4.736969400080852,0.04674658684749956,-0.0933895215312592,0.8729482385872362,-2.291099449212247,-5.435273491959432,2.038803182364468,0.1076,-0.0866
4.7956019000848755,0.061406782410819066,-0.0934441384067925,0.8776243093973339,-3.763527387279555,-3.7538948124672875,2.1059673502493577,0.1076,-0.0866
4.8490451000398025,0.07197401748761952,-0.09398665039808526,0.8772963138757153,-2.7517971460623722,-6.561996785887858,1.6733121102712176,0.3832,-0.0597
4.910195900010876,0.09118729374868191,-0.09314472111507481,0.8790321913298479,-0.9904780840713473,-5.442337380049858,0.35560125074486076,0.3832,-0.0597
4.964716700022109,0.11012748358167024,-0.09338888475953028,0.8796568415477005,-3.832343221874549,-3.4018097901440383,1.0651779803163806,0.3832,-0.0597
5.017353700008243,0.11965688655305322,-0.09392538934691504,0.8799566578657401,-2.9976889410062504,-4.142741829302725,2.1212594968872613,0.3832,-0.0597
5.072931500035338,0.13861599266598967,-0.09432513694465391,0.8801080762292696,-2.890985599766852,-3.1016050522441145,4.701602138833198,0.3832,-0.0597
5.126308200065978,0.15836630288324713,-0.09548482334639914,0.8827665357060356,-3.722931102541075,-2.497156706811974,8.352247395017754,0.3832,-0.0597
5.18123700004071,0.17131853835782637,-0.09177584961938831,0.8779581579404002,-1.5684513587299063,-8.283723760139365,7.707922566935758,0.3832,-0.0597
5.2344283000566065,0.19699385509609,-0.08732843176321904,0.8818575655832467,-0.4419213103065721,-5.852004588503745,7.865931232914292,0.3832,-0.0597
5.288550700061023,0.22125255345233283,-0.086662737416072,0.8858917666931387,-1.2446685191266904,-4.088701041337881,10.711810265511826,0.3832,-0.0597
5.34250690008048,0.2329598524046912,-0.08468695880287348,0.8839258441031226,-1.798254950651858,-3.5452024491853695,11.788982004192475,0.3832,-0.0597
5.396996300085448,0.2588751903795655,-0.08155522445176151,0.8823227202607982,-1.2130967868010012,-6.843142362038818,15.887038480328611,0.3832,-0.0597
5.453431900008582,0.2681889071562791,-0.07897928843928603,0.8822603130252877,-0.5368675531756469,-5.5884562660553705,16.770484202373947,0.3832,-0.0597
5.509042100049555,0.2837663587711714,-0.07387965838726272,0.8845479381876797,-1.9380923763985867,-0.6119578307987947,15.291078887844689,0.3832,-0.0597
5.56219179998152,0.3026054977162838,-0.06834385028350107,0.8853764254118404,-1.2513632719214278,-0.9648564773391325,12.99822853111914,0.3832,-0.0597
5.616433100076392,0.3202535637445152,-0.06336058129484562,0.8843876807163675,-1.233149162245979,-0.5465686678760686,10.155995508213355,0.3832,-0.0597
5.670325200073421,0.32978343951353256,-0.0612885075698764,0.8849211336292995,-1.3694320969853622,-0.23228544639225623,8.626797730785885,0.3832,-0.0597
5.726369600044563,0.3505319912031276,-0.05862632016548225,0.8859374683317878,-0.1316041592096005,-1.6576247171019147,8.470159740856143,0.3832,-0.0597
