t,x,y,z,roll,pitch,yaw,desired_x,desired_y
3.104802199988626,-0.275071209641392,-0.08866383523011022,0.8990111443725827,10.843915825568816,-16.676310665612718,-3.1742316390143954,-0.0716,-0.0852
3.1589131000218913,-0.274678285935949,-0.0885627521845296,0.8978720944931602,11.704592607397933,-20.546491880151404,-3.8805515244077817,-0.0716,-0.0852
3.212320900056511,-0.2750734804950735,-0.08868090079505782,0.8991189606851864,11.10500022490096,-18.35137542031079,-3.5070861152864916,-0.0716,-0.0852
3.2664831000147387,-0.2750604634000345,-0.0886769231179153,0.8990324242944505,11.043637944125633,-17.255402875827798,-3.2835442293391326,-0.0716,-0.0852
3.3212369000539184,-0.2749481549558027,-0.08864676706600745,0.8987867804875449,11.182707413534674,-19.398130094890675,-3.6929748567770737,-0.0716,-0.0852
3.37496960000135,-0.26427360705763603,-0.08941626130140962,0.8828316444935328,9.706411419581409,-34.74866934525337,-3.035356134465155,-0.0716,-0.0852
3.430878399987705,-0.2584675289072496,-0.09091165510747279,0.8824624629856426,3.891582970627041,2.612861345468033,3.5619640310524456,-0.0716,-0.0852
3.4833229000214487,-0.2507725364167084,-0.09151263382094907,0.8825329475101226,3.320694286229451,2.637757313581188,5.421766274111309,-0.0716,-0.0852
3.5381887999828905,-0.23281776577261687,-0.08846066959987381,0.8802612545432471,10.19796965289092,-14.457061346747055,3.570153546701756,-0.0716,-0.0852
3.594517800025642,-0.21650731939099532,-0.08654940620542999,0.8811015706411942,2.749167861485122,-29.683368217996,2.441158479062512,-0.0716,-0.0852
3.648211400024593,-0.1970403283729158,-0.08752610924417256,0.883552611728317,2.5808521002679217,-22.00061625129736,6.480139276408937,-0.0716,-0.0852
3.70357759995386,-0.18702443299827973,-0.08681063086881768,0.8832871838271171,2.4975172645191224,-19.189517889868604,8.329633115898888,-0.0716,-0.0852
3.7605328999925405,-0.16862248721953765,-0.08457804591889764,0.8823072210884452,0.6300915229786291,-22.83867617135432,10.494291206177907,-0.0716,-0.0852
3.81682169996202,-0.14953603926744696,-0.08130067202918245,0.8838618368426454,5.047571495858586,-9.237612176117024,10.309678425181643,-0.0716,-0.0852
3.8767918000230566,-0.13944795763185003,-0.07905147700884706,0.8797241474980242,7.971599920111663,-10.471724192509141,10.197114370963536,-0.0716,-0.0852
3.93427970004268,-0.12419803323598565,-0.0758731614162064,0.8858538033858956,6.851770659922412,-5.272097514810373,8.337076654573412,-0.0716,-0.0852
3.991234099958092,-0.10525791155254387,-0.07223049869393221,0.8848215843529775,7.938292691961446,-8.97283834007241,5.110356610715874,-0.0716,-0.0852
4.0578714000293985,-0.09544295654406497,-0.07054862725697825,0.8820491155996335,8.028484009757921,-10.557295083591171,3.46828951552186,0.1076,-0.0866
4.114014300052077,-0.0773198680282204,-0.06696730551745322,0.8797373116920743,9.186139922685614,-8.814063204428509,-0.8971206309999268,0.1076,-0.0866
4.167772099957801,-0.05873346913001524,-0.0664456730746622,0.8839964714516786,6.461807391332055,-6.675647280399499,-4.111723937993206,0.1076,-0.0866
4.223729699966498,-0.048900841895982275,-0.06640951621893773,0.880778920771955,2.8018309445251806,-10.912801331423633,-5.765264245321467,0.1076,-0.0866
4.276391600025818,-0.03248158254993089,-0.06862148826729338,0.8777936816111143,-0.22188253448038014,-6.104879754364121,-6.142002268291289,0.1076,-0.0866
4.329165300005116,-0.024750019438890294,-0.06897252109923924,0.8667639932886055,-4.501818168853179,-6.098251835071673,-4.348956744377915,0.1076,-0.0866
4.3827448999509215,-0.02369508931668509,-0.06809915032105592,0.8725039556590007,-1.247591225224118,-6.456104302227739,-7.209166904333241,0.1076,-0.0866
4.4401235999539495,-0.01729349660375198,-0.06703964897060993,0.873722329410162,-0.22872830781161824,-9.572521645901613,-10.306254245304002,0.1076,-0.0866
4.496422299998812,-0.002608194906250957,-0.06935673513105713,0.8748319226616376,-4.114879366230259,-7.139143419799564,-12.040104357624243,0.1076,-0.0866
4.550001900061034,0.011199099634515219,-0.07512896919366481,0.8813560948198453,-1.9769645152093527,-4.539481359361701,-8.843487395566939,0.1076,-0.0866
4.601989199989475,0.019006719971079254,-0.07705931547248505,0.8779650401066861,-3.067335096040593,-6.11580377182034,-6.99973080858987,0.1076,-0.0866
4.6576015000464395,0.036730015414795765,-0.08042779743047342,0.8807060393526859,-1.641958512895541,-5.367613958112005,-4.233475570433145,0.1076,-0.0866
4.711490700021386,0.04636367954079955,-0.07895567878543006,0.8792192965832437,-1.1195883831745823,-5.434101979378803,-4.711037446212347,0.1076,-0.0866
4.767418700037524,0.06409813392732361,-0.08060561206086193,0.8805762252879489,-3.173763166015733,-3.498091827497785,-3.843844569839314,0.1076,-0.0866
4.83498290006537,0.08468171025468145,-0.08380025947982214,0.8792215480016525,-2.943087794066705,-6.7920962963913665,-1.6573901465533458,0.3832,-0.0597
4.887885299976915,0.09528442385069477,-0.0845943085078533,0.8780786322249688,-2.4975585704300975,-6.1644332367699635,-0.4923703975597385,0.3832,-0.0597
4.942312899976969,0.12502231302650282,-0.08529375692462499,0.8801063946425334,-1.0295668450472562,-6.860882643133064,-1.8015772940284605,0.3832,-0.0597
4.9964887000387534,0.1350742033284148,-0.08549587955502713,0.880750312805243,-1.2583558037362803,-6.445815269208625,-2.242027741085865,0.3832,-0.0597
5.049693600041792,0.14386342311081587,-0.08549983172889662,0.8806160864961087,-1.1135665191272393,-4.991273593968946,-3.2052642189976024,0.3832,-0.0597
5.103544699959457,0.15735204062458952,-0.08705997128584655,0.8779765773578722,-3.362282098646141,-3.321685629335799,-3.5988107590490315,0.3832,-0.0597
5.156709000002593,0.17838207790168248,-0.08682518195233468,0.8826007260633983,-0.3058498792193709,-5.654926615417202,-6.851490228412794,0.3832,-0.0597
5.210766899981536,0.189730625824864,-0.08524192684455352,0.8861541580978045,-0.021321407494182595,-3.7383468407707694,-10.541398406708344,0.3832,-0.0597
5.2772012000204995,0.20893980887139466,-0.08945586937709055,0.8884716303385138,-2.2764352745435055,-1.745469528931089,-10.401300547737922,0.3832,-0.0597
5.331964300014079,0.23241514111775494,-0.09567943151703273,0.8867684321222206,-0.9760974266407385,-4.922275333352921,-8.879487071830583,0.3832,-0.0597
5.3855263000587,0.25271886921147757,-0.0985406061633804,0.8864510480177125,-0.6109855147354384,-1.8131858319946113,-7.235079378194866,0.3832,-0.0597
5.440172499977052,0.26111812709913007,-0.10088618851791491,0.8850923779284499,-1.7577011840772807,-2.015833383820197,-5.870327266185324,0.3832,-0.0597
5.492228499962948,0.2804166756226732,-0.10397542816138955,0.8863429512860952,-0.9947796942982888,-1.5082035278239205,-3.3111888248964894,0.3832,-0.0597
5.545673600048758,0.29058112376792394,-0.10537097134050444,0.8879482132301012,-0.4114918007900357,-1.1488112125794654,-2.0771732236054103,0.3832,-0.0597
5.599673100048676,0.3123721297776213,-0.10687394299767704,0.8869923084525382,1.6331245862203447,-5.1009501015634795,-0.8536147055337109,0.3832,-0.0597
5.655229500029236,0.32726978429890563,-0.10779496640850111,0.8872058410396808,0.5596700313289136,-1.6783432296066776,1.4995618172377296,0.3832,-0.0597
5.708063800004311,0.33457416048875843,-0.10825555938389454,0.8874286503742158,-0.24242431777979376,1.106055158020823,2.8972052729615534,0.3832,-0.0597
5.761499000014737,0.35226506925441053,-0.11020661499694512,0.8892319561563404,-1.2530380982645934,3.2689390864104113,6.618409614361517,0.3832,-0.0597
5.817043300019577,0.3589386613808148,-0.11037871004270473,0.88531278347491,-1.5721040085326643,2.719148071391657,9.032739804735156,0.3832,-0.0597
5.87752450001426,0.3790567291068275,-0.10752957516235408,0.8922212467313889,0.4345343809179219,3.4219421733357294,10.752513029910457,0.3832,-0.0597
