t,x,y,z,roll,pitch,yaw,desired_x,desired_y
3.1447684000013396,-0.26835446835495913,-0.08595375320029056,0.7672330670671876,0.9117880824148923,16.25193604910838,-4.25520312135519,-0.0716,-0.0852
3.1976619000779465,-0.2683450205980297,-0.08591866740320367,0.7670991139267536,0.9979930644264015,16.17823010481048,-4.220872697711544,-0.0716,-0.0852
3.2641742000123486,-0.2685748256341679,-0.08600757268558638,0.7677888129039777,1.0316263661792746,16.109600818537245,-4.233565928069775,-0.0716,-0.0852
3.3156743000727147,-0.2682419334318805,-0.08589004558506763,0.7668420617517857,0.9101895834937881,16.18372868036056,-4.269450439924327,-0.0716,-0.0852
3.368078500032425,-0.26843227556628024,-0.08594099125390556,0.7672990502560687,0.9361022410507187,16.242841236655792,-4.204488725688608,-0.0716,-0.0852
3.419037100044079,-0.26843859882119286,-0.08591632592903269,0.7672609460920928,1.0097466880145942,16.204690216108954,-4.216351372191124,-0.0716,-0.0852
3.47112730005756,-0.2684426408595251,-0.0859197445097655,0.7671960328892633,0.9956726027933112,16.197008178988398,-4.208560922987001,-0.0716,-0.0852
3.522762200096622,-0.2657057771106579,-0.08665143581008873,0.7672503101682802,1.6691787207345408,16.18584760834256,-3.5879790823005546,-0.0716,-0.0852
3.5748650000896305,-0.26230740342141085,-0.08752630031638937,0.7673979751313933,2.1308688160538503,16.145674990559538,-2.6950148996859675,-0.0716,-0.0852
3.625983400037512,-0.25265402195170406,-0.08888902700638895,0.7638506166781942,2.758208894008202,16.284569020736253,-0.4280031521427984,-0.0716,-0.0852
3.681171700009145,-0.24290729552360232,-0.08974776479368735,0.7595300617415239,3.0410041601855275,16.257569755243242,1.6397563531420807,-0.0716,-0.0852
3.747327800025232,-0.2383996894124863,-0.09021056182144994,0.7587484425422399,3.6522967050159356,16.21349763798279,2.870214214325956,-0.0716,-0.0852
3.7995794999878854,-0.2294068392598106,-0.091046934154877,0.7572597454860698,3.87629499553042,15.948007148587994,5.032896511153256,-0.0716,-0.0852
3.850643200101331,-0.22031954626486744,-0.09137643180286684,0.7545454531687024,4.501464969064349,15.844351488436311,7.345686913367331,-0.0716,-0.0852
3.903989600017667,-0.21601212873240025,-0.09114114888376011,0.7530321967813403,4.744710319328226,15.88938547265947,8.098841871575546,-0.0716,-0.0852
3.958827599999495,-0.20761762737528028,-0.0894287140030153,0.7496991288733402,4.185775544048616,15.855543480110327,6.760283918692771,-0.0716,-0.0852
4.011122900061309,-0.20373725332445744,-0.08836393614434006,0.7485742179268795,3.842495500945474,15.968392329378112,5.418923682836967,-0.0716,-0.0852
4.062310700071976,-0.1964255505803239,-0.08649018365964786,0.7459785794722685,2.775290635283438,15.897702789765518,2.4328352899877013,-0.0716,-0.0852
4.1133730000583455,-0.18967838042749613,-0.08509619220978797,0.7452552704342987,2.7646288990674095,15.746862587104106,-0.30623841762236487,-0.0716,-0.0852
4.167762199998833,-0.18643070140922702,-0.08461467070189736,0.7454136617497693,2.30664469580998,15.585399441261783,-1.9252383352908704,-0.0716,-0.0852
4.220574100036174,-0.18279344576408385,-0.0840089866170877,0.7435666103412536,1.7946105611747918,15.84278566949766,-3.3901398181030187,-0.0716,-0.0852
4.274696900043637,-0.1759665440342045,-0.08371396030407796,0.7424781702516312,1.011301291779714,15.622327159049172,-5.836829705447183,-0.0716,-0.0852
4.327517400030047,-0.16927688637704794,-0.08365894845200658,0.7414837156723186,0.5709910310717654,15.704351490335604,-8.276040175373264,-0.0716,-0.0852
4.380565600004047,-0.16267643556022524,-0.08414034746558982,0.7409104736967068,0.21887701432921267,15.68409805353175,-10.320172652051296,-0.0716,-0.0852
4.434728400083259,-0.15978285222211566,-0.08517805984891913,0.7416124687098385,0.44067187078038295,15.305257712790608,-10.027142934237212,-0.0716,-0.0852
4.491089200018905,-0.1530439122174751,-0.08700592209774298,0.7386056402888259,0.67242905693888,15.435641770989712,-8.18685282027393,-0.0716,-0.0852
4.545274300035089,-0.14697748124008223,-0.08905066939747613,0.737609319816176,1.2141538286397586,15.371769836634002,-6.140594150633673,-0.0716,-0.0852
4.599961600033566,-0.14386091576304152,-0.08998914120595188,0.7367831790528123,1.3149156537763094,15.336571248711941,-4.9850012920151565,-0.0716,-0.0852
4.655600000056438,-0.14072409421848106,-0.09079982985781129,0.7361568489363592,1.842397567726435,15.296354612927356,-3.897852033225796,-0.0716,-0.0852
4.714195600012317,-0.1345391305000547,-0.09249654028006674,0.7348920717074569,2.4126812625595284,15.08930912410553,-1.519750909791182,-0.0716,-0.0852
4.767837900086306,-0.1281172449328763,-0.09375966750718763,0.7325929888914354,2.8782699369502986,15.237034390336788,0.8425721936668095,-0.0716,-0.0852
4.822568600066006,-0.12168555429092115,-0.09479293951826184,0.7311479194503767,3.4422505474301492,15.105428445676779,3.162311642215019,-0.0716,-0.0852
4.876709400094114,-0.11850785672747743,-0.0952331248753111,0.730511436688832,3.9339523061203554,15.067441861026326,4.501661106587244,-0.0716,-0.0852
4.931609900086187,-0.11184602650212708,-0.09560326172125053,0.728435116005445,4.387254149427754,14.827445107386787,6.696560649658536,0.1076,-0.0866
4.986822100006975,-0.10857633709338663,-0.0956619819529158,0.7277048658993985,4.36773843664267,14.758070820031998,7.600208575705061,0.1076,-0.0866
5.054047500016168,-0.10193277857898941,-0.09555710958163434,0.725640465260106,5.463452629034189,14.59063829081594,9.732720066927133,0.1076,-0.0866
5.106947700027376,-0.09532887547739227,-0.09554843171306052,0.725655796420991,6.069166184056302,14.003074015119811,11.670095818702425,0.1076,-0.0866
5.159052200033329,-0.08844834881671215,-0.09508097099482142,0.7237134344645381,6.927884065172696,13.78807357842945,13.962664734806031,0.1076,-0.0866
5.21227490005549,-0.07997579881671137,-0.09273570069276324,0.7216333434629808,7.21032720983192,13.72285010317413,13.667281213826652,0.1076,-0.0866
5.2633491000160575,-0.07421958749625522,-0.09069298387094851,0.7196539147571501,6.924342985570742,14.19597556921587,12.384966447379703,0.1076,-0.0866
5.315626100054942,-0.06260361639747618,-0.08700794701227865,0.7177187593906552,6.297053959349352,13.712840925521288,9.215719483171398,0.1076,-0.0866
5.368666900089011,-0.0571745910161075,-0.08537897231096606,0.7159991362397303,6.244805801239179,14.001918842762214,7.58091056979519,0.1076,-0.0866
5.419080300023779,-0.047040029741614746,-0.08291179818399734,0.7128794285366098,5.428811471520185,14.36787843233831,4.656738488837926,0.1076,-0.0866
5.470668600057252,-0.042224431786484086,-0.0819336369707891,0.7110684891060082,4.7880703131189915,14.759225258896286,3.200570495579757,0.1076,-0.0866
5.522675600019284,-0.033313714038019526,-0.08093878236380657,0.7121550242060734,3.9066774195907663,13.484389243428422,0.2952224497637465,0.1076,-0.0866
5.574896600097418,-0.02896223905046103,-0.08022345283820155,0.7101366986957052,3.81138137662836,13.953908597008214,-1.0690299217298,0.1076,-0.0866
5.628744999994524,-0.020559962508472925,-0.07926499907582159,0.7076949189539261,3.340584381397329,13.909067113729607,-3.8644987964727155,0.1076,-0.0866
5.692924000089988,-0.012734341985998494,-0.07931212219648251,0.7078025195038008,2.002513208475244,12.734756314380693,-6.089136656929675,0.1076,-0.0866
5.744316300028004,-0.009294869274122205,-0.07942908344116852,0.7037597952349958,2.3824366064019755,14.81308272551873,-5.667732001921083,0.1076,-0.0866
5.7953130000969395,-0.002924003255773989,-0.08089820549157384,0.7023788635701546,2.2075569421559162,14.057450218415514,-4.141248560192981,0.1076,-0.0866
5.847242400050163,0.0001131659128051446,-0.08171950621942212,0.7024171745224949,2.4597460193859453,13.461928614645425,-3.1329013908850194,0.1076,-0.0866
5.896232400089502,0.006380506428207369,-0.08316567552070316,0.7003506596925204,3.824114728371944,14.049827192586262,-0.5584102517649893,0.1076,-0.0866
5.950392000027932,0.012519219642051773,-0.08432928769764417,0.6982425973395641,5.528000828832546,13.99182175281867,1.947135379387277,0.1076,-0.0866
6.002504200092517,0.015598719341608211,-0.08510989182364327,0.6996372203253313,3.767930100648846,12.296363002176285,2.8999454472582524,0.1076,-0.0866
6.055098699987866,0.02151888998883906,-0.08587289335734025,0.6987841957280428,3.612877819813176,11.191781807992344,4.996528155834072,0.1076,-0.0866
6.108105599996634,0.027263893047880926,-0.08505941954028992,0.696938986049519,4.337287028736803,11.27270721400545,4.825569680358362,0.1076,-0.0866
6.163736900081858,0.030341051252462926,-0.08415999909290284,0.6952496901750368,6.836475249329776,-8.094583993248664,1.4985507466140529,0.1076,-0.0866
6.216680800076574,0.03304868515043645,-0.08391149347482846,0.6977062916707067,2.9258441690899657,7.685465060104114,2.178604853535653,0.1076,-0.0866
6.2735060000559315,0.03870984577698162,-0.08218559582640934,0.6930504281552069,2.7071880539755626,11.485405375187847,-0.027199682732744975,0.1076,-0.0866
6.326654100092128,0.044534871017156516,-0.08105023759573471,0.6915217163388131,3.31020365324976,12.23632368806749,-2.5714276157564604,0.1076,-0.0866
6.380177100072615,0.047646506787848104,-0.08092578561407544,0.6924457605328935,0.5832410512238269,7.783972539689219,-4.289928460422091,0.1076,-0.0866
6.434241599985398,0.05353471579066069,-0.08024342178954069,0.6892206350183692,1.287804685262323,11.644428645070613,-6.364798451069776,0.1076,-0.0866
6.489141200087033,0.05983069744566269,-0.08012443751606683,0.6885397066776235,1.7527506299855362,11.697793389913329,-8.634325478848071,0.1076,-0.0866
6.542421500082128,0.063114114407249,-0.08005264507915233,0.6876091316371598,0.6237383130029278,10.691394769499043,-9.977924178502397,0.3832,-0.0597
6.610369500005618,0.06945823278398451,-0.08032455374507984,0.6841715974110123,-0.4533779019781968,13.20006655961262,-11.75910389745186,0.3832,-0.0597
6.664285100065172,0.07284327789395144,-0.08126950454222015,0.6846215253384202,-1.198056253063862,8.200757936350797,-11.701731314509543,0.3832,-0.0597
6.733899699989706,0.08208355413299746,-0.08435295344440931,0.6809748065979613,-0.6412523865434415,10.770899561999874,-8.702572738059061,0.3832,-0.0597
6.788683100021444,0.08514748291678058,-0.08522572460235042,0.6796080184572636,-0.7293306181412867,9.740300582167203,-7.700792387473246,0.3832,-0.0597
6.844110100064427,0.09433125532147801,-0.08797765616334105,0.6787347363408819,-0.25321657727335944,10.43818841230296,-5.54338743477362,0.3832,-0.0597
6.898708500084467,0.1103148761384294,-0.09151898042995454,0.6743296197564494,-0.8257268358924976,7.280090642390382,-1.5852722346159374,0.3832,-0.0597
6.952664400101639,0.11929242685730652,-0.09213961638328215,0.6704891892321487,-0.9430717335447644,6.389097431030506,-0.056256357485458236,0.3832,-0.0597
7.011384700075723,0.13754816002657155,-0.09227780076566999,0.6633795540274922,15.936809664809148,20.02430905573562,4.930693838186545,0.3832,-0.0597
7.068074300070293,0.15673097219618723,-0.09179798563024373,0.6561980946397883,-1.283272133425167,4.65906884417681,4.868858557732013,0.3832,-0.0597
7.122193300048821,0.17616897269573453,-0.09030468643805303,0.649853968019531,-1.5635692505105112,5.606918219557269,7.228082957453931,0.3832,-0.0597
7.175042400020175,0.18546482879985,-0.08915845631330642,0.645718196630891,-1.9974803585057628,5.15426212130257,8.463947426776329,0.3832,-0.0597
7.225551899988204,0.2034219682357319,-0.08566575011540511,0.6391869679264285,-1.543136995001688,4.603033961026649,8.473595528072762,0.3832,-0.0597
7.277892200043425,0.22093206527171658,-0.08160948755693691,0.6336663142858387,-1.757625472647406,4.484714931125888,6.060433722071508,0.3832,-0.0597
7.331607000087388,0.22963896802557748,-0.08004629236842928,0.6316618906516422,-1.6589291879914034,4.317793162852463,4.537835258080652,0.3832,-0.0597
7.381006500101648,0.2381047498188137,-0.07867345587452862,0.629240190788125,-2.017095663058963,4.152255691298227,3.046021456343178,0.3832,-0.0597
7.434377200086601,0.2546942416085712,-0.07663459889372051,0.6264029424715947,-1.7102738410562632,5.033804736801194,-0.11762653643849631,0.3832,-0.0597
7.487568899989128,0.270505618601573,-0.07550211110693628,0.6252918609961571,-1.7645864576783108,5.676175745355471,-3.1234256978459576,0.3832,-0.0597
7.5386645999969915,0.27764948887367447,-0.07515720953420808,0.6242044862735135,-1.8019346239060887,5.51459185107019,-4.78647457634996,0.3832,-0.0597
7.590963100083172,0.2921331439320845,-0.07580792210959603,0.6239645204034437,-1.6034556169671903,5.954304980763215,-7.09462139650916,0.3832,-0.0597
7.641937700100243,0.3056962547788442,-0.07814686470231022,0.6237647256559685,-1.2724940821251618,5.795316252415545,-6.055309208190601,0.3832,-0.0597
7.696803400060162,0.3121270669810419,-0.07923568189753723,0.6231280739536653,-0.6198727170278302,5.852675674294766,-5.354769420443093,0.3832,-0.0597
7.750250600045547,0.31881886235537915,-0.08023750743817933,0.6229346192255041,-0.2762141445656577,5.57311895026888,-4.443541066538009,0.3832,-0.0597
7.801311200018972,0.332070042690483,-0.08227084048305897,0.6219892811386963,0.20630450048738722,5.164663712592043,-2.5015957219601668,0.3832,-0.0597
7.856741100084037,0.3460603431033117,-0.08428171290747921,0.6214451697121768,0.5536464799879193,4.324930677932121,-0.09338280652792945,0.3832,-0.0597
