t,x,y,z,roll,pitch,yaw,desired_x,desired_y
3.095737299998291,-0.26340447052198207,-0.062339226651118934,0.6289072676287273,2.9695152504368982,6.214874815113938,3.1894558814888283,-0.052,-0.0897
3.153436900000088,-0.2632455437128635,-0.06230763314405461,0.6285234832159172,2.99902754199965,6.306048284160053,3.1754005232936704,-0.052,-0.0897
3.2090566999977455,-0.26330166369453806,-0.0623056481305751,0.6286015496465123,2.9280655098145454,6.279061859784091,3.19913446503977,-0.052,-0.0897
3.2630178999970667,-0.26338976238999723,-0.06232089784375596,0.6287927680517622,2.801966057965011,6.220833795254195,3.1519000094929153,-0.052,-0.0897
3.317109600000549,-0.26328656551089963,-0.062301483589323935,0.6285770952126111,2.8350382146391406,6.270664100373513,3.1457893468005302,-0.052,-0.0897
3.3759041000157595,-0.2584251564802427,-0.061413483034624,0.6281807868119784,3.9425083213493353,6.7227839452712885,1.8145915162294932,-0.052,-0.0897
3.43350789998658,-0.25208483192169845,-0.06037340489978389,0.6273120716427758,4.624782149335574,6.922239546313459,0.14245886241887823,-0.052,-0.0897
3.487181500007864,-0.23777870080251756,-0.05923222443750621,0.6275518183840919,4.101080831326183,6.758137710639166,-3.9793205199972483,-0.052,-0.0897
3.55321709997952,-0.22279807789759268,-0.05948016191280539,0.6272639465324319,3.8720503496161243,6.575478780034573,-7.503743851677101,-0.052,-0.0897
3.6062399999937043,-0.21509650182244633,-0.05990740787100024,0.6267117614856875,3.372049891823785,6.463870333294874,-9.131267883648286,-0.052,-0.0897
3.663154100009706,-0.19982676589770532,-0.061684669381915906,0.6269142329041351,3.1224649065154004,6.069518342468285,-12.55812036640522,-0.052,-0.0897
3.7200090999831446,-0.18420819439853328,-0.06440850508776388,0.6264864179495746,3.372228971022286,5.61088398044898,-15.809562465519695,-0.052,-0.0897
3.787411199999042,-0.176233845331448,-0.0661187992079819,0.625625589245343,2.676198963938898,5.453494805448759,-17.17413882349976,-0.052,-0.0897
3.841130700020585,-0.1619157260662037,-0.07076245745013117,0.6255178999548672,2.8917545063165786,4.109635178859003,-17.00471706255157,-0.052,-0.0897
3.909539800020866,-0.14845436259132022,-0.07563106474725555,0.6256744362124791,3.0748474510678845,2.0866938033437705,-15.520070458533713,-0.052,-0.0897
3.961842999968212,-0.1357229718291846,-0.07999553415259118,0.6243086124882544,2.4720256154674756,1.2219076633180204,-13.237944125443788,-0.052,-0.0897
4.0167866999981925,-0.12379773625908,-0.08359485831885409,0.6222686903118089,1.4056412396308315,0.8209190621707334,-10.767858153682523,-0.052,-0.0897
4.0881861000088975,-0.11266719307010292,-0.08648037110000358,0.6216356061383466,1.2941728358265852,-1.5337590160377124,-8.842189935761962,-0.052,-0.0897
4.143132199998945,-0.10734840142982471,-0.0876263947583951,0.6203691792047604,0.64978477841343,-1.6081106379588537,-7.585983028312139,-0.052,-0.0897
4.198585000005551,-0.09680566738476949,-0.08977842379685966,0.6184529563409064,-0.38925773127932434,-3.108086371242282,-5.170717898179291,-0.052,-0.0897
4.2512050999794155,-0.08718290017819899,-0.09183388368472656,0.6179339205710388,-0.9178771351581612,-4.382034554374549,-2.337887288409361,0.1634,-0.0666
4.320227299991529,-0.0774762651465933,-0.09312220195772034,0.6165143429644063,-1.8721975808613414,-4.122479841125776,0.3631756933353278,0.1634,-0.0666
4.37621889996808,-0.07259503383480678,-0.0938068455078654,0.6169053361744262,-1.2325609299070337,-4.178462470770983,1.782795309024612,0.1634,-0.0666
4.430771499988623,-0.062417723963565847,-0.0944977330114415,0.615034602969194,-2.9494456118006322,-2.7192353434968477,4.815217848662846,0.1634,-0.0666
4.485237299988512,-0.05189976966015636,-0.09396241865837951,0.6105999510677248,-3.473393653257166,-7.4693489257054555,6.691262512683452,0.1634,-0.0666
4.538540499983355,-0.0461088877462988,-0.09340857954428815,0.6102894222637996,-0.7256721916521962,-9.823489127933803,7.070675519511519,0.1634,-0.0666
4.594074799970258,-0.04460942297064712,-0.09449529950404803,0.6180449747855127,-2.1722680763400986,-4.933575098442153,7.485886634813661,0.1634,-0.0666
4.652601499983575,-0.025341084467864032,-0.09354194698136209,0.6246010299522532,-2.018063844825922,-6.147528675209757,9.732986608196052,0.1634,-0.0666
4.708688999991864,-0.013021395149631703,-0.09214714904414412,0.6248531793360501,-1.3646696227305737,-10.755361619402544,10.634618911133671,0.1634,-0.0666
4.764032099978067,0.01258412772216864,-0.08831258068227989,0.6265698544413246,-0.6783852759595738,-12.682803812251018,12.910313228932905,0.1634,-0.0666
4.81815770000685,0.039609455644203206,-0.0823136389868163,0.6305415188785543,0.15393696381846753,-17.33882943643975,11.813672275261476,0.1634,-0.0666
4.8714019000181,0.0655010339634072,-0.0767022100298988,0.6337685136238623,0.41080606322530877,-19.42835556190919,9.221460060388662,0.1634,-0.0666
4.927131199976429,0.07699413698283987,-0.07434836414457834,0.6350033646651977,0.60341492576877,-20.162691293671983,7.804866439357768,0.1634,-0.0666
4.980476299999282,0.09992219126790372,-0.07083093289868368,0.6411264951074617,1.3265499879366354,-20.66519790399682,4.987864364767009,0.1634,-0.0666
5.037658100016415,0.11034281298680959,-0.06964865017841672,0.6431420637480711,1.4318683597180362,-21.056065995215334,3.848573456215202,0.1634,-0.0666
5.091887200018391,0.12973495843905325,-0.06758328941074816,0.6479991383433549,2.2223887622170446,-21.170194854376287,0.6443507829564364,0.1634,-0.0666
5.145116899977438,0.14782221268458984,-0.06667098462833748,0.6528836233607939,3.006565062140134,-21.749613897322973,-2.365618970468813,0.4425,-0.0777
5.198673899983987,0.1555346693800599,-0.06643947610118744,0.6539132483063765,3.3738032999841745,-21.676584019653752,-3.751513285646684,0.4425,-0.0777
5.250878899998497,0.17095116763325957,-0.06668526701070754,0.659828566120158,4.301468854546472,-21.283407507154497,-6.589074910862736,0.4425,-0.0777
5.307760399999097,0.1851081797468377,-0.06893599926078481,0.6652736117319036,3.963146547889723,-21.015475640122187,-4.692045144680227,0.4425,-0.0777
5.3658127000089735,0.19089707704579773,-0.06991422393852553,0.666098445201327,3.574969509102024,-20.89571822737947,-3.2128823264114694,0.4425,-0.0777
5.418954499997199,0.1962593179549352,-0.07063727053636244,0.66789366420473,4.063339788059833,-20.446280720442726,-2.164956375230803,0.4425,-0.0777
5.4742249000119045,0.2026965579913009,-0.07131170143278401,0.6713738467414235,2.249234395047147,-16.351674615806072,-1.0710131650458232,0.4425,-0.0777
5.533292300009634,0.21528599389468872,-0.07208493778626991,0.6753576657582996,0.9001962102556732,-18.097477374211522,-0.5252936059171143,0.4425,-0.0777
5.5914520000224,0.24872728138566572,-0.07231921182265848,0.6830447173377874,1.3401685277177144,-22.803956885007388,-0.7069627190966999,0.4425,-0.0777
5.643629800004419,0.2804549757866327,-0.07205585301860867,0.6926012117108298,2.626173765694727,-22.25927010381218,-3.213091065050014,0.4425,-0.0777
5.696767000015825,0.3094464459446514,-0.0728660174201467,0.7003795214447504,3.7847434218541487,-22.09974193978255,-6.440246460621192,0.4425,-0.0777
5.751403299975209,0.32367594139736294,-0.07402212172792957,0.7047496717050271,4.0424136824749946,-21.31880003368453,-7.62807941381572,0.4425,-0.0777
5.80869099998381,0.3373130596278527,-0.07527906531515849,0.7086450407679107,4.3165845272415035,-21.160012034015455,-9.211689710620904,0.4425,-0.0777
5.862198000017088,0.36456563909950357,-0.07886702992652143,0.7168829952559952,5.303031810485958,-20.541457649915834,-12.602417761464007,0.4425,-0.0777
5.918002200021874,0.3878425505475127,-0.08278624734651041,0.7237176908266985,6.62516658049649,-19.615420192513195,-15.907105743921052,0.4425,-0.0777
5.975655200018082,0.40745390687047606,-0.0881036420073695,0.7299842680683188,6.709000122075641,-18.80170825479422,-16.330337807661337,0.4425,-0.0777
