t,x,y,z,roll,pitch,yaw,desired_x,desired_y
3.349749999999858,-0.28097732537701386,-0.0655281307594448,0.015524740778955725,0.06516713777477284,-0.0026398452469968566,1.5706219717743612,-0.0716,-0.0852
3.378802700000051,-0.2809771693759843,-0.065528131312299,0.01552474157192002,0.06517714402213005,-0.002639879478937614,1.5706219451699808,-0.0716,-0.0852
3.4101301999999123,-0.28097701555015386,-0.06552813184631308,0.015524742332014122,0.06518701059602523,-0.002639912749684224,1.5706219188514312,-0.0716,-0.0852
3.450434899999891,-0.27344657827895824,-0.06555503037445404,0.015571206787302224,0.06969942862778818,-0.004444243016663113,1.551059296448102,-0.0716,-0.0852
3.4970095999997284,-0.26593042158873675,-0.06572955472954045,0.015688461812522817,0.06674681611449465,-0.004920224434565108,1.5637538171921057,-0.0716,-0.0852
3.5300610999997843,-0.25849276258870824,-0.06576981683192074,0.015869062869685542,0.056392010966618195,-0.004629701711296179,1.54336617895278,-0.0716,-0.0852
3.5619841999996424,-0.2507407122414519,-0.06596155010258116,0.0160738497242783,0.05389490900254941,-0.002065113178456015,1.5581570173854795,-0.0716,-0.0852
3.5907914999997956,-0.2430923595233553,-0.06600255184792726,0.01623044439140154,0.044505974623997704,0.0004739312735924662,1.5392108153437805,-0.0716,-0.0852
3.623080299999856,-0.23540115606653395,-0.06620428748064643,0.016345879211631397,0.02754388636885758,0.004234828648999111,1.557423608961364,-0.0716,-0.0852
3.66229229999999,-0.2276777379688701,-0.06625011358777462,0.01634418252357539,0.014261119549703959,0.006823631882395708,1.5400893189043081,-0.0716,-0.0852
3.6950278999997863,-0.2199972044819628,-0.06645485272346767,0.016257175921414627,-0.0007494138097434782,0.008707706849400936,1.5213731160738058,-0.0716,-0.0852
3.726665099999991,-0.21239236761972996,-0.06681499093316157,0.016116575704943275,-0.012375378516881535,0.009948363223397325,1.5411550251080395,-0.0716,-0.0852
3.7564776999997775,-0.20471497409435738,-0.06702989936722833,0.015908540770501762,-0.022302659507310408,0.010286147812569937,1.5266118268376865,-0.0716,-0.0852
3.786473399999977,-0.19636332820457147,-0.06742833654303745,0.015687220260660575,0.020187895985178908,0.009255601324055004,1.5120094132324198,-0.0716,-0.0852
3.818808900000022,-0.1880732457818546,-0.06797228444214659,0.015515914170850978,0.06510192703932342,0.007083432140137245,1.4952831376907256,-0.0716,-0.0852
3.8498594999996385,-0.17984466261994697,-0.06866036078945531,0.015433782854552932,0.1101221403321575,0.004699164466446605,1.476296968419851,-0.0716,-0.0852
3.8808288999998695,-0.17273077541464463,-0.06938166149071125,0.015452104426041051,0.08739746994297874,0.0028321874339406355,1.489633159726043,-0.0716,-0.0852
3.9114808999997877,-0.1656529631928632,-0.06997734672988516,0.015552122563907336,0.05761270151355204,0.0013088337274660942,1.4717600626999268,-0.0716,-0.0852
3.942279899999903,-0.15860801654876147,-0.07068358954958338,0.01571108832431824,0.021538549103921525,0.0013906492722307738,1.4869025423739581,-0.0716,-0.0852
3.9680020000000695,-0.15166419773826076,-0.07125328063185157,0.015886447737164716,-0.02060329436209928,0.0008960631014085316,1.4678557875733853,-0.0716,-0.0852
4.021304399999735,-0.14455734272012705,-0.07196827776688848,0.016070148579678728,-0.06307850635161086,0.00269441279039726,1.4840998981626248,-0.0716,-0.0852
4.0542075999997,-0.13740096552157316,-0.07254979971103727,0.016194499244321973,-0.10481186446349815,0.003622826675502604,1.4643808438595387,-0.0716,-0.0852
4.0846692999998595,-0.1296075345515143,-0.07334409839613562,0.016260532462074345,-0.10963242415242554,0.005900520504349597,1.4429483697945582,-0.0716,-0.0852
4.1153558000000885,-0.12160954538295418,-0.07432668770462386,0.016230317225783126,-0.10159661947575371,0.009765171850780487,1.4212078041798641,-0.0716,-0.0852
4.146275099999912,-0.11347380079967136,-0.07549963343928469,0.016106194801090483,-0.08135688160055264,0.014900113270430391,1.400660982349619,-0.0716,-0.0852
4.176595200000065,-0.11076176089870929,-0.07599153981397258,0.01605113629957966,0.08887627909596069,0.015132399503138284,1.40239088380656,0.1076,-0.0866
4.207602299999962,-0.10096310148944164,-0.07762185909737551,0.01587555378967547,0.06494555514948087,0.01904583392797455,1.4442022149267018,0.1076,-0.0866
4.23467299999993,-0.09291600010458188,-0.07863215454221781,0.015667148330990716,0.09305714175688767,0.01782848313874869,1.4388880768543997,0.1076,-0.0866
4.278269800000089,-0.08493478246103899,-0.07977321068274133,0.015505232592124897,0.12340052423956985,0.009886519692345023,1.464599809070679,0.1076,-0.0866
4.311096200000065,-0.07773114919626949,-0.08064787286795355,0.015463980180620429,0.10689761069008587,0.0003565002911325775,1.451904204110766,0.1076,-0.0866
4.3419567999999344,-0.07060874270967446,-0.08165571302696539,0.015437859256130627,0.08794763471018853,-0.009317320250797326,1.4672164539791899,0.1076,-0.0866
4.3723526999997375,-0.06353074150692413,-0.08251035996031149,0.015500060663054111,0.0654253383944723,-0.01611383607369192,1.4804292715507528,0.1076,-0.0866
4.402890999999727,-0.055983138590365016,-0.08327095721498802,0.015655624219719128,0.06602213905893488,-0.019745342770307123,1.493913078698131,0.1076,-0.0866
4.43438500000002,-0.048474194060208926,-0.08387867965769398,0.015892917167359157,0.05811941837959553,-0.020403635037824833,1.4700344441426783,0.1076,-0.0866
4.464773199999854,-0.04098160670638283,-0.08462186104611669,0.01608615874338183,0.03966585184490747,-0.016139154251412602,1.4807880926736736,0.1076,-0.0866
4.506107100000008,-0.033489811317647056,-0.08522403205992381,0.016252978696386488,0.013899483789419634,-0.008937683260137625,1.4965375684692372,0.1076,-0.0866
4.539378399999805,-0.026042601932834107,-0.08565851220656698,0.0162989594063124,-0.015577346089363448,-0.002460471150071774,1.477753870774429,0.1076,-0.0866
4.561124399999699,-0.01862707420814263,-0.08625278587971984,0.016295083842029028,-0.05038248222133937,0.004054034312707857,1.4986953332753326,0.1076,-0.0866
4.600775699999758,-0.01126543147242589,-0.08669419372853016,0.01616114414107473,-0.08215157842114164,0.008109262573798499,1.4842815619615723,0.1076,-0.0866
4.638574999999946,-0.003963775750857062,-0.0872932539113742,0.016002203453010726,-0.11026541383428007,0.009532545250533535,1.5078262120662664,0.1076,-0.0866
4.670145600000069,0.00500969559546392,-0.08785786585366452,0.01575535985466489,-0.030280086139816035,0.008648024297391654,1.4987434467224687,0.1076,-0.0866
4.702639699999963,0.013890822169909705,-0.08857548752421711,0.015525732831641055,0.05317876226746452,0.001709460840799052,1.5205085305856751,0.1076,-0.0866
4.7336247999996885,0.022715833625706137,-0.08911083489072508,0.015419616775529854,0.13766363515811053,-0.004897108072823255,1.5055917621539567,0.1076,-0.0866
4.764762299999802,0.02952063927525731,-0.08964877493243756,0.01540269821775404,0.09381087816155938,-0.010105278623426263,1.5182877693561538,0.1076,-0.0866
4.79560199999969,0.03627494833155967,-0.09006336593698383,0.015474054654865359,0.04568868284252352,-0.012851948861148642,1.530953733145132,0.1076,-0.0866
4.836252300000069,0.044178069319706685,-0.09040717444243007,0.015646018310166824,0.06384902486099385,-0.01419844342215888,1.5449402000462833,0.1076,-0.0866
4.866542499999923,0.052048517792751554,-0.09060425854579793,0.015873234235527906,0.07268593241014604,-0.013180856379987633,1.560554386867943,0.1076,-0.0866
4.896776300000056,0.05989846091670168,-0.0906566532121505,0.01609865109175922,0.07232608015737468,-0.010809820785608026,1.5783958607950124,0.1076,-0.0866
4.925789699999768,0.062227876852449,-0.09059957847905833,0.016165223089983128,0.21364787115070394,-0.008884106228627398,1.578687010648901,0.3832,-0.0597
4.959202199999709,0.06964703354765292,-0.09042885859623133,0.016418378189925503,0.14952437824653303,-0.006193924474487297,1.5764199970262578,0.3832,-0.0597
4.986297299999933,0.07888760570099759,-0.09034205353196233,0.016368291291138416,0.037101605146108156,-0.003202108395473404,1.595387137158724,0.3832,-0.0597
5.019890199999736,0.08876930163718967,-0.09006960364786427,0.016178755504618135,-0.01831897418681144,-0.002583388655937913,1.5805812948536493,0.3832,-0.0597
5.054985299999771,0.09827723749891018,-0.08998827974835633,0.015899826108326052,-0.06083373435867139,-0.003076413458725916,1.5992289637522552,0.3832,-0.0597
5.085200900000018,0.10756669455118158,-0.08973398218632786,0.015636890744412938,-0.0937290745440857,-0.00437030115578936,1.5831618384570203,0.3832,-0.0597
5.116517099999783,0.117349239723716,-0.08965901658439167,0.015428464321831635,-0.0604978034240632,-0.007262367987416377,1.5988138772525224,0.3832,-0.0597
5.152628599999844,0.12686908816499803,-0.08941164163798122,0.015388006367652316,-0.021313291402516553,-0.009091307761040833,1.6150043172548327,0.3832,-0.0597
5.172998399999869,0.1362167385428908,-0.08900919840607877,0.015534624138614336,0.030710062061804634,-0.010034129670175104,1.5970947271034919,0.3832,-0.0597
5.203971899999942,0.1454135154865338,-0.08878427362469181,0.015773812876198758,0.07720902888154499,-0.009974254564327944,1.6106461234955904,0.3832,-0.0597
5.234748500000023,0.1543707133927223,-0.08840394165706064,0.016046346026740613,0.11828380873260963,-0.0077303897250204,1.6278113441253594,0.3832,-0.0597
5.265450200000032,0.16213532182141852,-0.08791251900023223,0.01623759908560586,0.10502987132141771,-0.006095186431482555,1.6103993628613815,0.3832,-0.0597
5.317495799999961,0.16983826006267294,-0.08758410280682771,0.016342908328804907,0.08679509121604892,-0.003455704304399953,1.6285996375224467,0.3832,-0.0597
5.348513500000081,0.17819479998356985,-0.08705807747396903,0.01633949034825474,0.11204647917873957,-0.0013424165010495776,1.610253521805593,0.3832,-0.0597
5.378726399999778,0.18647617380498252,-0.08670781363131257,0.016221832889105392,0.13789680675412294,-0.00030553477645794047,1.6292378192932575,0.3832,-0.0597
5.4100344999997105,0.19406956497338948,-0.08624033365031974,0.016028271282653404,0.11962864248269553,0.0004766892269156184,1.612764370100498,0.3832,-0.0597
5.440649599999688,0.20155068309098859,-0.08593063939624469,0.01579835218846183,0.10673395012580462,-0.00016394866581102063,1.6316240468166097,0.3832,-0.0597
5.471829399999933,0.2091605461510224,-0.08547438732461578,0.015584939401522563,0.10180379545759875,-0.0007374188578201897,1.615032755003668,0.3832,-0.0597
5.513463699999647,0.21659545152954404,-0.08517232370711435,0.015420539502607591,0.09795461396849761,-0.0026783067565568307,1.6321877251603039,0.3832,-0.0597
5.532956699999886,0.2240604791039408,-0.08473006841190621,0.015353094378671163,0.09626506183237722,-0.004257191968480526,1.6493709702457136,0.3832,-0.0597
5.574794999999995,0.2315030021180672,-0.0841566023834472,0.01539223077679252,0.09056831317743047,-0.005652924780770667,1.668291393077626,0.3832,-0.0597
5.595161899999766,0.2389719645140262,-0.08343385844565747,0.015551162436787707,0.0935905176449578,-0.007600440275842766,1.6514115843584833,0.3832,-0.0597
5.627070499999718,0.24649836285523788,-0.08285425945731953,0.01575601251299383,0.0848799160351666,-0.008290059580014223,1.6667247654405783,0.3832,-0.0597
5.656478899999911,0.2539761093662579,-0.0821383517942079,0.015985732854987205,0.06670440559236503,-0.0073705342676443,1.6840862512137287,0.3832,-0.0597
5.7083198999998785,0.2615731744101171,-0.08125599090430212,0.016201104161190465,0.05855133090320456,-0.007266073692860696,1.6659351486543619,0.3832,-0.0597
5.738637399999789,0.26923238601225685,-0.0805239166155396,0.01633080667453651,0.040422879874162196,-0.005541644877717083,1.6829134241997974,0.3832,-0.0597
5.769583099999636,0.27685109643079403,-0.07964783067051329,0.01636513845396801,0.01937317860255477,-0.004345547413912331,1.6645422314236928,0.3832,-0.0597
5.799552699999822,0.28434445546703324,-0.07892299697292436,0.016295970833947862,-0.001945211355744037,-0.002560986810889064,1.6824743299627911,0.3832,-0.0597
5.830346299999746,0.29181300283143025,-0.07805600992564375,0.01613687940523889,-0.021719171777961132,-0.001557173182137478,1.7031682021736028,0.3832,-0.0597
5.861352999999781,0.2992969211112568,-0.07703844624488071,0.015918648088893116,-0.04057576257910206,-0.001658824889657221,1.687566285535917,0.3832,-0.0597
5.891699499999959,0.30670190318496915,-0.07618593135092445,0.015679307799657455,-0.0528941316157345,-0.0034640748851129527,1.7061245048947133,0.3832,-0.0597
5.922835699999723,0.3144871221191324,-0.0751378941340544,0.015461319322374597,-0.033596844172353965,-0.0059552010987059326,1.7252953939184452,0.3832,-0.0597
5.953128499999821,0.32219755785726445,-0.07394824248817862,0.015330189703963585,-0.012160939736381651,-0.008619094801295586,1.7443401929942048,0.3832,-0.0597
6.004656699999941,0.32989993390034184,-0.07260473178404518,0.015348521207484455,0.01557495416182005,-0.010452537128292867,1.727017053319529,0.3832,-0.0597
6.035420499999873,0.33766759618722053,-0.07141440702686913,0.01546300697346429,0.034571065595446586,-0.011537863681087486,1.7411282409415294,0.3832,-0.0597
