t,x,y,z,roll,pitch,yaw,desired_x,desired_y
0.0,-0.23598672664326534,-0.06984574578717628,0.8823454904600297,1.7337060434311649,-0.090941066790291,-0.2219391883310779,-0.0716,-0.0852
0.06717000005301133,-0.23587166251561983,-0.06982052197273088,0.8820216918676788,1.8019799434729715,0.013512641250815,-0.2107647998680631,-0.0716,-0.0852
0.13229029998183295,-0.23597645376562618,-0.06984491627527804,0.8823264844582683,1.9813143405989864,0.0942884807339368,-0.2307869198744965,-0.0716,-0.0852
0.19727020000573292,-0.23641198755381504,-0.06996973573692386,0.8837546404709119,2.2536267333234923,-0.5602882899471131,-0.2552937042993763,-0.0716,-0.0852
0.26293039997108325,-0.23663477561116655,-0.07007740809835537,0.8845682865997349,1.71059618133391,-0.8404677753408311,-0.3199691452400839,-0.0716,-0.0852
0.3320846999995415,-0.2360796024609925,-0.06987340895767277,0.882690686404977,2.056426465787971,-0.1026829179397108,-0.2131461958990801,-0.0716,-0.0852
0.3990005999803552,-0.23631629999590104,-0.06996123470150865,0.8834738924031806,2.244740362387942,-0.3520366520738184,-0.2884683413372325,-0.0716,-0.0852
0.46816950000356927,-0.23646825383978717,-0.0700337671377279,0.8840200685999084,1.247374222123261,-0.6312687700696689,-0.338491203721217,-0.0716,-0.0852
0.5358508999925111,-0.23602621981403085,-0.06987790042897181,0.8825312666535138,1.5984594134191543,-0.0864524823026714,-0.2541608620742478,-0.0716,-0.0852
0.6070624999701981,-0.23625244826751798,-0.0699513915970246,0.8832461377061723,2.1415647292737567,-0.4361340470127624,-0.2802428232929603,-0.0716,-0.0852
0.6777666000416511,-0.23651400817977997,-0.07009366460767627,0.8841579250766688,1.5490147087721655,-0.7105314779348905,-0.4076793478799966,-0.0716,-0.0852
0.749242900055834,-0.23681996053258214,-0.0701223819687772,0.8851994270419248,2.1246120072307177,-1.1816669109876006,-0.3160986569222163,-0.0716,-0.0852
0.8215118000516668,-0.23615964055573083,-0.06987476099021522,0.8829563270072046,1.73432883502255,-0.1886749951028927,-0.1955353577964202,-0.0716,-0.0852
0.8898919000057508,-0.2359288083285842,-0.06984971023506,0.8822502162311854,1.774954182813886,0.0420101119706025,-0.2313099934595872,-0.0716,-0.0852
0.962778700049967,-0.23614259898625253,-0.06995831450416118,0.8829595632148879,1.6604040397616542,-0.264225313518292,-0.2924905201514694,-0.0716,-0.0852
1.03440150001552,-0.23568987296911798,-0.06982241352498669,0.8814462439066589,1.1886500948789789,0.253060324361748,-0.2664300320863635,-0.0716,-0.0852
1.1027374999830504,-0.23582808665411797,-0.0698592280717786,0.881884338399604,1.2815322084731793,0.095906771929242,-0.2781367364976918,-0.0716,-0.0852
1.1751111999619757,-0.23686848433968044,-0.0701236607750191,0.8853692922435269,2.055262933684156,-1.2577161563282095,-0.2790393831866248,-0.0716,-0.0852
1.2447391999885444,-0.23599984670447544,-0.0698758658140095,0.8824572276897675,1.7489296491575004,-0.0946102557499151,-0.2683467682629086,-0.0716,-0.0852
1.3166546999709685,-0.23593032156695534,-0.0698947807370942,0.8822356199282552,1.3204204653943388,0.0335389881454841,-0.3184638868897328,-0.0716,-0.0852
1.383343699970283,-0.23620284353523077,-0.0699004457874829,0.8831391688685029,1.999420318964064,-0.302545953176588,-0.2263538449504669,-0.0716,-0.0852
1.4479717999929567,-0.23538992721879182,-0.07133715320387948,0.8814299546988299,8.621562377239576,-33.81477328524209,-3.3386602449010803,-0.0716,-0.0852
1.5128676999593158,-0.23631455865109047,-0.06992726061449116,0.8834610187341565,1.7859452470673778,-0.1194958385906071,-0.1523009185904339,-0.0716,-0.0852
1.578736900002696,-0.2361429653161123,-0.06997612643868618,0.8829147312151209,1.3621319129233591,-0.2682058893136094,-0.347477519862917,-0.0716,-0.0852
1.6465196000644942,-0.23623643977745573,-0.06987785045753887,0.8831792914519289,2.330474280866009,-0.2569202836568776,-0.1734774259989973,-0.0716,-0.0852
1.72520850005094,-0.23618207895296642,-0.06994350504785564,0.8830413722113161,1.6715530536753214,-0.2511527356778264,-0.2824891656061423,-0.0716,-0.0852
1.802208599983715,-0.23604875719075416,-0.06989241860532418,0.8825899728715167,1.4723874630468254,-0.2235104595817008,-0.281064018118368,-0.0716,-0.0852
1.8759160999907194,-0.23665448546913553,-0.0700201460689809,0.8846515649390385,2.2672423364636543,-0.9034821116338184,-0.2118825600619111,-0.0716,-0.0852
1.9477405999787156,-0.23609254786718098,-0.06985943356944084,0.8827427968758131,1.6938766308055968,-0.2132936158956291,-0.1815567739410749,-0.0716,-0.0852
2.016035399981775,-0.23042787620312474,-0.07055379343599144,0.8867938657528963,3.454674188909126,-1.1910477407826578,-1.847575606001279,-0.0716,-0.0852
2.085522399982438,-0.21627367370388664,-0.07182816841613013,0.8887419817673062,3.2812867791744567,-1.466657181325038,-4.74545635426681,-0.0716,-0.0852
2.1505965000251313,-0.198090424872503,-0.07394313025481056,0.8873795692378434,2.9389513686755184,-0.5507300797044438,-7.927169209738943,-0.0716,-0.0852
2.2174278000602503,-0.1789591346635348,-0.07703246365216776,0.886257579462923,2.6184299673207856,-0.0583258471227719,-10.918809169665009,-0.0716,-0.0852
2.285870300023817,-0.16090429225892464,-0.08189913754616315,0.8902261153234666,3.884921068913162,-2.527076242737459,-13.98947218650994,-0.0716,-0.0852
2.3527471000561495,-0.14149662538270397,-0.08722508117395754,0.8872886492867912,2.64826925563304,-0.0798052268334799,-17.179181648362686,-0.0716,-0.0852
2.4200721000088383,-0.12292199478590207,-0.0938839810144589,0.8893523342266505,0.1596799255283403,-5.939245677528458,-18.0940819523478,-0.0716,-0.0852
2.485400300007314,-0.10449849612823985,-0.09928160115178472,0.8886863826420813,-0.8005569561771859,-4.446740884561792,-15.772392159867737,-0.0716,-0.0852
2.552939599961974,-0.08521804400155622,-0.10402841983673593,0.8875001417157226,-1.5021213119948928,-4.821061701339334,-13.405085509137454,-0.0716,-0.0852
2.6236382999923085,-0.06580200318143417,-0.10775523089116876,0.8852190989464979,-1.5201389981116007,-2.3447733260848524,-10.547395143258392,0.1076,-0.0866
2.691957700066269,-0.046488995508264803,-0.1108418387444011,0.8841325781064678,-2.409524180932117,-5.330339288958606,-7.913784139840416,0.1076,-0.0866
2.7635784000158314,-0.027086124779889,-0.11278942166339845,0.8838221308857811,-2.3172975054165765,-2.005493318761093,-5.10380693536975,0.1076,-0.0866
2.831360199954361,-0.007936127044874494,-0.1139873752257286,0.8830242973621326,-2.4051795048210085,-4.669368044429296,-2.531552176547248,0.1076,-0.0866
2.901193000026979,0.010987101599976772,-0.11403712143619044,0.8795745651242992,-2.145630531575541,-6.4360044350541,0.1972793137598034,0.1076,-0.0866
2.9711035999935125,0.018474756678737984,-0.11275867410219692,0.8720619802479023,-3.400265644790412,-4.720634616397745,0.7443799582020872,0.1076,-0.0866
3.0529314000159506,0.02752434292827341,-0.11380127223567021,0.8821219386563052,-1.0614552913008757,-4.704598961538965,1.6302273576811444,0.1076,-0.0866
3.1204205000540246,0.043743958865727274,-0.11293237507110407,0.8817374048397091,-3.7851145663328456,-3.744422835051341,3.9365776211120114,0.1076,-0.0866
3.188425300060772,0.06204774117248904,-0.11138611706732955,0.8807159039411425,-3.5936614209697044,-4.933886932844733,6.4220603067643465,0.1076,-0.0866
3.2551595000550155,0.08092122430308377,-0.108966475420695,0.8826495208741657,-3.6601632345383215,-3.737468642616971,9.16891876320556,0.1076,-0.0866
3.3255116000073035,0.10019404385906377,-0.1058510306219699,0.8854175043503929,-3.759467429163268,-2.2468306001765,11.752161542934983,0.1076,-0.0866
3.4089689999818806,0.11903463110722018,-0.10164580726670297,0.8851406747765383,-3.616292965317665,-2.4482874769932765,14.400781740590755,0.3832,-0.0597
3.4755264000268657,0.1381720856332599,-0.0968160601391618,0.8880952976909205,-1.3291921296360316,-3.8943541017628887,16.761699127156625,0.3832,-0.0597
3.5439820999745284,0.1657657941082452,-0.08678739807931458,0.8862607001109669,-2.318078546524137,-3.464678866784098,20.83753966590464,0.3832,-0.0597
3.6133187999948864,0.18368470570510811,-0.0794649359252009,0.8863935712591344,-2.521930181729187,-3.056014366587182,23.45190143123628,0.3832,-0.0597
3.680239200009965,0.2018409718847428,-0.07177918324181305,0.8882346413963805,-1.5521920714042663,-3.31358206190086,25.272437762258527,0.3832,-0.0597
3.7522997000487526,0.20891694363780272,-0.06842978634099113,0.8888357356809313,-0.6848960928539133,-4.052849280409158,26.574173015682756,0.3832,-0.0597
3.8205947000533347,0.21172797877207017,-0.06638441242162472,0.8848980531671148,-2.814985784315956,-1.253002241031846,25.286767335207703,0.3832,-0.0597
3.8892244000453506,0.22851010646424666,-0.05982184606827016,0.8875893528829,-1.9810507321719184,-1.7330717728138765,22.63502551359217,0.3832,-0.0597
3.9568073999835183,0.2464092626579054,-0.052788246461385566,0.8866172199503006,-1.8586849177812543,-2.510268701666875,19.854479674333717,0.3832,-0.0597
4.0375130999600515,0.2646910445222087,-0.04680413517870788,0.8867177359866806,-2.247737802186601,-1.3306600226066605,17.05083018586821,0.3832,-0.0597
4.103761299978942,0.2836002723887942,-0.041950290942937646,0.8871682375412387,-2.3646956910494272,-0.9817316078780292,14.02950498010521,0.3832,-0.0597
4.187385000055656,0.3118802842128543,-0.03672927869450366,0.8861535542936498,-2.155607639997342,-0.4300988516366353,9.390829610479654,0.3832,-0.0597
4.257382499985397,0.3311602129566641,-0.034160537896749874,0.8857625486121665,-1.7853487984047791,-0.4251124346947928,6.221044574339146,0.3832,-0.0597
4.326377599965781,0.351272838796813,-0.033055512836651556,0.8872241880069635,-1.065191053811698,0.0608210722383436,3.181723401787852,0.3832,-0.0597
4.409884299966507,0.37004827857584865,-0.03286266965007804,0.8858752680672646,-1.515068748036238,0.6560046031181846,0.2950111861271547,0.3832,-0.0597
4.478262300021015,0.38969043705053924,-0.03358276278166322,0.8872236445617577,-1.295396513386967,1.718216679989471,-2.9940048576437674,0.3832,-0.0597
