t,x,y,z,roll,pitch,yaw,desired_x,desired_y
0.0,-0.24013584101923713,-0.08147771763552117,0.8801041350834655,0.57296340168356,-1.6202241881198718,1.9359631878591343,-0.0395,-0.1
0.06219329999294132,-0.2403162588768685,-0.08152840124551607,0.880770600768978,0.4004174350866359,-1.6395932212214417,1.9605993152612124,-0.0395,-0.1
0.12123799999244511,-0.23994907698309142,-0.08136170689293173,0.8794746795688497,0.981063100779803,-1.3314384077918429,2.044509949477024,-0.0395,-0.1
0.18109039997216314,-0.2399155473582101,-0.08138248035826269,0.8793833475392354,0.6004016684469247,-1.175992498629104,2.0118616984051334,-0.0395,-0.1
0.24160819995449856,-0.24012849121110047,-0.08151819439094908,0.8800584955530463,0.3896110955218524,-1.6201505539589625,1.9234347924503443,-0.0395,-0.1
0.30217280000215396,-0.24002554566648795,-0.08138746246961173,0.8797205419637973,0.7416490286399795,-1.33679313146182,2.07616761589431,-0.0395,-0.1
0.36239819996990263,-0.23984588662646641,-0.08124068433374132,0.8796308479014117,1.9786074913358989,-0.5217229990112207,2.022357834756442,-0.0395,-0.1
0.4260523999691941,-0.23091019326750492,-0.0815840445831364,0.8815988269244645,3.391448175614899,-0.5375692805371468,-0.2965798066206129,-0.0395,-0.1
0.48351239995099604,-0.21519375060593618,-0.08235605691544688,0.8839138942657275,5.688197666582015,-1.6575801753459127,-2.786164772931077,-0.0395,-0.1
0.5406968999886885,-0.1962432768707466,-0.08432633973515379,0.8844676266355094,4.917212139052888,-2.6320061791253337,-5.901363766783337,-0.0395,-0.1
0.5997195999952964,-0.18610857964359187,-0.08541542727957073,0.8832154168344424,5.539229041863219,-0.8326457815585054,-7.208496384970397,-0.0395,-0.1
0.6592435999773443,-0.1671711757020641,-0.08914684234294125,0.8859444120459502,3.812659312023081,-2.836680200596286,-10.69212797587693,-0.0395,-0.1
0.7196922999573871,-0.147945291505655,-0.0943901463268462,0.8900709824626581,5.440082985440119,-11.075970154208177,-14.907101370297006,-0.0395,-0.1
0.7786309999646619,-0.12781673414904998,-0.09929730850521121,0.886147750902595,1.78130640342274,-10.045573525571225,-16.162512568882423,-0.0395,-0.1
0.8374338999856263,-0.11927970255123789,-0.10172026928685783,0.8881665536835659,3.247844279695931,-7.839910342285161,-15.18094366476627,-0.0395,-0.1
0.8991523999720812,-0.10105645667144193,-0.10502919427343128,0.8814123942280976,-1.4815882816903032,-2.7500537256510844,-12.540855445281984,-0.0395,-0.1
0.9604063999722712,-0.08499966871076581,-0.10801978249415033,0.8814257330109075,0.0838574726946784,-1.600672862977416,-9.026548035792617,-0.0395,-0.1
1.0329529999871738,-0.07033354290154742,-0.10997427247301009,0.8809781296915076,-0.8229635563136546,-3.354446041805394,-6.218168718265765,-0.0395,-0.1
1.0910840999567881,-0.05604622206204161,-0.11110307760765126,0.881104921685215,-0.8837973673805782,-6.644909926762439,-3.576811440479031,-0.0395,-0.1
1.1497009999584407,-0.042005741003425606,-0.11142307229672083,0.8828789481199821,1.7983845923395525,-2.0437124761679937,-0.817107321379975,0.3445,-0.0912
1.2168090000050142,-0.03480530766662131,-0.11169941822907266,0.882609594966167,3.501941736049284,-8.164139997653251,-0.0431309283247352,0.3445,-0.0912
1.2780571999610402,-0.0207568501911855,-0.1108633979494117,0.8810176318987389,-1.692301469913445,-5.536407673956673,2.8731768137616456,0.3445,-0.0912
1.3395154000027105,-0.00671150543481645,-0.1096772010357304,0.8799886511622221,-2.931788189108888,-5.683877586595749,5.786779266037058,0.3445,-0.0912
1.401466699957382,0.006230048939670687,-0.10741200054367621,0.8752997211605019,-3.546131256176234,-5.98283856927766,7.8042010567801245,0.3445,-0.0912
1.4608150999993086,0.007623438465571675,-0.10740779889478676,0.8786916287354125,-1.396475010443357,-4.015661067176191,8.079329907348727,0.3445,-0.0912
1.521587900002487,0.01624586525416333,-0.10708179783613354,0.8848443330708597,0.2471031624767472,-4.3480561866277,8.30341855783106,0.3445,-0.0912
1.58259750000434,0.03797556198682115,-0.10440569998075226,0.888223911582933,0.8907182554460005,-7.1596516138529545,8.303044047563883,0.3445,-0.0912
1.6421223999932408,0.05104245346090252,-0.10246053547148443,0.8891141560861975,-0.5421226915205422,-6.261155243893525,7.489561854705679,0.3445,-0.0912
1.699264499999117,0.07947631574724245,-0.09927111579178372,0.8868556630756871,0.6817150998928453,-9.228538470608733,4.314594886315824,0.3445,-0.0912
1.7721846999484114,0.1090098527824758,-0.09737819629991065,0.8849724518013902,0.847996151041667,-9.60590382030206,1.4268056156394748,0.3445,-0.0912
1.831723899987992,0.13875514940410683,-0.09713470315801516,0.8851155904913691,-0.4557123808956149,-8.642709596851008,-1.5101305432218282,0.3445,-0.0912
1.8934392999508418,0.16925815396872704,-0.09843613454566362,0.8847323663385415,-0.997925817842765,-8.789395674350786,-4.85897632705078,0.3445,-0.0912
1.9534282999811703,0.1995783959577424,-0.10219294782249796,0.8874380615799982,-0.0446122207806025,-7.620615369336623,-7.901142681698274,0.3445,-0.0912
2.020359499962069,0.2278757264350114,-0.10597683550602591,0.8879861232105157,-1.214613629301203,-5.80653920669355,-6.586441484489078,0.3445,-0.0912
2.0821455999976024,0.24104774069513046,-0.10743745481928808,0.8885035586101201,-0.9133503462252368,-5.230546576138555,-5.380260144976671,0.3445,-0.0912
2.144642599974759,0.27849249716952956,-0.10988163879573529,0.8914725166338632,-0.1300010085239632,-3.176548569309762,-1.200052942486179,0.3445,-0.0912
2.2059632999589667,0.2895754846805128,-0.10980670897769675,0.8904617577332041,-0.1207011142669506,-3.0197297164885533,0.3180717800406188,0.3445,-0.0912
2.2657116999616846,0.3107926365151539,-0.10926896928832144,0.890152758782246,-0.0715001164156949,-2.6769502779825665,3.405349898765106,0.3445,-0.0912
2.3274017999647185,0.32987343838973254,-0.10794937673422689,0.8922265567539901,0.8082477134435748,-2.848150986500503,6.446110119147627,0.3445,-0.0912
