t,x,y,z,roll,pitch,yaw,desired_x,desired_y
0.0,-0.24015640793508145,-0.08540219043238552,0.8813014396368873,3.4088145592721486,-3.561593749302044,2.559286255337717,-0.0716,-0.0852
0.06864599999971688,-0.23929471882830614,-0.08671988684758175,0.8795656912471265,9.682951667783689,-31.19422150487129,-0.4105018974041037,-0.0716,-0.0852
0.13560659997165203,-0.23914052531453334,-0.08668814219385695,0.87906685956971,9.622874295160155,-31.38663141754662,-0.4379033471548007,-0.0716,-0.0852
0.19748440000694245,-0.23934668626494834,-0.08673341726239582,0.8797392845634999,9.320397355645202,-31.060528747446185,-0.4019152661558675,-0.0716,-0.0852
0.26014379994012415,-0.23937479774720954,-0.08671590516206439,0.8797601698503384,9.393749055378573,-31.057455724528698,-0.366924709052529,-0.0716,-0.0852
0.3229905000189319,-0.23912008298946463,-0.08669271671118726,0.878956241554782,9.875356719134146,-31.158841444045457,-0.4730348839468264,-0.0716,-0.0852
0.3837812999263406,-0.23638020246401262,-0.08677922341245467,0.8799662587356674,9.279164254992756,-31.090376299977937,-0.8103658614264105,-0.0716,-0.0852
0.44686689996160567,-0.2317523757886763,-0.08551959130066833,0.8831445970454996,4.09085860184357,-3.5632606958625046,2.860004912520985,-0.0716,-0.0852
0.5358720999211077,-0.21568720143001105,-0.08448946227573916,0.8807855342813525,4.017476154308346,-2.857833939570392,4.832274523024028,-0.0716,-0.0852
0.5997448000125583,-0.19947380462184774,-0.08300950446320399,0.8816381451775479,3.615253316442344,-3.740694576921743,7.144283208778096,-0.0716,-0.0852
0.6598485999274999,-0.17319503949080536,-0.07927601630131263,0.8806289120148633,2.1209835841873543,-23.57085318031169,10.0732183050514,-0.0716,-0.0852
0.7168370999861509,-0.15735568021996751,-0.07526324822385888,0.8810800345718204,3.785469042471469,-3.7681630187449584,13.573478644906736,-0.0716,-0.0852
0.7778395999921486,-0.14208734268150147,-0.07159699737231948,0.8841575548235345,5.103734566074116,-7.161606488751795,14.75995698148071,-0.0716,-0.0852
0.8371686999453232,-0.13386463599353396,-0.06968853804335756,0.8838362583754635,5.613173516623259,-10.643171062241636,13.740738772380118,-0.0716,-0.0852
0.8995749999303371,-0.1179806494101239,-0.06627681861575649,0.8816085239880143,3.264128190924043,-7.478010262549989,11.04715625989875,-0.0716,-0.0852
0.9589917999692261,-0.10350524226044383,-0.06423936106287684,0.8817291269448898,2.7325311713601845,-11.736395183281353,7.751662282175582,-0.0716,-0.0852
1.0193965999642387,-0.08888313563840636,-0.06251550163890815,0.8803188719805516,2.640033421990553,-10.152145077645534,4.893466357531867,-0.0716,-0.0852
1.0782794000115246,-0.08139779459072513,-0.06198501040493978,0.8788270516990091,5.744281636153348,-11.948258550423164,3.113780390173243,-0.0716,-0.0852
1.13873829995282,-0.06713342552702142,-0.06148488957246676,0.8786810561327992,7.451985043428779,-8.509606912222786,0.5019391123337532,0.1076,-0.0866
1.2013933999696746,-0.05318262965022542,-0.0616856565206882,0.8781870531803476,2.1243679647574862,-9.850882130428351,-2.416577650365708,0.1076,-0.0866
1.2644496000139043,-0.039227176422715615,-0.06271982792811687,0.8787140098026147,2.865903726507659,-8.451688052614262,-5.771120390297092,0.1076,-0.0866
1.3288777999114245,-0.02553156502192602,-0.06464637560146153,0.8776772114709078,0.0044071214069307,-8.149366901845003,-9.603610957569838,0.1076,-0.0866
1.395125599927269,-0.01866040606413287,-0.06593351330677076,0.8761473286064636,-2.0582894838399093,-8.339490212155999,-11.483056481778506,0.1076,-0.0866
1.457484900020063,-0.010159311770180587,-0.06710539567358578,0.8703480691404125,-4.530037131619742,-6.412854435462177,-11.453468537147833,0.1076,-0.0866
1.5219320999458432,-0.007185080353121431,-0.06803723292373119,0.8771735228759713,-2.601626691909547,-5.107037114097734,-10.343194161919328,0.1076,-0.0866
1.5836023999145254,-0.0014221442341798111,-0.06927750487732562,0.8787442211788127,-0.4561792563335425,-6.626936047143563,-9.5138154427556,0.1076,-0.0866
1.643967799958773,0.011946616283751228,-0.07096940650268159,0.8771615415823726,-3.827868138749475,-5.369333620890299,-7.2384044368289295,0.1076,-0.0866
1.7053476999280974,0.026220963405109782,-0.07220614863319953,0.8746675057645216,-3.7349774486371294,-7.619529880649478,-4.592211814234881,0.1076,-0.0866
1.7670995999360457,0.04018410846975188,-0.07328332899408106,0.8780311063787184,-3.0807590840372496,-4.481058664657544,-1.7493766278205192,0.1076,-0.0866
1.8279246999882162,0.05389275838184543,-0.07308271986517693,0.8758029436887681,-4.22930548785832,-4.979645599127943,0.8850520376214468,0.1076,-0.0866
1.8876212999457493,0.06813754691027436,-0.07333577405957886,0.8811485931016572,-1.6376373309539567,-3.0426242869682296,1.641801546387029,0.1076,-0.0866
1.960674799978733,0.0823773499454738,-0.0731799416787816,0.8780149598366398,-1.958713416731304,-6.016451256123025,-0.2919847186816969,0.1076,-0.0866
2.0338272999506444,0.08927536539881295,-0.07347834912674496,0.8784622614428955,-2.1871728348776243,-5.151761977819585,-1.7148191390199432,0.1076,-0.0866
2.0958014000207186,0.10352807259730194,-0.07454309429747759,0.8795399106715251,-3.278455642120475,-4.41127629209689,-4.315893826000134,0.1076,-0.0866
2.1561928999144584,0.12518297828497152,-0.07745686251371743,0.8819436882143844,-2.516583350475031,-5.1046399898436645,-9.030636958056617,0.3832,-0.0597
2.2180133999790996,0.13245961598690342,-0.07900567681342018,0.8838886313280203,-2.9525114710901703,-3.985197707402968,-10.276364089869592,0.3832,-0.0597
2.277794299996458,0.14651225104872456,-0.08225259691866406,0.8846412076887141,-1.56071761094228,-4.985940888650174,-13.193917978835488,0.3832,-0.0597
2.337349799927324,0.1606490153333757,-0.08623832637392853,0.8868320842713355,-1.481006233211957,-4.54021754955119,-16.42068146583495,0.3832,-0.0597
2.398240100010298,0.17311546107502157,-0.09054389443714257,0.8855751806768724,1.2929083724143342,-7.496176879224734,-18.89850085321686,0.3832,-0.0597
2.460249900002964,0.1760298034448848,-0.09145430421127819,0.8875983027561583,1.2165334629839746,-6.125393590933876,-18.71682995557461,0.3832,-0.0597
2.51954249991104,0.17758334890514735,-0.09208935315324612,0.8902411137640374,-1.7589716040229744,-3.365068447364334,-18.041271357101948,0.3832,-0.0597
2.581324999919161,0.19319323572263045,-0.09691991984110505,0.8913323389772716,-1.9033770886475097,-5.234537940750312,-15.691809650171606,0.3832,-0.0597
2.641008200007491,0.2153027998581137,-0.10274191484414039,0.8928875734328732,-0.4883103569144845,-5.139173328190914,-13.162139524782924,0.3832,-0.0597
2.7029735000105575,0.23718247302563034,-0.10748485281342737,0.8910887507234105,-0.8411072149896562,-5.124759971820764,-10.16676776483676,0.3832,-0.0597
2.76317619998008,0.25868140044944676,-0.11068005817120133,0.8910191097622111,-0.2949442392416819,-4.5298779168019525,-7.004252806254978,0.3832,-0.0597
2.8370461999438703,0.26910927539735097,-0.1119509354706765,0.8912295757554259,0.0332145400756558,-3.834613265791284,-5.492345581946227,0.3832,-0.0597
2.90321179991588,0.28954560055700296,-0.11372040689506992,0.8901973819070175,0.1256647349018471,-4.008511676912027,-3.0167933939073968,0.3832,-0.0597
2.9635078000137582,0.3194983350711634,-0.11409243610939919,0.8891742334735875,0.5434656531171317,-4.288574365471511,1.2865494267069495,0.3832,-0.0597
3.035161199979484,0.3389660005737046,-0.11340193735580494,0.8905270060657724,0.9818425882049944,-3.874672123859454,4.013850906784271,0.3832,-0.0597
3.0991258999565616,0.35391934211277853,-0.11200660703676119,0.891361782259617,1.0112836545848545,-2.4427333727657543,6.862499859384492,0.3832,-0.0597
3.160443799919449,0.3609200791131088,-0.11098869729591794,0.891512216382508,1.0751377799621034,-1.9595489280995737,8.389168768560861,0.3832,-0.0597
3.223403999931179,0.37468126469119767,-0.10881060434550674,0.8922232370035474,1.2726040117424475,-1.4852190989648464,11.32914820449298,0.3832,-0.0597
3.285300699993968,0.3886178407166362,-0.1059905736860716,0.8926659676617081,1.443771040014056,-1.0582005958452716,13.917984704688838,0.3832,-0.0597
3.344793999916874,0.40154529279979423,-0.10224750674310698,0.8915959726696336,1.121617252617555,-1.0040047592989574,17.636241562275334,0.3832,-0.0597
3.407418999937363,0.4142968881274658,-0.0976253300091337,0.8909806283001509,1.3931677946289265,-0.7506672640284162,21.87406670625042,0.3832,-0.0597
