t,x,y,z,roll,pitch,yaw,desired_x,desired_y
0.0,-0.2809773253770138,-0.0655281307594448,0.0155247407789557,0.0651671377747728,-0.0026398452469968,1.5706219717743612,-0.0716,-0.0852
0.03043919999981881,-0.2809771693759843,-0.065528131312299,0.01552474157192,0.06517714402213,-0.0026398794789376,1.5706219451699808,-0.0716,-0.0852
0.061214899999868067,-0.2809770155501538,-0.065528131846313,0.0155247423320141,0.0651870105960252,-0.0026399127496842,1.5706219188514312,-0.0716,-0.0852
0.09164509999982329,-0.2734465782789582,-0.065555030374454,0.0155712067873022,0.0696994286277881,-0.0044442430166631,1.551059296448102,-0.0716,-0.0852
0.12405260000014096,-0.2659304215887367,-0.0657295547295404,0.0156884618125228,0.0667468161144946,-0.0049202244345651,1.5637538171921057,-0.0716,-0.0852
0.1564285999997992,-0.2584927625887082,-0.0657698168319207,0.0158690628696855,0.0563920109666181,-0.0046297017112961,1.54336617895278,-0.0716,-0.0852
0.18667229999982737,-0.2507407122414519,-0.0659615501025811,0.0160738497242783,0.0538949090025494,-0.002065113178456,1.5581570173854795,-0.0716,-0.0852
0.22874499999988984,-0.2430923595233553,-0.0660025518479272,0.0162304443914015,0.0445059746239977,0.0004739312735924,1.5392108153437805,-0.0716,-0.0852
0.269454499999938,-0.2354011560665339,-0.0662042874806464,0.0163458792116313,0.0275438863688575,0.0042348286489991,1.557423608961364,-0.0716,-0.0852
0.290512900000067,-0.2276777379688701,-0.0662501135877746,0.0163441825235753,0.0142611195497039,0.0068236318823957,1.540089318904308,-0.0716,-0.0852
0.33222350000005463,-0.2199972044819628,-0.0664548527234676,0.0162571759214146,-0.0007494138097434,0.0087077068494009,1.5213731160738058,-0.0716,-0.0852
0.3618358999997331,-0.2123923676197299,-0.0668149909331615,0.0161165757049432,-0.0123753785168815,0.0099483632233973,1.5411550251080397,-0.0716,-0.0852
0.392113800000061,-0.2047149740943573,-0.0670298993672283,0.0159085407705017,-0.0223026595073104,0.0102861478125699,1.5266118268376865,-0.0716,-0.0852
0.42395230000010997,-0.1963633282045714,-0.0674283365430374,0.0156872202606605,0.0201878959851789,0.009255601324055,1.5120094132324198,-0.0716,-0.0852
0.45548109999981534,-0.1880732457818546,-0.0679722844421465,0.0155159141708509,0.0651019270393234,0.0070834321401372,1.4952831376907256,-0.0716,-0.0852
0.4864425000000665,-0.1798446626199469,-0.0686603607894553,0.0154337828545529,0.1101221403321575,0.0046991644664466,1.476296968419851,-0.0716,-0.0852
0.5177361000000928,-0.1727307754146446,-0.0693816614907112,0.015452104426041,0.0873974699429787,0.0028321874339406,1.489633159726043,-0.0716,-0.0852
0.5492429000000807,-0.1656529631928632,-0.0699773467298851,0.0155521225639073,0.057612701513552,0.001308833727466,1.4717600626999268,-0.0716,-0.0852
0.5798328999999289,-0.1586080165487614,-0.0706835895495833,0.0157110883243182,0.0215385491039215,0.0013906492722307,1.486902542373958,-0.0716,-0.0852
0.6220997999998863,-0.1516641977382607,-0.0712532806318515,0.0158864477371647,-0.0206032943620992,0.0008960631014085,1.4678557875733853,-0.0716,-0.0852
0.6532726000000371,-0.144557342720127,-0.0719682777668884,0.0160701485796787,-0.0630785063516108,0.0026944127903972,1.4840998981626248,-0.0716,-0.0852
0.6841183000001365,-0.1374009655215731,-0.0725497997110372,0.0161944992443219,-0.1048118644634981,0.0036228266755026,1.4643808438595387,-0.0716,-0.0852
0.7142401999999493,-0.1296075345515143,-0.0733440983961356,0.0162605324620743,-0.1096324241524255,0.0059005205043495,1.4429483697945582,-0.0716,-0.0852
0.7449808999999732,-0.1216095453829541,-0.0743266877046238,0.0162303172257831,-0.1015966194757537,0.0097651718507804,1.421207804179864,-0.0716,-0.0852
0.7862245000001167,-0.1134738007996713,-0.0754996334392846,0.0161061948010904,-0.0813568816005526,0.0149001132704303,1.400660982349619,-0.0716,-0.0852
0.8059588000000986,-0.1107617608987092,-0.0759915398139725,0.0160511362995796,0.0888762790959606,0.0151323995031382,1.40239088380656,0.1076,-0.0866
0.8483304000001226,-0.1009631014894416,-0.0776218590973755,0.0158755537896754,0.0649455551494808,0.0190458339279745,1.4442022149267018,0.1076,-0.0866
0.8696013999997376,-0.0929160001045818,-0.0786321545422178,0.0156671483309907,0.0930571417568876,0.0178284831387486,1.4388880768543997,0.1076,-0.0866
0.9008014999999432,-0.0849347824610389,-0.0797732106827413,0.0155052325921248,0.1234005242395698,0.009886519692345,1.464599809070679,0.1076,-0.0866
0.9302502000000459,-0.0777311491962694,-0.0806478728679535,0.0154639801806204,0.1068976106900858,0.0003565002911325,1.451904204110766,0.1076,-0.0866
0.9725954000000456,-0.0706087427096744,-0.0816557130269653,0.0154378592561306,0.0879476347101885,-0.0093173202507973,1.46721645397919,0.1076,-0.0866
1.0025157000000036,-0.0635307415069241,-0.0825103599603114,0.0155000606630541,0.0654253383944723,-0.0161138360736919,1.4804292715507528,0.1076,-0.0866
1.0329963999997744,-0.055983138590365,-0.083270957214988,0.0156556242197191,0.0660221390589348,-0.0197453427703071,1.493913078698131,0.1076,-0.0866
1.063796800000091,-0.0484741940602089,-0.0838786796576939,0.0158929171673591,0.0581194183795955,-0.0204036350378248,1.4700344441426785,0.1076,-0.0866
1.094020399999863,-0.0409816067063828,-0.0846218610461166,0.0160861587433818,0.0396658518449074,-0.0161391542514126,1.4807880926736736,0.1076,-0.0866
1.1264108000000306,-0.033489811317647,-0.0852240320599238,0.0162529786963864,0.0138994837894196,-0.0089376832601376,1.4965375684692372,0.1076,-0.0866
1.158510799999931,-0.0260426019328341,-0.0856585122065669,0.0162989594063124,-0.0155773460893634,-0.0024604711500717,1.477753870774429,0.1076,-0.0866
1.2014429000000746,-0.0186270742081426,-0.0862527858797198,0.016295083842029,-0.0503824822213393,0.0040540343127078,1.4986953332753326,0.1076,-0.0866
1.231196700000055,-0.0112654314724258,-0.0866941937285301,0.0161611441410747,-0.0821515784211416,0.0081092625737984,1.4842815619615723,0.1076,-0.0866
1.2717564999998103,-0.003963775750857,-0.0872932539113742,0.0160022034530107,-0.11026541383428,0.0095325452505335,1.5078262120662664,0.1076,-0.0866
1.2937114999999721,0.0050096955954639,-0.0878578658536645,0.0157553598546648,-0.030280086139816,0.0086480242973916,1.4987434467224687,0.1076,-0.0866
1.3232508999999482,0.0138908221699097,-0.0885754875242171,0.015525732831641,0.0531787622674645,0.001709460840799,1.5205085305856751,0.1076,-0.0866
1.355228200000056,0.0227158336257061,-0.089110834890725,0.0154196167755298,0.1376636351581105,-0.0048971080728232,1.5055917621539567,0.1076,-0.0866
1.395719999999983,0.0295206392752573,-0.0896487749324375,0.015402698217754,0.0938108781615593,-0.0101052786234262,1.5182877693561538,0.1076,-0.0866
1.4162007999998423,0.0362749483315596,-0.0900633659369838,0.0154740546548653,0.0456886828425235,-0.0128519488611486,1.530953733145132,0.1076,-0.0866
1.4682018999997126,0.0441780693197066,-0.09040717444243,0.0156460183101668,0.0638490248609938,-0.0141984434221588,1.5449402000462833,0.1076,-0.0866
1.5000405000000683,0.0520485177927515,-0.0906042585457979,0.0158732342355279,0.072685932410146,-0.0131808563799876,1.560554386867943,0.1076,-0.0866
1.5317297999999937,0.0598984609167016,-0.0906566532121505,0.0160986510917592,0.0723260801573746,-0.010809820785608,1.5783958607950124,0.1076,-0.0866
1.563065899999856,0.062227876852449,-0.0905995784790583,0.0161652230899831,0.2136478711507039,-0.0088841062286273,1.578687010648901,0.3832,-0.0597
1.5957862000000205,0.0696470335476529,-0.0904288585962313,0.0164183781899255,0.149524378246533,-0.0061939244744872,1.5764199970262578,0.3832,-0.0597
1.626207599999816,0.0788876057009975,-0.0903420535319623,0.0163682912911384,0.0371016051461081,-0.0032021083954734,1.595387137158724,0.3832,-0.0597
1.6569227999998475,0.0887693016371896,-0.0900696036478642,0.0161787555046181,-0.0183189741868114,-0.0025833886559379,1.5805812948536493,0.3832,-0.0597
1.6871249000000716,0.0982772374989101,-0.0899882797483563,0.015899826108326,-0.0608337343586713,-0.0030764134587259,1.5992289637522552,0.3832,-0.0597
1.7288657999997668,0.1075666945511815,-0.0897339821863278,0.0156368907444129,-0.0937290745440857,-0.0043703011557893,1.5831618384570203,0.3832,-0.0597
1.759364000000005,0.117349239723716,-0.0896590165843916,0.0154284643218316,-0.0604978034240632,-0.0072623679874163,1.5988138772525224,0.3832,-0.0597
1.7902276999998321,0.126869088164998,-0.0894116416379812,0.0153880063676523,-0.0213132914025165,-0.0090913077610408,1.6150043172548327,0.3832,-0.0597
1.8312786000001333,0.1362167385428908,-0.0890091984060787,0.0155346241386143,0.0307100620618046,-0.0100341296701751,1.597094727103492,0.3832,-0.0597
1.8514881999999488,0.1454135154865338,-0.0887842736246918,0.0157738128761987,0.0772090288815449,-0.0099742545643279,1.6106461234955904,0.3832,-0.0597
1.8941264000000047,0.1543707133927223,-0.0884039416570606,0.0160463460267406,0.1182838087326096,-0.0077303897250204,1.6278113441253594,0.3832,-0.0597
1.9142022000000907,0.1621353218214185,-0.0879125190002322,0.0162375990856058,0.1050298713214177,-0.0060951864314825,1.6103993628613815,0.3832,-0.0597
1.9549518999997417,0.1698382600626729,-0.0875841028068277,0.0163429083288049,0.0867950912160489,-0.0034557043043999,1.6285996375224467,0.3832,-0.0597
1.9854482999999172,0.1781947999835698,-0.087058077473969,0.0163394903482547,0.1120464791787395,-0.0013424165010495,1.610253521805593,0.3832,-0.0597
2.0165108000001055,0.1864761738049825,-0.0867078136313125,0.0162218328891053,0.1378968067541229,-0.0003055347764579,1.6292378192932575,0.3832,-0.0597
2.047954899999695,0.1940695649733894,-0.0862403336503197,0.0160282712826534,0.1196286424826955,0.0004766892269156,1.612764370100498,0.3832,-0.0597
2.0784983999997166,0.2015506830909885,-0.0859306393962446,0.0157983521884618,0.1067339501258046,-0.000163948665811,1.6316240468166097,0.3832,-0.0597
2.109322499999962,0.2091605461510224,-0.0854743873246157,0.0155849394015225,0.1018037954575987,-0.0007374188578201,1.615032755003668,0.3832,-0.0597
2.1391469999998662,0.216595451529544,-0.0851723237071143,0.0154205395026075,0.0979546139684976,-0.0026783067565568,1.632187725160304,0.3832,-0.0597
2.170209800000066,0.2240604791039408,-0.0847300684119062,0.0153530943786711,0.0962650618323772,-0.0042571919684805,1.6493709702457136,0.3832,-0.0597
2.211386699999821,0.2315030021180672,-0.0841566023834472,0.0153922307767925,0.0905683131774304,-0.0056529247807706,1.668291393077626,0.3832,-0.0597
2.252151199999844,0.2389719645140262,-0.0834338584456574,0.0155511624367877,0.0935905176449578,-0.0076004402758427,1.6514115843584831,0.3832,-0.0597
2.2829014999997526,0.2464983628552378,-0.0828542594573195,0.0157560125129938,0.0848799160351666,-0.0082900595800142,1.6667247654405783,0.3832,-0.0597
2.3128578000000743,0.2539761093662579,-0.0821383517942079,0.0159857328549872,0.066704405592365,-0.0073705342676443,1.684086251213729,0.3832,-0.0597
2.343785399999888,0.2615731744101171,-0.0812559909043021,0.0162011041611904,0.0585513309032045,-0.0072660736928606,1.665935148654362,0.3832,-0.0597
2.374690300000111,0.2692323860122568,-0.0805239166155396,0.0163308066745365,0.0404228798741621,-0.005541644877717,1.6829134241997974,0.3832,-0.0597
2.405771299999742,0.276851096430794,-0.0796478306705132,0.016365138453968,0.0193731786025547,-0.0043455474139123,1.6645422314236928,0.3832,-0.0597
2.4366249999998217,0.2843444554670332,-0.0789229969729243,0.0162959708339478,-0.001945211355744,-0.002560986810889,1.6824743299627911,0.3832,-0.0597
2.4677570999997442,0.2918130028314302,-0.0780560099256437,0.0161368794052388,-0.0217191717779611,-0.0015571731821374,1.7031682021736028,0.3832,-0.0597
2.4984111999997367,0.2992969211112568,-0.0770384462448807,0.0159186480888931,-0.040575762579102,-0.0016588248896572,1.687566285535917,0.3832,-0.0597
2.5424333000000843,0.3067019031849691,-0.0761859313509244,0.0156793077996574,-0.0528941316157345,-0.0034640748851129,1.7061245048947131,0.3832,-0.0597
2.5854442999998355,0.3144871221191324,-0.0751378941340544,0.0154613193223745,-0.0335968441723539,-0.0059552010987059,1.7252953939184452,0.3832,-0.0597
2.616486800000075,0.3221975578572644,-0.0739482424881786,0.0153301897039635,-0.0121609397363816,-0.0086190948012955,1.7443401929942048,0.3832,-0.0597
2.6492052999997213,0.3298999339003418,-0.0726047317840451,0.0153485212074844,0.01557495416182,-0.0104525371282928,1.727017053319529,0.3832,-0.0597
2.6800379000001158,0.3376675961872205,-0.0714144070268691,0.0154630069734642,0.0345710655954465,-0.0115378636810874,1.7411282409415294,0.3832,-0.0597
