t,x,y,z,roll,pitch,yaw,desired_x,desired_y
0.0,-0.2809773253770138,-0.0655281307594448,0.0155247407789557,0.0651671377747728,-0.0026398452469968,1.5706219717743612,-0.0716,-0.0852
0.04082040000002962,-0.2809771693759843,-0.065528131312299,0.01552474157192,0.06517714402213,-0.0026398794789376,1.5706219451699808,-0.0716,-0.0852
0.07184400000005597,-0.2809770155501538,-0.065528131846313,0.0155247423320141,0.0651870105960252,-0.0026399127496842,1.5706219188514312,-0.0716,-0.0852
0.09162740000010672,-0.2734465782789582,-0.065555030374454,0.0155712067873022,0.0696994286277881,-0.0044442430166631,1.551059296448102,-0.0716,-0.0852
0.13326069999993706,-0.2659304215887367,-0.0657295547295404,0.0156884618125228,0.0667468161144946,-0.0049202244345651,1.5637538171921057,-0.0716,-0.0852
0.16415880000022298,-0.2584927625887082,-0.0657698168319207,0.0158690628696855,0.0563920109666181,-0.0046297017112961,1.54336617895278,-0.0716,-0.0852
0.19641170000022612,-0.2507407122414519,-0.0659615501025811,0.0160738497242783,0.0538949090025494,-0.002065113178456,1.5581570173854795,-0.0716,-0.0852
0.21819090000008146,-0.2430923595233553,-0.0660025518479272,0.0162304443914015,0.0445059746239977,0.0004739312735924,1.5392108153437805,-0.0716,-0.0852
0.25926800000024786,-0.2354011560665339,-0.0662042874806464,0.0163458792116313,0.0275438863688575,0.0042348286489991,1.557423608961364,-0.0716,-0.0852
0.29006430000026784,-0.2276777379688701,-0.0662501135877746,0.0163441825235753,0.0142611195497039,0.0068236318823957,1.540089318904308,-0.0716,-0.0852
0.3105866999999307,-0.2199972044819628,-0.0664548527234676,0.0162571759214146,-0.0007494138097434,0.0087077068494009,1.5213731160738058,-0.0716,-0.0852
0.3619004000001951,-0.2123923676197299,-0.0668149909331615,0.0161165757049432,-0.0123753785168815,0.0099483632233973,1.5411550251080397,-0.0716,-0.0852
0.4126670999999078,-0.2047149740943573,-0.0670298993672283,0.0159085407705017,-0.0223026595073104,0.0102861478125699,1.5266118268376865,-0.0716,-0.0852
0.44327710000015985,-0.1963633282045714,-0.0674283365430374,0.0156872202606605,0.0201878959851789,0.009255601324055,1.5120094132324198,-0.0716,-0.0852
0.47412979999990057,-0.1880732457818546,-0.0679722844421465,0.0155159141708509,0.0651019270393234,0.0070834321401372,1.4952831376907256,-0.0716,-0.0852
0.5055726999999024,-0.1798446626199469,-0.0686603607894553,0.0154337828545529,0.1101221403321575,0.0046991644664466,1.476296968419851,-0.0716,-0.0852
0.5365033000002768,-0.1727307754146446,-0.0693816614907112,0.015452104426041,0.0873974699429787,0.0028321874339406,1.489633159726043,-0.0716,-0.0852
0.5684790999998768,-0.1656529631928632,-0.0699773467298851,0.0155521225639073,0.057612701513552,0.001308833727466,1.4717600626999268,-0.0716,-0.0852
0.5990378000001328,-0.1586080165487614,-0.0706835895495833,0.0157110883243182,0.0215385491039215,0.0013906492722307,1.486902542373958,-0.0716,-0.0852
0.6303406000001814,-0.1516641977382607,-0.0712532806318515,0.0158864477371647,-0.0206032943620992,0.0008960631014085,1.4678557875733853,-0.0716,-0.0852
0.6713230999998814,-0.144557342720127,-0.0719682777668884,0.0160701485796787,-0.0630785063516108,0.0026944127903972,1.4840998981626248,-0.0716,-0.0852
0.7062263000002527,-0.1374009655215731,-0.0725497997110372,0.0161944992443219,-0.1048118644634981,0.0036228266755026,1.4643808438595387,-0.0716,-0.0852
0.7366938999998638,-0.1296075345515143,-0.0733440983961356,0.0162605324620743,-0.1096324241524255,0.0059005205043495,1.4429483697945582,-0.0716,-0.0852
0.767759500000011,-0.1216095453829541,-0.0743266877046238,0.0162303172257831,-0.1015966194757537,0.0097651718507804,1.421207804179864,-0.0716,-0.0852
0.7984979000002568,-0.1134738007996713,-0.0754996334392846,0.0161061948010904,-0.0813568816005526,0.0149001132704303,1.400660982349619,-0.0716,-0.0852
0.8302155999999741,-0.1107617608987092,-0.0759915398139725,0.0160511362995796,0.0888762790959606,0.0151323995031382,1.40239088380656,0.1076,-0.0866
0.8600009000001592,-0.1009631014894416,-0.0776218590973755,0.0158755537896754,0.0649455551494808,0.0190458339279745,1.4442022149267018,0.1076,-0.0866
0.8899609000000055,-0.0929160001045818,-0.0786321545422178,0.0156671483309907,0.0930571417568876,0.0178284831387486,1.4388880768543997,0.1076,-0.0866
0.9434031000000687,-0.0849347824610389,-0.0797732106827413,0.0155052325921248,0.1234005242395698,0.009886519692345,1.464599809070679,0.1076,-0.0866
0.9725462000001244,-0.0777311491962694,-0.0806478728679535,0.0154639801806204,0.1068976106900858,0.0003565002911325,1.451904204110766,0.1076,-0.0866
1.0021224000001894,-0.0706087427096744,-0.0816557130269653,0.0154378592561306,0.0879476347101885,-0.0093173202507973,1.46721645397919,0.1076,-0.0866
1.0332880000000841,-0.0635307415069241,-0.0825103599603114,0.0155000606630541,0.0654253383944723,-0.0161138360736919,1.4804292715507528,0.1076,-0.0866
1.0642275000000154,-0.055983138590365,-0.083270957214988,0.0156556242197191,0.0660221390589348,-0.0197453427703071,1.493913078698131,0.1076,-0.0866
1.0944832999998653,-0.0484741940602089,-0.0838786796576939,0.0158929171673591,0.0581194183795955,-0.0204036350378248,1.4700344441426785,0.1076,-0.0866
1.1357931000002282,-0.0409816067063828,-0.0846218610461166,0.0160861587433818,0.0396658518449074,-0.0161391542514126,1.4807880926736736,0.1076,-0.0866
1.1582115999999587,-0.033489811317647,-0.0852240320599238,0.0162529786963864,0.0138994837894196,-0.0089376832601376,1.4965375684692372,0.1076,-0.0866
1.1941850000002887,-0.0260426019328341,-0.0856585122065669,0.0162989594063124,-0.0155773460893634,-0.0024604711500717,1.477753870774429,0.1076,-0.0866
1.2258434999998826,-0.0186270742081426,-0.0862527858797198,0.016295083842029,-0.0503824822213393,0.0040540343127078,1.4986953332753326,0.1076,-0.0866
1.258716800000002,-0.0112654314724258,-0.0866941937285301,0.0161611441410747,-0.0821515784211416,0.0081092625737984,1.4842815619615723,0.1076,-0.0866
1.2895852000001469,-0.003963775750857,-0.0872932539113742,0.0160022034530107,-0.11026541383428,0.0095325452505335,1.5078262120662664,0.1076,-0.0866
1.3096159000001535,0.0050096955954639,-0.0878578658536645,0.0157553598546648,-0.030280086139816,0.0086480242973916,1.4987434467224687,0.1076,-0.0866
1.3481842999999571,0.0138908221699097,-0.0885754875242171,0.015525732831641,0.0531787622674645,0.001709460840799,1.5205085305856751,0.1076,-0.0866
1.3918567000000621,0.0227158336257061,-0.089110834890725,0.0154196167755298,0.1376636351581105,-0.0048971080728232,1.5055917621539567,0.1076,-0.0866
1.4200432000002365,0.0295206392752573,-0.0896487749324375,0.015402698217754,0.0938108781615593,-0.0101052786234262,1.5182877693561538,0.1076,-0.0866
1.451556200000141,0.0362749483315596,-0.0900633659369838,0.0154740546548653,0.0456886828425235,-0.0128519488611486,1.530953733145132,0.1076,-0.0866
1.4856672999999319,0.0441780693197066,-0.09040717444243,0.0156460183101668,0.0638490248609938,-0.0141984434221588,1.5449402000462833,0.1076,-0.0866
1.5149953000000096,0.0520485177927515,-0.0906042585457979,0.0158732342355279,0.072685932410146,-0.0131808563799876,1.560554386867943,0.1076,-0.0866
1.5455581000001075,0.0598984609167016,-0.0906566532121505,0.0160986510917592,0.0723260801573746,-0.010809820785608,1.5783958607950124,0.1076,-0.0866
1.5731974999998783,0.062227876852449,-0.0905995784790583,0.0161652230899831,0.2136478711507039,-0.0088841062286273,1.578687010648901,0.3832,-0.0597
1.6144082000000708,0.0694677916800859,-0.0904607742755312,0.016359608759018,0.1482263721274004,-0.0063848127387767,1.5770436507647896,0.3832,-0.0597
1.6582124999999905,0.0786531221793536,-0.0903683404814402,0.0163669376230308,0.0271346872620148,-0.0032177527597899,1.5982770864680909,0.3832,-0.0597
1.697447099999863,0.0884619593574456,-0.0900690321076414,0.0162296079881394,-0.0348719788120301,-0.0029323557079071,1.5838819080143491,0.3832,-0.0597
1.7378899999998803,0.0979136639867435,-0.0899595567124812,0.0159766779872486,-0.0846298540105898,-0.0035464322267708,1.6027528527678798,0.3832,-0.0597
1.7713613000000805,0.1071584486359332,-0.0896765855359577,0.0157094671540028,-0.1243387856033248,-0.0050305377214218,1.5864925453563214,0.3832,-0.0597
1.8022212999999283,0.1174611764696046,-0.0895654204976817,0.0154503537629567,-0.0617344636819375,-0.0083422324389815,1.6019228475886442,0.3832,-0.0597
1.8304278000000522,0.1274505935608372,-0.0892759408976365,0.0153547233340836,0.0079878752669301,-0.0104631285440721,1.6178716565673723,0.3832,-0.0597
1.859986200000094,0.1370814598430167,-0.0888314926713949,0.0154670067851439,0.0814031376493463,-0.0109107035625772,1.5998107566857218,0.3832,-0.0597
1.8910076000001936,0.1465398067837357,-0.0885702682304098,0.0156979142688303,0.1490927990932988,-0.0106845313275835,1.6131335351853064,0.3832,-0.0597
1.923913099999936,0.154355836945685,-0.088211413729452,0.0159512804342724,0.123655874452167,-0.0075559289170309,1.6304416479935273,0.3832,-0.0597
1.9546212999998716,0.1618801642907063,-0.0877112602014318,0.0161606090237999,0.0971878636754917,-0.0059041735559833,1.6132165895059285,0.3832,-0.0597
1.9858533000001444,0.1693183249199336,-0.0873704116724504,0.0163033936421073,0.0643181074494011,-0.003044485495584,1.6314899516638592,0.3832,-0.0597
2.016225899999881,0.1769869532737655,-0.0868611686504848,0.0163482525390938,0.0482242497362765,-0.0015035437950049,1.6130666288617772,0.3832,-0.0597
2.068233400000281,0.1847026422045851,-0.0865099950415376,0.0162947921321774,0.0384609543506793,-1.112646048452976e-05,1.6320704662670609,0.3832,-0.0597
2.0988830000001144,0.1926496654568617,-0.0860061811602513,0.0161371384957098,0.0390548339862966,0.0009398770038656,1.6156260759863024,0.3832,-0.0597
2.130529800000204,0.2006709097955831,-0.0856488109722828,0.0159103322218277,0.056175208706309,0.0001703936029016,1.6346792806650157,0.3832,-0.0597
2.171270199999981,0.2089082786599521,-0.0851303464354703,0.0156658788039093,0.0875544097311046,-0.0001136146175813,1.618249101990114,0.3832,-0.0597
2.2016278000000966,0.2170120878065414,-0.0847755157160059,0.0154544563471512,0.124200468011671,-0.0026214724188823,1.635502024497377,0.3832,-0.0597
2.2430552999999236,0.2241571644232004,-0.0843298889153292,0.0153563305684486,0.1015677117438907,-0.0040885541420193,1.652758127802845,0.3832,-0.0597
2.2628128999999717,0.2312292737568998,-0.083767597865262,0.015371722209996,0.0773692389532703,-0.00575744218758,1.6370811241202516,0.3832,-0.0597
2.303555999999844,0.2386755346790538,-0.0833032075361057,0.0154704917924827,0.0707327942107631,-0.0069299932497909,1.652493862052775,0.3832,-0.0597
2.3343368999999257,0.2460514189665088,-0.0827046441916144,0.0156553858180181,0.0552271665877612,-0.0065576637159845,1.6696843649061763,0.3832,-0.0597
2.364427599999999,0.2532883283451019,-0.0819697248541771,0.0158870535116911,0.0335130808962642,-0.0069303685334556,1.6517545956984632,0.3832,-0.0597
2.3950110999999197,0.2605907040148283,-0.0813787019617727,0.016100006501263,0.0007553965625174,-0.0052985322786848,1.6681296044101734,0.3832,-0.0597
2.4268347000001995,0.2678981486821332,-0.0806476412296967,0.0162682910871315,-0.0370261247558898,-0.0031467950187984,1.6874079800516857,0.3832,-0.0597
2.4570763000001534,0.2750966799914928,-0.0797737942547404,0.0163546328783236,-0.078430898421201,-0.0030601308534076,1.669407558953986,0.3832,-0.0597
2.4846525000002657,0.2822593617368126,-0.079058602903798,0.0163460947282091,-0.1206123240076154,-0.0022234010751093,1.6881511892674022,0.3832,-0.0597
2.5120740000002115,0.2905737842342556,-0.0780805507757125,0.0162398541717424,-0.097216148705359,-0.0020333175855912,1.6709203178952876,0.3832,-0.0597
2.5452942000001713,0.2988232308337268,-0.0772633690895039,0.0160275708667676,-0.0669575265342993,-0.0030923564074065,1.6887620641968617,0.3832,-0.0597
2.575208499999917,0.3071684113843231,-0.0762750476308287,0.015764120836764,-0.0229952162769706,-0.0047175380627311,1.7082957936441705,0.3832,-0.0597
2.604077100000268,0.315433764372572,-0.0751345603079244,0.0155122229422529,0.0251063973132585,-0.0072669322568564,1.7284088059217493,0.3832,-0.0597
2.6371702999999798,0.3236018672278686,-0.0738477598321801,0.0153319435802964,0.0754023351830329,-0.0104812808544712,1.7480615503354453,0.3832,-0.0597
2.669117599999936,0.3317022263828943,-0.0724015416371628,0.0153143080189093,0.1251531776363461,-0.0120841118544646,1.7288857927346457,0.3832,-0.0597
2.7140840000001845,0.3388062447742277,-0.0713003477891132,0.0154089331055926,0.1021267648209654,-0.0126568783292227,1.7426865309160025,0.3832,-0.0597
