t,x,y,z,roll,pitch,yaw,desired_x,desired_y
3.161973499925807,-0.28010513227594713,-0.08562586455225624,0.7706965926178202,1.8623608286878006,16.675384362129627,-2.4471880413302913,-0.0716,-0.0852
3.2166760999243706,-0.2800565012222566,-0.08560622183836569,0.7705698737264381,1.7804426151277426,16.656130365899685,-2.4820879707443226,-0.0716,-0.0852
3.2732352999737486,-0.2801285643188717,-0.0856258612646746,0.7707677927211983,1.8653160187402484,16.608314040567212,-2.4747165772350757,-0.0716,-0.0852
3.3282042999053374,-0.2802120662768599,-0.08564993587159328,0.7709874527828577,2.00602813355147,16.615388848147578,-2.4801598282919874,-0.0716,-0.0852
3.3851634999737144,-0.2800862839343208,-0.08561106787034373,0.770627927873867,2.0081147502908165,16.671567007873023,-2.44567754007503,-0.0716,-0.0852
3.4420196999562904,-0.28016155287438455,-0.08562212684700121,0.7708388816523318,1.8894324262607474,16.675735714620235,-2.443406755837858,-0.0716,-0.0852
3.498758399975486,-0.280191823913288,-0.08564177483846833,0.7709290939937923,1.9601721040931097,16.5938583923418,-2.488384996624816,-0.0716,-0.0852
3.554013599990867,-0.27970430153782655,-0.08553695817960516,0.7705800729247189,2.0799345648670946,16.63245370057465,-2.8107598659439827,-0.0716,-0.0852
3.6098202998982742,-0.27415123110420064,-0.08570145004070867,0.7701618391833054,1.7897551006479107,16.56756248672718,-4.230135826405678,-0.0716,-0.0852
3.666350799961947,-0.26400470780744023,-0.08731614200657932,0.7677098197300631,2.399746672734501,16.439354867052973,-2.833297329820653,-0.0716,-0.0852
3.719622099888511,-0.25287268791096046,-0.08874586144682596,0.763914517798205,2.7045047681002337,16.580241465270582,-0.8705694801125505,-0.0716,-0.0852
3.7728995999787003,-0.24739794046693672,-0.08938552820934878,0.7623251028675917,2.7739721483751456,16.61625646007728,0.1406064884405215,-0.0716,-0.0852
3.827460299944505,-0.23614241477170486,-0.09053605243697034,0.7590748439667205,3.3461050841435815,16.48280843376646,2.5220561285321983,-0.0716,-0.0852
3.883365099900402,-0.23054089927331267,-0.09088379297611185,0.7578166415694588,4.074174232575744,16.362735195004937,3.6601289669326484,-0.0716,-0.0852
3.943337299977429,-0.2186664609368837,-0.09103589985930649,0.7540422322855332,3.922647236199804,16.067304044410132,5.684945612459442,-0.0716,-0.0852
3.9991801999276504,-0.20693276200215147,-0.090668192684157,0.7505767559615276,5.023982405352887,15.893666198562839,7.9898891430380035,-0.0716,-0.0852
4.058903099969029,-0.19509050800132047,-0.0892371868762972,0.7471835631840382,5.156212875016517,15.559848088896915,8.33294212425672,-0.0716,-0.0852
4.112537499982864,-0.18922247114708982,-0.0880242628619036,0.745506869695034,4.910047561566382,15.574027618503228,7.376580658779481,-0.0716,-0.0852
4.167674399912357,-0.17771867010669504,-0.08566001137692661,0.742836337105215,4.694058960444262,15.537226469043475,4.730744633647447,-0.0716,-0.0852
4.221737499930896,-0.17197366553083487,-0.08457877485564903,0.7413800951383864,3.876179002571278,15.805587568106144,3.0949115810835215,-0.0716,-0.0852
4.277134599979036,-0.16082795474695968,-0.08307894852067751,0.7394608935453507,3.921499452882195,16.05606716803057,0.20360945881908854,-0.0716,-0.0852
4.331984999938868,-0.149379518048418,-0.08218223488697561,0.7367557927499346,2.7466537573400656,16.27881863123673,-3.1844303168912638,-0.0716,-0.0852
4.387522999895737,-0.13778540688669455,-0.08210960856019622,0.7347481974420106,1.574567663807583,15.954348036044102,-6.293691036128803,-0.0716,-0.0852
4.443729899940081,-0.13201119313122303,-0.0825072238879427,0.7339429651823897,1.400886029282131,15.857712030341348,-7.3128502101012005,-0.0716,-0.0852
4.499339899979532,-0.1205005651203328,-0.08461848306651136,0.7317283904586267,1.7284645006035613,15.624386003664616,-6.73095419000431,-0.0716,-0.0852
4.552613099920563,-0.10885859106003729,-0.08684383303417541,0.7282129948968867,2.283763813270018,15.493548746642059,-4.622529083763532,0.1076,-0.0866
4.610299299936742,-0.10314081065768556,-0.08796513586016953,0.7270246523642373,2.720517285473667,15.49245773465637,-3.5169261832667376,0.1076,-0.0866
4.66666439990513,-0.09177030521980314,-0.09000089279052555,0.7249894316052382,3.750142212774863,15.460498704546909,-0.8810514851823857,0.1076,-0.0866
4.722027299925685,-0.08595858724279018,-0.09069934712060103,0.7234840784875294,3.7421974051537794,14.963964326195658,0.2653504038292179,0.1076,-0.0866
4.778709399979562,-0.07459066225754706,-0.09134554048909006,0.7190177298282449,4.885967097808763,15.390179309534542,2.453884173893561,0.1076,-0.0866
4.834775799885392,-0.06353578648910993,-0.09198130131963925,0.7187732843554443,5.59421179261338,14.902388057501827,4.2108034428915655,0.1076,-0.0866
4.889462999999523,-0.050405707427169516,-0.09215292480106142,0.7167192720661462,5.955246995564814,14.524927155892481,5.86962881560698,0.1076,-0.0866
4.9447486998979,-0.036822842336047296,-0.09084564751343899,0.7124424306304246,6.124351681063532,14.300242483505889,6.097324083248745,0.1076,-0.0866
4.999713499913923,-0.030605504846772897,-0.08962537805115679,0.7101729062216223,6.049603567459132,14.728055451354958,5.106371227773213,0.1076,-0.0866
5.055462199961767,-0.024443008061954274,-0.08861508314334143,0.7095181822084495,5.646181901069417,13.983743214721427,3.6665092028422492,0.1076,-0.0866
5.10854789998848,-0.012551763221345906,-0.08712261648525144,0.7086548225479573,4.498295501881498,13.27430847939839,0.498977415460253,0.1076,-0.0866
5.1625888999551535,-0.0009338277609914091,-0.08598360322483402,0.7040467944917277,4.1382726339434255,13.915015793726022,-2.1374561006919626,0.1076,-0.0866
5.2171661999309435,0.010652207368017612,-0.08555498698727826,0.7015754180671193,2.8678002055869523,13.981828246953668,-5.2233262997986305,0.1076,-0.0866
5.270636999979615,0.01639706483028185,-0.0854699228078842,0.7001825005490633,2.872121519027616,13.996564993650804,-6.642263570497974,0.1076,-0.0866
5.325979299959727,0.02746854338344699,-0.08612997108923674,0.6988185160773869,2.3318751337925088,14.028944680470733,-9.378085481477475,0.1076,-0.0866
5.38289269991219,0.03808560802654947,-0.08840369316877028,0.6955243110106918,1.636044139614135,13.922494157277255,-8.803583264942072,0.1076,-0.0866
5.438533499953337,0.04351145426916272,-0.08986910095815337,0.6945206745381032,1.5731772975707488,13.680817461409353,-7.81135351768258,0.1076,-0.0866
5.493134699994698,0.054610138278178226,-0.09232722534881425,0.6914867844488686,2.2518523935667023,12.492460062568565,-5.8742674937239565,0.1076,-0.0866
5.549015599885024,0.060219661342786654,-0.0934708210923857,0.6900254817747212,1.9269822713542133,12.437458021106309,-4.703816176764712,0.1076,-0.0866
5.60906059993431,0.07163100644321985,-0.0952361503894727,0.6869302564702554,2.0238299555446098,10.98613423830914,-2.555000217468999,0.3832,-0.0597
5.664290599990636,0.0827980644171198,-0.09636341269294989,0.6823237321678564,0.8419245850447254,9.09166473554486,-0.5633666656597777,0.3832,-0.0597
5.718728399951942,0.0938995198398448,-0.09720453840932596,0.6782354459499251,0.450697799650398,8.179578631043826,1.674159835668246,0.3832,-0.0597
5.776480899890885,0.09947652266037216,-0.09746615605307035,0.6765520307479351,1.0425929830974137,9.46507392106288,2.8658826679818947,0.3832,-0.0597
5.832279299967922,0.10972429347534823,-0.09722788452389816,0.6720088380421767,1.0608180134293952,10.170473070495731,4.961491078392809,0.3832,-0.0597
5.8889067999552935,0.1108339735260511,-0.0966500128663816,0.6674464883627544,-0.16323265954273825,8.736920566429223,5.334574718769238,0.3832,-0.0597
5.943858499987982,0.10821226838306067,-0.09743424446939747,0.6714732897599939,0.8532139965785746,8.86393417737077,5.290130474729901,0.3832,-0.0597
5.996158599969931,0.11173292095616869,-0.09629091142835408,0.6707722714544896,0.9353181876972402,7.710058686233365,2.735255026687604,0.3832,-0.0597
6.055178799899295,0.12273088584337914,-0.09518911425121003,0.6688214989363139,13.908439714915408,15.790441765788879,2.5059992730354494,0.3832,-0.0597
6.1095287998905405,0.1301767741603729,-0.09553756977067815,0.6674879071774917,0.5835996102339329,10.077169299898019,1.7808452460119948,0.3832,-0.0597
6.16602519992739,0.14526744355318635,-0.0942296448134319,0.6595124357663598,-0.41886450927729796,4.854830067714762,1.9581686138259546,0.3832,-0.0597
6.219762599910609,0.15267433770681252,-0.0926651044830011,0.6543957526335387,17.41361829602077,23.295027492287893,3.8072049326991593,0.3832,-0.0597
6.274891899898648,0.16976183301870976,-0.09197338473013922,0.6489058234144509,-2.932727850261617,4.488164327887077,0.15459916028875637,0.3832,-0.0597
6.3295637998962775,0.18696607164602685,-0.09222284032221778,0.6448966752448881,-2.222803846775716,5.703194983094722,1.7487474422625962,0.3832,-0.0597
6.3846038999035954,0.1955224310068049,-0.09229608330237749,0.6431236421529184,-2.533059255076068,7.092218254887519,2.8127515690403215,0.3832,-0.0597
6.441406899946742,0.21181453130101205,-0.0918846903827521,0.6371871346215091,-2.3827182106242994,5.996453064587268,4.893451480178973,0.3832,-0.0597
6.496108699939214,0.2282203340487286,-0.09153808168688146,0.6344704034190577,-1.956672925158778,6.825258438389138,7.461551595322381,0.3832,-0.0597
6.555427699931897,0.2441140441114158,-0.09039239732846657,0.631134350158512,-1.1851040707994964,6.474829325170639,9.990104161213859,0.3832,-0.0597
6.611057199887,0.25250682542462505,-0.08972643218607029,0.6305132589326513,-0.9326252875964544,6.768359702132293,11.374441978509633,0.3832,-0.0597
6.66451509995386,0.2687027919786467,-0.08742655141423936,0.6276047524186231,-0.501824037966256,6.164571314665264,13.872175276048539,0.3832,-0.0597
6.721197599894367,0.2774429459269143,-0.0861521098172604,0.6277883564200966,-0.11977191440513829,6.62819545050937,15.212402071673608,0.3832,-0.0597
6.77690239995718,0.294178729199568,-0.08299142055417333,0.6259708998330291,0.046293537524964894,7.051592190025772,17.88206660327317,0.3832,-0.0597
6.830817999900319,0.3119633263001096,-0.07881621816861381,0.6250608845953742,0.9767861830430138,6.237681258858193,20.167849679432127,0.3832,-0.0597
6.896019299980253,0.3289634055557298,-0.07249946977940659,0.6224436638732944,0.924911128337779,4.830145289092796,19.12358460432661,0.3832,-0.0597
6.951175299938768,0.3376670946529022,-0.06921723537480448,0.6212240035437849,0.8329315374590764,4.025723090467385,17.786556409162753,0.3832,-0.0597
