t,x,y,z,roll,pitch,yaw,desired_x,desired_y
3.0135638000210747,-0.2841519016075026,-0.070645407198792,0.77080953475266,2.2422412161669056,16.84205444946517,-1.144547310729853,-0.0716,-0.0852
3.0729942000471056,-0.28418293410550305,-0.07065506247042003,0.7708843862347223,2.191703947187995,16.887195497256023,-1.1649262460260066,-0.0716,-0.0852
3.120266600046307,-0.28402302808148344,-0.07063324495676215,0.7704656833955246,2.074310931010111,16.947397510964507,-1.1895406063006961,-0.0716,-0.0852
3.167391800088808,-0.28398106420407326,-0.0706175356682976,0.7704043794475537,2.295468585235839,16.87220732607368,-1.1335136390563847,-0.0716,-0.0852
3.213757300050929,-0.28416879110380844,-0.07065275716808862,0.7708406021490504,2.235435960159097,16.86023058710448,-1.1403696044958294,-0.0716,-0.0852
3.260754800052382,-0.2841070035144176,-0.07064774892855655,0.7706961718417027,2.0895861577149994,16.898527474578554,-1.228055733378185,-0.0716,-0.0852
3.309728900087066,-0.28397064500506386,-0.07060691253197944,0.7703222042364646,2.1009386831697228,16.896276003677723,-1.175251461060525,-0.0716,-0.0852
3.3557705000275746,-0.28344047537749323,-0.07050029757700277,0.7699872824726517,2.1834970160744076,17.027546845122192,-1.5281760230266683,-0.0716,-0.0852
3.4022193000419065,-0.28083930106337185,-0.06995674781934975,0.7693486874964119,1.9757219241754995,17.017595518438892,-3.261032095829655,-0.0716,-0.0852
3.449986800085753,-0.27693278471292426,-0.06995180839560289,0.7695577627606649,1.561241162266229,16.936383054357147,-4.636323257474413,-0.0716,-0.0852
3.4970255000516772,-0.26589837989204707,-0.07003976709347193,0.7665586791973383,1.031275136665201,16.8539760790151,-6.995138185721593,-0.0716,-0.0852
3.5482006000820547,-0.260167397710131,-0.07023847876960662,0.7653968951734771,0.6421438806759853,16.79493644713239,-8.471090377759218,-0.0716,-0.0852
3.596634600078687,-0.2543516219364964,-0.07063762355452992,0.7640087542208363,0.5722271803184161,16.755199375042874,-9.751101893058383,-0.0716,-0.0852
3.6435048000421375,-0.24277370887825586,-0.07204466183859752,0.7614094243890551,-0.07865158915857229,16.420897571666778,-12.497283155354154,-0.0716,-0.0852
3.6912882000906393,-0.231828175950493,-0.07489204821871677,0.7600127681910618,-0.2595726201704241,16.095157248840763,-13.325616411724882,-0.0716,-0.0852
3.7400205000303686,-0.22619676697343316,-0.07662358272436982,0.758588544583185,-0.2590115190323059,16.082648631619087,-12.745126751516452,-0.0716,-0.0852
3.7891768000554293,-0.22068390032745341,-0.07836919291136588,0.7569472734080032,0.1434018579054386,16.411412442921815,-11.773788213792894,-0.0716,-0.0852
3.8360851000761613,-0.209592533180892,-0.08179215808310612,0.7536631341261519,0.3876621175498855,16.240523208300385,-9.605872577551292,-0.0716,-0.0852
3.8882022000616416,-0.20381493725859148,-0.08337167641892787,0.751597710443991,1.0490865167599785,16.20502027808157,-8.342311840333087,-0.0716,-0.0852
3.941335999988951,-0.19245685115996217,-0.08633272107068976,0.7484182061320304,1.1658680612675647,16.175488099269554,-6.02724761988277,-0.0716,-0.0852
3.9926006000023335,-0.18103030016439597,-0.08889388736093007,0.7460726225100168,2.185565685479402,16.038721036826022,-3.361462414943662,-0.0716,-0.0852
4.042397600016557,-0.1750546503307771,-0.08977165281474737,0.7441132997302976,2.7411511310094663,16.150137646919966,-1.9707878687302154,-0.0716,-0.0852
4.094137600040995,-0.16346466943815963,-0.09144922713561587,0.7419716375423915,3.5424641173424045,15.583561156575655,0.6080494018238739,-0.0716,-0.0852
4.1441492000594735,-0.15700701046827903,-0.09173268597432549,0.7381570841682623,3.5871753558251633,15.780466791839983,1.5693671930185522,-0.0716,-0.0852
4.1960831000469625,-0.15164301896207824,-0.09249309540140963,0.7399009182752208,3.7200725983170533,15.11098830581968,2.6525335781277657,-0.0716,-0.0852
4.2514957000967115,-0.13987275267127725,-0.09270200319051766,0.7361541463598847,4.3687763148478425,14.913227811369023,4.654614334844559,-0.0716,-0.0852
4.300861100084148,-0.12847739766421576,-0.092728809227851,0.7333172190148047,5.382945482712197,14.99504357602101,6.882113632073628,-0.0716,-0.0852
4.350051100016572,-0.12263647633087793,-0.09254679725187251,0.7317566204667678,5.362817427242522,15.00821705071315,7.864744172146037,-0.0716,-0.0852
4.4009958000388,-0.11096494415412331,-0.09095157993428021,0.7281045705262563,5.5690546103054634,14.962222631338054,8.284704122852732,-0.0716,-0.0852
4.450240400037728,-0.1050742622271208,-0.08957986094140341,0.7258252104754765,5.4833946557673166,15.046086758539728,7.179438587276428,0.1076,-0.0866
4.5022543000523,-0.09349711746271394,-0.0882794223572296,0.7240059836662,5.25198120670747,15.105589855387302,6.470602553360836,0.1076,-0.0866
4.554195400094613,-0.0877180851620297,-0.08802508130006982,0.7227017854733343,5.628521134014584,15.142336934323566,7.345863287834329,0.1076,-0.0866
4.606348100001924,-0.07612779948340977,-0.0869261953880352,0.720756957252964,5.786896465235565,14.282266930229156,7.514093512739979,0.1076,-0.0866
4.655179900000803,-0.07024641842574243,-0.08557995297423879,0.7183359827200453,5.418722614336307,14.696330154070983,6.421229938373655,0.1076,-0.0866
4.7040481000440195,-0.06285122759420084,-0.08429820622790903,0.7171593892465634,3.9207781213756108,10.655346886244432,4.718431359854675,0.1076,-0.0866
4.752695600036532,-0.06613504099054987,-0.08454308066053623,0.7185715959626414,4.17063874826901,13.579057641142489,4.726318560242007,0.1076,-0.0866
4.801453100051731,-0.06610764282341526,-0.08405281891884876,0.7169351082416471,3.818785057968121,14.60711635036592,4.1194783843829015,0.1076,-0.0866
4.849156900076196,-0.062047541523407884,-0.08248096376089309,0.7173392549972047,3.9877355443145523,14.20494059444638,0.1589399223539138,0.1076,-0.0866
4.896839000051841,-0.05841673496878773,-0.0815901789447112,0.7174201326098619,3.9523926777202796,13.855205691602087,-2.303325214661779,0.1076,-0.0866
4.944509400054812,-0.05401528158573145,-0.08086288031716109,0.7152765498885206,3.0869572325433987,14.8370849408069,-4.257653113809841,0.1076,-0.0866
4.990771900047548,-0.04375068199245806,-0.0805388235235695,0.713370546096042,2.656763542717265,15.206231555774089,-7.69043889961419,0.1076,-0.0866
5.049727900070138,-0.03824946111401592,-0.08076480493041814,0.7119338603956081,1.878898557928301,15.199842899795042,-9.175539757063284,0.1076,-0.0866
5.097958700032905,-0.027040119682318564,-0.08200567581908925,0.7104450319082753,1.1647236006693684,15.241812310064192,-11.972909007103587,0.1076,-0.0866
5.144830000004731,-0.02131710062422857,-0.08305045449740979,0.710488635847479,1.4739459230977439,15.002975126034448,-13.316511810310251,0.1076,-0.0866
5.192741100094281,-0.010060019530088607,-0.08583841884597687,0.7068871996755872,0.7998578711389587,15.957567659528896,-13.89479223514111,0.1076,-0.0866
5.2417115001007915,-0.004445615116039742,-0.0876547176953625,0.7050557026438209,0.8274401542922194,15.901364793422678,-13.168671235366439,0.1076,-0.0866
5.287140000029467,0.006667779989236348,-0.09136665090942421,0.7025143159377729,1.9476685532139677,16.012973517951057,-10.753805326111042,0.1076,-0.0866
5.334820799995214,0.012415875566092232,-0.0932886522385574,0.7020148427838707,2.0854460404560067,14.818504665985486,-9.730268570665904,0.1076,-0.0866
5.381117600016296,0.018036150686854033,-0.09475011349571368,0.6997841365861566,3.0241706075578296,15.450563407498176,-8.314759094903675,0.1076,-0.0866
5.428209800040349,0.029312088374627534,-0.09782180045754514,0.698261809165261,2.570711334947005,13.81639545145763,-6.146142473662267,0.1076,-0.0866
5.475974600063637,0.03477157832825276,-0.09883568290660176,0.6960420065481558,3.013525120477937,13.970762779856353,-5.031717171109996,0.1076,-0.0866
5.5236019000876695,0.04576651927448705,-0.10086029748942918,0.6940593012624424,3.188491453876702,13.289580884738756,-2.963047995541652,0.1076,-0.0866
5.571442499989644,0.05134934692409481,-0.10168518594062376,0.6924247370556884,2.733791151074123,12.036492393048553,-2.0530888265258556,0.1076,-0.0866
5.618229600018822,0.06240113512359341,-0.10279631151298742,0.6881109504096325,3.307472642982121,12.557739822405853,0.4498260635639807,0.1076,-0.0866
5.663805000018328,0.06804387688712339,-0.10342412574422194,0.6873547178621869,2.79521374015258,10.360474138380718,1.2253254396121127,0.1076,-0.0866
5.7243424000917,0.07371401401956416,-0.10388487803652646,0.6861146824319738,1.9500102253158216,8.731496346046448,2.202237186205932,0.3832,-0.0597
5.771428600070067,0.0849455794802819,-0.10412427403267176,0.6827527911155686,2.456066125986017,9.611418300387264,4.656459230288581,0.3832,-0.0597
5.820388299995102,0.09049925874557116,-0.10403925605604131,0.6806747043015648,3.0770608476559542,10.188594254862021,5.807761993909518,0.3832,-0.0597
5.869209900032729,0.10107064834128329,-0.10368153194044881,0.6767391098663079,2.791216319563165,9.671593063349219,8.287558405742391,0.3832,-0.0597
5.914239200064912,0.1022815147943093,-0.10277763043460575,0.6705528575447655,0.5980468697175945,7.256991386707842,8.678401156629556,0.3832,-0.0597
5.9616587000200525,0.09967909818727594,-0.10374674063510946,0.6761159052134292,2.7156055914246755,10.746047478114658,8.66533639871027,0.3832,-0.0597
6.010582200018689,0.10009458341671323,-0.1036284216962948,0.675711615675395,2.1702484854738584,9.62278932019012,9.15588393106978,0.3832,-0.0597
6.060421300004236,0.10652101566954908,-0.10161248004997421,0.674420387969816,2.7978576031054536,7.734674879864851,8.1912938699324,0.3832,-0.0597
6.108921500039287,0.11195896129302652,-0.09986438754094945,0.672363343231611,2.4095601803168667,6.276065036808697,6.560500623281876,0.3832,-0.0597
6.158181600039825,0.11877241522535535,-0.09819905243143702,0.6700763320881329,1.2301954318760666,5.960606534968814,4.915604930939331,0.3832,-0.0597
6.209927499992773,0.13416673602388102,-0.0948961417957744,0.663069685061945,0.06705005895012102,4.41441844602735,1.6906833334640659,0.3832,-0.0597
6.256550300051458,0.1416412920272244,-0.09328160024302518,0.6566565493641546,-1.1938352871838271,1.4816894469937723,0.07626983712160051,0.3832,-0.0597
6.303187599987723,0.15908793714477787,-0.09211638643897048,0.6536131545893968,-1.7445733926358864,3.7736557640212403,-2.7346365746399712,0.3832,-0.0597
6.351915600011125,0.1768616302797543,-0.09149500107388434,0.6472052468996915,-2.8031298464033787,3.615294868824207,-5.502002840735647,0.3832,-0.0597
6.39766190003138,0.18625685713858003,-0.09233154298901018,0.6454752206138776,-2.9601115538689675,4.342906412634566,-5.567630328887292,0.3832,-0.0597
6.445948600070551,0.20416120055471734,-0.09412908873760376,0.6401756126753243,-3.3300989639972753,5.1275121615816825,-3.984456710891918,0.3832,-0.0597
6.495580499991775,0.21303245454125172,-0.09514895509487231,0.6389526416313415,-2.4684924074420516,5.760153671254231,-3.085554125792354,0.3832,-0.0597
6.55078350007534,0.2211004859529512,-0.09574724468465184,0.635415764381629,-2.6945823479734554,5.201172463013851,-2.0380739602448266,0.3832,-0.0597
6.598581199999899,0.23760447225570042,-0.09704590530713214,0.631844736429173,-2.093824227468088,5.3316922275657594,0.14462226382709742,0.3832,-0.0597
6.649870700086467,0.24525405534718292,-0.09743299217252269,0.6295559985832192,-2.466005658830119,5.952657034447142,1.467562067862285,0.3832,-0.0597
6.696810399997048,0.261334431856391,-0.09805576846668163,0.6268556487907333,-1.625611457981864,6.231670181531176,3.889464398097849,0.3832,-0.0597
6.744460900081322,0.26933934197211307,-0.09806960721609288,0.6250377272305674,-1.562867558501496,6.518368860401247,5.263197340261666,0.3832,-0.0597
6.793524200096726,0.28649881828942125,-0.09763868318426731,0.6234869891641732,-0.7673089209686045,6.791660229992744,7.91506616722047,0.3832,-0.0597
6.84278330008965,0.29620457690410995,-0.097324265939587,0.6248314298575375,0.2588891284980187,6.8175468747050125,9.036372746276871,0.3832,-0.0597
6.88981170009356,0.30540635615373823,-0.09657893819372147,0.6244835714431912,0.6300274427184609,6.098856966152909,10.143839548728533,0.3832,-0.0597
6.938119300059043,0.3243494704985149,-0.09493502013195995,0.623963361019638,1.0337536506274896,5.148621207771567,12.47200140243561,0.3832,-0.0597
6.985102500068024,0.33405181814292884,-0.09379873308577952,0.6238487252436731,1.3429765122290551,4.65649493229022,13.786765440590909,0.3832,-0.0597
7.031923200003803,0.35381740521781935,-0.09066123643208392,0.6235401341841752,1.5694727094335545,3.2142265203601457,16.43898027676427,0.3832,-0.0597
