t,x,y,z,roll,pitch,yaw,desired_x,desired_y
3.1227380000054836,-0.2955857826523759,-0.07711228403734574,0.8596122012813674,3.8827599422296024,20.780793868724462,-1.0458932917180097,-0.0395,-0.1
3.1731789000332355,-0.29507280943359104,-0.07709939223392268,0.8586272579126032,4.020524429037494,20.821783192562165,-0.8675154169605347,-0.0395,-0.1
3.223567200009711,-0.29465361705658655,-0.07715269393716148,0.8579579749637576,4.095468831344604,21.005742332327,-0.6099016698959215,-0.0395,-0.1
3.2744699000031687,-0.2946508975131211,-0.07712496635910882,0.8581239170711022,4.229622319124589,20.774058871632043,-0.583790061040724,-0.0395,-0.1
3.3255851000430994,-0.29452723678227727,-0.07730979381637634,0.8584396769471571,3.641998749034761,20.808091569101112,-0.5642890746194319,-0.0395,-0.1
3.3770598000264727,-0.2930947194037311,-0.07705943742257398,0.8576088710447336,3.6423056437116106,20.423286331196458,-1.4240972051618577,-0.0395,-0.1
3.427428900031373,-0.29046799886275304,-0.07705569262258391,0.8578193730449122,3.717875959306067,20.468027997724757,-2.036287195249829,-0.0395,-0.1
3.4784167000325397,-0.2861112545285717,-0.07709282135885173,0.8555895807970864,3.2495780240347356,21.456563829759354,-2.453529081930002,-0.0395,-0.1
3.527664900000673,-0.27811423872998187,-0.0775898500279339,0.8518825583830818,3.2538157086085127,21.754755119128856,-2.1618498112631825,-0.0395,-0.1
3.57597900001565,-0.2745071873329353,-0.07782539434298238,0.8514539158853893,3.541229232278197,21.74714169849923,-2.4133675353634967,-0.0395,-0.1
3.624193900031969,-0.26678664380452743,-0.07780557712825219,0.8485018954704673,2.956582714725707,21.625818118504725,-4.2935287605812364,-0.0395,-0.1
3.6732304000179283,-0.2586771277638274,-0.07796358999727153,0.8460873883561965,1.7972659047879207,21.512057375404517,-7.378865675589069,-0.0395,-0.1
3.7220485000289045,-0.2547258129184958,-0.0784206393300068,0.8457595381233556,1.5746805420146623,21.493685852482624,-8.612552890511717,-0.0395,-0.1
3.7714659000048414,-0.2452134188761496,-0.07893530275221836,0.841573748896093,-0.0714864752934604,21.433337768271475,-12.382380983443715,-0.0395,-0.1
3.822884500026703,-0.2414074907605249,-0.07977548043027183,0.8425179398549896,-0.47760025311076865,21.260073914265664,-13.844800076779814,-0.0395,-0.1
3.873211199999787,-0.23662303787136701,-0.08033394687543204,0.8398460860836638,-1.3180534658533287,21.264768752188115,-15.518805960567496,-0.0395,-0.1
3.9230319000198506,-0.22859616688596343,-0.08298968897411216,0.8374930116553603,-1.6652278338971358,21.34636179893847,-16.255508929552217,-0.0395,-0.1
3.9698944000410847,-0.22511788125875382,-0.0848695549332334,0.8364837838780959,-1.7443610330372366,21.047110282500796,-15.840697603095487,-0.0395,-0.1
4.018272700021043,-0.2187049341600189,-0.08874846466946679,0.8341958253744016,-0.5079879110531652,21.13136434849376,-12.59677872178428,-0.0395,-0.1
4.070180800044909,-0.21510603002048734,-0.090338449416643,0.832241820685535,0.23979935211828973,21.138057378339514,-10.726835606584535,-0.0395,-0.1
4.122060600027908,-0.2085752695149095,-0.09297137744104564,0.8292572523853576,1.6857135417036617,21.220749163658894,-7.572830776762814,-0.0395,-0.1
4.1711693000397645,-0.20579799093652776,-0.0941936283230607,0.8291380207093086,2.3787604989192057,21.022271634786435,-6.143361438170495,-0.0395,-0.1
4.221368500031531,-0.19974208342910701,-0.09578894011286772,0.825882719291119,3.3528155085062648,20.914418562019225,-3.728620309112996,-0.0395,-0.1
4.271265800052788,-0.19686616749659905,-0.096199549485175,0.8239146972739677,3.290995962591204,20.912065293779197,-3.2781418117741774,-0.0395,-0.1
4.3213464000145905,-0.19213600445173645,-0.09756691082717057,0.8236701077395188,4.4033007273610485,20.579918464415634,-1.3715813808835653,-0.0395,-0.1
4.371081600023899,-0.18929689886059617,-0.09803373497262112,0.8212936223437224,4.408233207426555,20.5133235755564,-0.3345199344146945,-0.0395,-0.1
4.42178120004246,-0.1848538868902601,-0.09805462066115822,0.8198974125717698,4.487332326163263,20.58502952195222,-0.3277477696299926,-0.0395,-0.1
4.473218600032851,-0.1829017734842398,-0.0977782176471024,0.8194410304273071,4.181316646927529,20.72037039284918,-1.04411772677696,-0.0395,-0.1
4.5237153000198305,-0.17943667208167205,-0.09726154883263513,0.8188134879886292,3.4063200561746494,20.71255725685525,-3.456542458131231,-0.0395,-0.1
4.5765486000454985,-0.17599968391097,-0.09667333986825279,0.8171664832939592,2.384491999629757,20.714393585297135,-5.823877500562082,-0.0395,-0.1
4.629333600052632,-0.1743324910162415,-0.09643901697826032,0.8174005690468802,1.8900968024042806,20.88370718153317,-7.272499254631887,-0.0395,-0.1
4.680039500002749,-0.17250579986806178,-0.09617782633898565,0.8168455347885445,1.426787364254945,20.908052007216877,-8.524603829779231,-0.0395,-0.1
4.7315383000532165,-0.16927566264409147,-0.09629120816824153,0.817226021147026,0.779638196412937,20.696804121411738,-10.482679185040583,-0.0395,-0.1
4.783383600006346,-0.16565136555551233,-0.09637407079854254,0.8154551118588891,0.15858688027755957,20.83686062731318,-12.002794750520302,-0.0395,-0.1
4.8330439000274055,-0.16403488654577525,-0.09708983978248917,0.8152670210664487,0.06516462579288762,20.84019455258194,-11.697891353446787,-0.0395,-0.1
4.88589370000409,-0.16062106943752813,-0.09858584543471074,0.8140101102165456,0.8513808907678183,20.707068003070994,-10.007180459663845,-0.0395,-0.1
4.937585000006948,-0.15883562236162785,-0.09937536396108787,0.8133839607661162,0.9968951010037391,20.64000494188969,-9.26356107215076,-0.0395,-0.1
4.989710399997421,-0.15527871398769788,-0.10087124372347117,0.811612789980778,1.7036938454329602,20.52149730615006,-7.406461945349859,-0.0395,-0.1
5.042161200020928,-0.15348614297766444,-0.10147639429319724,0.8100767528991519,1.710868480985998,20.634744492372366,-6.487020402308771,-0.0395,-0.1
5.104678700037766,-0.15022269235666658,-0.10322527890015949,0.8100037511060627,2.792568190282092,20.30495818366902,-4.004817596713551,-0.0395,-0.1
5.157782800029963,-0.1482399957842621,-0.10382861643215612,0.8081081232224127,3.1798218781767926,20.506863857018008,-2.7132178397738906,-0.0395,-0.1
5.211259900010191,-0.14468353538166923,-0.10529510352134104,0.8076056834342744,4.370921313852247,20.258926348112336,-0.1150898655694595,-0.0395,-0.1
5.261140000016894,-0.14138702491028762,-0.10647034984173481,0.8067286913405322,5.303099980299043,19.969629605987247,2.5314899986100783,-0.0395,-0.1
5.314179700042587,-0.13849972875711256,-0.10727916672542126,0.8041205012798547,6.288878503828081,20.273235758657133,5.2476297404506225,-0.0395,-0.1
5.3670227000257,-0.13762070842052015,-0.10761639742210508,0.8044956942952508,6.208871157014227,20.19672557060892,6.075977229168687,-0.0395,-0.1
5.417343900015112,-0.13652341684335592,-0.10738535545751932,0.8031634001291951,6.753452543177638,20.289285072960205,6.467186219218564,-0.0395,-0.1
5.4695772000122815,-0.13498559987098488,-0.10688779278535515,0.8022212930136724,6.718977128464835,20.30697423018697,5.90711484360765,-0.0395,-0.1
5.52128200000152,-0.13324489363247607,-0.10608068200845813,0.8016031734297023,5.943287090351916,20.32517316843323,4.377019282126246,-0.0395,-0.1
5.57268290000502,-0.13227765858606122,-0.1057774465763291,0.80131612479824,5.4321369801164785,20.36142875269666,3.6848892404411115,-0.0395,-0.1
5.624296499998309,-0.1304749544699789,-0.105425138755663,0.8013401547374575,5.6264218242293245,20.15471419763481,3.050665156463049,-0.0395,-0.1
5.676918900047895,-0.12941072565867537,-0.1051488505459679,0.8000983196327979,5.809574833568527,20.35904024896045,2.9739406944722444,-0.0395,-0.1
5.729970800050069,-0.12765945079364044,-0.1046286364848011,0.7999319749140843,4.948011682954514,20.35802269619134,1.4091873249353322,-0.0395,-0.1
5.781250400003046,-0.12643735638606252,-0.10411381780680427,0.7985546067823248,4.698240363017437,20.501144845573666,0.561236020936848,-0.0395,-0.1
5.831648999999743,-0.12426339949625638,-0.10410443055360298,0.7989915655570669,4.786155766857792,20.498512727638975,0.07145739130432212,-0.0395,-0.1
5.881541700044181,-0.12312646960734536,-0.10417396585526738,0.7983540426551862,4.741441653788265,20.434550684974003,0.08684592082587089,-0.0395,-0.1
5.931744900008198,-0.12122720119315497,-0.10429171547475197,0.7970324934904933,4.542252904312698,20.50472816421123,0.44039917280791313,-0.0395,-0.1
5.984004600031767,-0.11966618184700077,-0.10502187193539698,0.7977789970022937,5.029294905041217,20.28013632766033,1.6030460214300688,-0.0395,-0.1
6.033019000024069,-0.11877917091819873,-0.1051667319061537,0.7975573247960502,5.668337575297976,20.27755770367729,2.0273032327752487,-0.0395,-0.1
6.084204000013415,-0.11663908093613744,-0.10495777168002451,0.7937859644114216,5.473547070825569,20.723078253444765,2.6163768870580864,-0.0395,-0.1
6.135167700005695,-0.115677924555977,-0.1050499254510189,0.7928769630537321,5.7948667780941685,20.496735489684163,3.0515014393227915,-0.0395,-0.1
6.187676000001375,-0.11475939277980379,-0.10505367334436329,0.7923814061412183,5.906937015839891,20.29782795895976,3.100712294256917,-0.0395,-0.1
6.241337100043893,-0.11348829050891877,-0.10514811780169768,0.7929428132716433,6.058646352044855,20.508893299124598,3.268163312064447,-0.0395,-0.1
6.293511100055184,-0.1118725998714546,-0.10621367624892317,0.7949443757769004,6.666133370381031,19.71687095629463,5.090829409112993,-0.0395,-0.1
6.344574000046123,-0.11020161870458361,-0.10637155289039639,0.7932950217405343,6.919844803856487,19.874610075045645,6.070122033517237,-0.0395,-0.1
6.396406100015156,-0.1066071311313716,-0.10648136779457044,0.7919599045764157,8.157399777912916,19.7856255725157,7.42939504481626,-0.0395,-0.1
6.446860300027765,-0.1030566248300728,-0.10531599023501922,0.7910238285346667,7.121672755024741,19.969372528666,5.572938320854378,-0.0395,-0.1
6.500061900005676,-0.1013771700766565,-0.10501198420069177,0.7909007727554487,7.20436941647825,19.9852402391784,5.318428366089302,-0.0395,-0.1
6.551384000049438,-0.0979322876932157,-0.10527205211711646,0.7901380823995728,7.894728334962472,20.002001702727927,6.597684547120942,-0.0395,-0.1
6.600783500005491,-0.09609868900729772,-0.10490946378899767,0.7884000947802318,7.519288766029272,20.03016203043278,6.503499270391801,-0.0395,-0.1
6.652285500022117,-0.0927480071942916,-0.10346821868659607,0.7863309931752742,6.677087980745334,20.53934706453912,4.341546776566522,-0.0395,-0.1
6.7036063999985345,-0.09140908921852481,-0.10265025043336456,0.786642782083383,6.478179148795789,20.35665955938553,2.404805408430271,-0.0395,-0.1
6.757280500023626,-0.08857312264576218,-0.1008846970279782,0.7853725786166098,4.588344965691891,20.718774422872638,-1.759457016626922,-0.0395,-0.1
6.80933380004717,-0.0872505278918681,-0.10019705531498013,0.7850206909004338,3.883511638553116,21.00066365099348,-3.58084464685325,0.3445,-0.0912
6.86049869999988,-0.0859414286903466,-0.10011746235182631,0.7859633023450661,3.064727434898945,20.70726440554427,-5.623975866658897,0.3445,-0.0912
6.911054900032468,-0.08559624071189924,-0.10034366822845571,0.7860809744177859,2.64695402354634,20.72375217587126,-6.849388000600507,0.3445,-0.0912
6.963543300051242,-0.08536969204481425,-0.10040651189814255,0.7857494881094759,2.5512829236161574,20.822040713428567,-7.325959234873906,0.3445,-0.0912
7.014031200029422,-0.08523324844877757,-0.10076297207160831,0.7864972148782392,2.5787366714931332,20.59276245371302,-7.467303922084985,0.3445,-0.0912
7.078436000039801,-0.08451665115793104,-0.10173301670647758,0.7854854468637881,2.840093112713755,20.563812973992462,-5.906410237790964,0.3445,-0.0912
7.131550799997058,-0.08397609233925504,-0.10259640158574328,0.7863784652263057,3.7005251854525563,20.396517310353293,-4.791165610653894,0.3445,-0.0912
7.184722600039095,-0.08032389558608945,-0.10390186329187118,0.7847128641939384,4.134489198069404,20.5443759132346,-4.1160623900264,0.3445,-0.0912
7.236636400048155,-0.07319194461845596,-0.10618052518451411,0.7831865348640898,4.626366498859751,20.755571673660576,-3.4591659519056854,0.3445,-0.0912
7.299685300036799,-0.060269165557296306,-0.10764315195431119,0.7784317326139147,4.705686754421466,21.420703505080397,-4.368178235091839,0.3445,-0.0912
7.35102130001178,-0.05320129715986981,-0.10891169126180185,0.7768175485722622,4.90673487330886,21.534445341562563,-4.1349215706737015,0.3445,-0.0912
7.402783300029114,-0.03786702661658757,-0.11191060829998603,0.7717558727562591,6.149733783304355,21.324370416470213,-2.4742583379988337,0.3445,-0.0912
7.452323900011834,-0.02970519591168992,-0.11328113013703012,0.7692209636810243,6.574917395699409,21.36572828066314,-1.6711272277168037,0.3445,-0.0912
7.506197900045663,-0.011237410832027863,-0.11574915704568073,0.7616482747979046,8.80088470811689,21.520424869393945,2.4046370621239146,0.3445,-0.0912
7.557729599997401,0.008988385588696577,-0.11586117770677144,0.7551516972935505,8.134445986414182,21.66777223647302,2.9377166676932713,0.3445,-0.0912
7.609949100005906,0.01899940079909506,-0.11579883745283552,0.7502178717580624,9.039471121530939,21.552310761283568,3.9780844709260403,0.3445,-0.0912
7.661413000023458,0.039521446119369856,-0.11589312798727708,0.7464682045885768,9.783405692132737,20.2430068580284,6.153839670858173,0.3445,-0.0912
7.716238300024997,0.0597092183004289,-0.1141280453292684,0.7366177220018829,12.01842468729816,20.624395964917987,9.165520691167737,0.3445,-0.0912
7.767755400040187,0.06979812656574591,-0.1131176369038018,0.7347687696334921,11.399852232133675,19.61838116845974,9.49740349980102,0.3445,-0.0912
7.819182700011879,0.07935090225426168,-0.11134362849667387,0.7288766166457088,12.544277323033842,20.709968941798273,10.4566270608712,0.3445,-0.0912
7.87051140004769,0.09873166418070994,-0.10799970029653477,0.7195681767786763,4.684719682180501,-8.165344593174233,7.1350954747630455,0.3445,-0.0912
7.924912600021344,0.11707634029500524,-0.1037503968209377,0.7118737905148057,5.006338919532937,-4.2738915484921645,7.687639060002185,0.3445,-0.0912
7.97919650003314,0.1255560742988247,-0.10119854913630974,0.7064708255007913,4.011246807030882,-3.725021420834704,7.1061661146416135,0.3445,-0.0912
8.034817000036128,0.14252161542796496,-0.09799014837125217,0.7064013343530949,4.441879188273136,9.082684073975718,6.296050239393985,0.3445,-0.0912
8.090770600014366,0.15664780479540474,-0.09450638738542073,0.6991482153622443,2.9094618339690146,10.70917149173064,3.7738021181746353,0.3445,-0.0912
8.150335500016809,0.16254019235148,-0.09258219517570447,0.6924947942252603,15.134230302853156,20.411104700483808,4.0810343325102725,0.3445,-0.0912
8.205504000012297,0.17458921685304224,-0.09012796283433695,0.6824946636053753,16.72910058253652,24.319109334768473,2.201011126781414,0.3445,-0.0912
8.276732300000731,0.18087547098578094,-0.08961747345489735,0.6817424134881783,15.445886480657787,23.63280117512021,0.43486650856569287,0.3445,-0.0912
8.335049000044819,0.1918733414584149,-0.08868870308979117,0.6763148238418519,-2.471156079578467,7.076362725459263,-4.186801392255571,0.3445,-0.0912
8.3875635000295,0.2022358752176851,-0.0881540915436031,0.673581902946226,-2.7789902895606424,8.126849977524843,-6.876754742809252,0.3445,-0.0912
8.439236500009429,0.21144221312242034,-0.08927808349263609,0.6706550593879298,-3.664229339043357,8.851467175479362,-6.578530370601152,0.3445,-0.0912
8.491051400022116,0.21915500166271576,-0.09086169384367647,0.6653224924439933,-3.660067922980118,8.003933030201868,-4.325622579954897,0.3445,-0.0912
8.543345600017346,0.22368376835148193,-0.09195722370845766,0.6659779052897593,-3.2857252006656377,9.610125712026347,-3.0876679103662763,0.3445,-0.0912
8.59815840004012,0.23067974220607362,-0.09295708069602573,0.6618921144399557,-2.8917312489586906,8.504915752998278,-0.8976165756531014,0.3445,-0.0912
8.651194100035354,0.23499772953184145,-0.09369193601831646,0.6626811452391439,-2.092529968887593,9.328702368986438,0.24086930916196891,0.3445,-0.0912
8.704303100006655,0.2417677771433869,-0.09429437953743522,0.6586992226341815,-2.1264452391761877,8.080189856969604,2.4331194783103243,0.3445,-0.0912
8.799267299997155,0.2502895459241961,-0.09506467245164335,0.6584954432298844,-1.0743688680834425,9.212362544985954,4.614058337104886,0.3445,-0.0912
8.853921300033107,0.25430383821181723,-0.09496091926697761,0.6573916012233655,-0.8686458628270187,9.106177304203275,4.922844304458834,0.3445,-0.0912
8.906440400052816,0.26660930603092176,-0.09289691702941115,0.6536506149684316,-1.4107544874697546,8.422062124983778,2.4404980269749488,0.3445,-0.0912
8.957995700009633,0.2707695044697338,-0.09210832729916216,0.6520609460494536,-0.9114154992220619,7.5190269831922025,1.0703360880624726,0.3445,-0.0912
9.007998500019312,0.2807761098928729,-0.09112918856089597,0.6522580793063242,-0.5185426229456046,8.041824931589375,-1.5824229810211485,0.3445,-0.0912
9.060629600018729,0.29049373091369096,-0.09020352326254943,0.6498217753881183,-0.8241341099958277,7.518781567182205,-4.1540809516695445,0.3445,-0.0912
9.11144270002842,0.29605416188293066,-0.09001474655577107,0.649846804353928,-0.6233671549734716,7.504275861360339,-5.679875847854127,0.3445,-0.0912
