t,x,y,z,roll,pitch,yaw,desired_x,desired_y
0.0,-0.2467909315089236,-0.07805685982578262,0.8769477070445849,1.3645997539761852,-0.4027144363227112,0.8751503590823123,-0.0395,-0.1
0.05746479996014431,-0.24708008742366083,-0.0781553002910063,0.877849773241409,1.9372569207615769,-0.7706207104334607,0.8610480701549593,-0.0395,-0.1
0.11671069997828454,-0.24665213040093958,-0.07810041500521837,0.8765326862589999,0.6872826573307671,-0.3849897968382332,0.7256890999777253,-0.0395,-0.1
0.1864820999908261,-0.2468345037710532,-0.07816471022341104,0.8771292683908762,0.5343048635367386,-0.530906640879701,0.7484808528190593,-0.0395,-0.1
0.24550899997120723,-0.24666905129501204,-0.07808386378668708,0.8766398318361175,0.3470744433912482,-0.4462300171004342,0.7888990857342146,-0.0395,-0.1
0.30337559996405616,-0.2468499400913354,-0.07811281380015313,0.8770704428926607,1.214825176986187,-0.5900490418990288,0.8232678856462797,-0.0395,-0.1
0.35976599995046854,-0.2445567959889966,-0.07824660106866703,0.8792791587907492,2.8518992006966903,-0.8600417167659935,0.7455749875132806,-0.0395,-0.1
0.4160207999520935,-0.23747048437266882,-0.08089945376224375,0.8961057994935463,4.288507287671,-8.392948869803453,-1.2101336522432016,-0.0395,-0.1
0.4725814999546851,-0.22621170474547814,-0.07999769472916689,0.8825694672239954,1.5797960569649911,0.8396201856351825,-1.208023969362074,-0.0395,-0.1
0.5300841999705881,-0.20789183738370232,-0.08031838347813242,0.8814002613888618,3.180398612919098,0.7816281530771326,-3.632936129824917,-0.0395,-0.1
0.5860276999883354,-0.1894851983126964,-0.08111865532240839,0.8825608372301111,4.03105486863013,2.0187044489871933,-9.443640773387155,-0.0395,-0.1
0.6419043999630962,-0.1703258134452406,-0.0854628540011713,0.8851854192493862,4.861386538970602,2.571581645140574,-12.873195141794604,-0.0395,-0.1
0.6985756999929436,-0.15932510373170028,-0.08971503273682398,0.8858282910130926,1.4749725088643184,-2.251770471681822,-14.679714788208113,-0.0395,-0.1
0.7543484999914654,-0.13832405737631026,-0.09594334235064403,0.8845341002307062,-0.3737312245659011,-6.14008876527734,-17.289650930539125,-0.0395,-0.1
0.8108887999551371,-0.1287174016199233,-0.09897534447581907,0.882840967131841,-1.4995248203993352,-5.811172679083847,-18.196672930573804,-0.0395,-0.1
0.8686576999607496,-0.10888307744460365,-0.10453133137436826,0.8752868627831196,-3.072155734798055,-5.450663884455316,-19.58542915647352,-0.0395,-0.1
0.9276578999706544,-0.09551256704630115,-0.1099451334208002,0.8832332739140538,-1.3260726107772514,-2.062223284822288,-17.10158465353731,-0.0395,-0.1
0.9822988999658264,-0.07801536533258607,-0.1134899535520976,0.8743223322511994,-3.0675125166536144,-6.561384834609945,-14.804718086299202,-0.0395,-0.1
1.039420799992513,-0.06458232786621913,-0.11600316845649973,0.8715691039209673,-3.363549623375596,-4.008935587936337,-12.637143308334934,-0.0395,-0.1
1.0938749999622814,-0.05881855882593341,-0.11709123847870087,0.8721012712128584,-4.196429767292386,-4.049804634808981,-11.27331635781246,-0.0395,-0.1
1.1518550999462605,-0.04885356756394245,-0.11990052481367117,0.8770822334553063,-2.7384124290142795,-1.0879963603431573,-6.90195612342549,-0.0395,-0.1
1.2100571999908425,-0.043715779110027005,-0.12096484710801138,0.8780326545918546,-3.1800211163086263,-1.199019206093711,-4.186882785458379,0.3445,-0.0912
1.2754533999832347,-0.0317951330709782,-0.12166015594843227,0.8793913292065184,-2.001728913142012,-1.0919342126666318,-0.0401538006647285,0.3445,-0.0912
1.3305584999616258,-0.016691585506043115,-0.12049294099704022,0.8734594045934371,-1.4533513659775117,-5.486851355799304,0.7637451376669208,0.3445,-0.0912
1.3875777999637648,-0.00511538537434161,-0.11847913668766036,0.8721119259725694,-4.321177306564913,-3.4012898992285927,-0.0744784647036634,0.3445,-0.0912
1.433461399981752,0.004356523564683384,-0.11858130597871164,0.8732959262377856,-3.223646962591092,-3.304820823434316,1.3118376554155455,0.3445,-0.0912
1.4871050999499857,0.007890088267507894,-0.11824136616267102,0.8711420462316131,-2.7933242171234447,-4.49700351564305,1.798752746487069,0.3445,-0.0912
1.5368365999893285,0.010906706331797498,-0.11836093145640576,0.8708180039567147,-0.899201513323708,-7.805269170561813,2.153992137058179,0.3445,-0.0912
1.587144699995406,0.019440881674327504,-0.11989394766953174,0.8786306704976728,-1.5393458977133834,-3.015955166581452,2.370650277039278,0.3445,-0.0912
1.636838699982036,0.041878549176422274,-0.12029690385812539,0.8854430928561753,0.6666513774876567,-8.975836697427454,-0.1072599053356477,0.3445,-0.0912
1.6869809999479912,0.05538409375173716,-0.11986443554189112,0.8816524360270876,0.2590683226005051,-10.467107601887395,-1.591642426918062,0.3445,-0.0912
1.7400499999639578,0.08716996640307176,-0.12134027544015541,0.880784281977258,1.6864642118517117,-11.7528558284662,-3.5828348196104907,0.3445,-0.0912
1.7911034999997355,0.1005218813519815,-0.12246640180569453,0.8780481563760602,-2.1717173303188018,-8.004746531744281,-2.607966122743567,0.3445,-0.0912
1.84143229998881,0.1272389489367746,-0.12326299198433993,0.8826048388368805,2.9970208476731552,-8.708039417104542,-5.52721023501936,0.3445,-0.0912
1.8928139999625273,0.14095774282082396,-0.12345649426137106,0.8822186625551902,1.489697405378675,-7.983317446889154,-5.89232798721482,0.3445,-0.0912
1.9417291999561712,0.16916400074323795,-0.1273858621627003,0.8853843666818597,0.9125018652502144,-7.38577083563789,-4.017773086601294,0.3445,-0.0912
1.991144199972041,0.1833205286516278,-0.12793190701163523,0.8843476757716097,0.1197927003356839,-6.175561851821445,-3.020278192398262,0.3445,-0.0912
2.0446856999769807,0.21197710806765055,-0.12844467745959295,0.8834271452779398,0.4452165867265345,-5.964252471961783,-0.1713884973714826,0.3445,-0.0912
2.0965602999785915,0.22556599163970992,-0.12820531284887277,0.8835681764968432,-0.7693858042667215,-4.873822821040126,1.167960963599649,0.3445,-0.0912
2.1462450999533758,0.25099818396177687,-0.12789789207753263,0.8877406386421582,1.515934007871296,-7.596677101539363,5.214431373664626,0.3445,-0.0912
2.198264999955427,0.2695419713943735,-0.12510570863288764,0.8871194975316522,1.3806814220967425,-2.8695962764346428,2.0895460176679626,0.3445,-0.0912
2.251171499956399,0.27628076847513233,-0.12473253696885063,0.8878871737811453,1.0207077113803489,0.6024938248975003,3.184093710365874,0.3445,-0.0912
2.3031270999927074,0.28554806221804846,-0.12544689460780734,0.8902080358644697,-0.4305642132817846,0.2060640013330175,4.5169095982287,0.3445,-0.0912
2.355501599959098,0.3036247156650933,-0.12399790078464686,0.890637942615565,0.3424500881211268,-1.170309587729338,7.632514800674816,0.3445,-0.0912
2.4089329999987967,0.317474030725938,-0.12167516886630989,0.8905953976764326,-0.1243287441185935,0.6628263844497376,11.051743603746411,0.3445,-0.0912
2.4593314999947324,0.32379748208490694,-0.12021299617808946,0.889657811884072,0.139799288470396,0.2522393431448816,12.366138456853392,0.3445,-0.0912
2.5118006999837235,0.33816106446074806,-0.11764518720734735,0.8923035442223157,0.4395012670738896,0.5308112199122551,14.962264988449432,0.3445,-0.0912
