t,x,y,z,roll,pitch,yaw,desired_x,desired_y
0.0,-0.23733083158092314,-0.08363898367943742,0.8934920223886768,6.356715086969391,-10.934762727884417,1.0303281884935411,-0.0395,-0.1
0.05006340000545606,-0.2340876456296209,-0.0837910140309279,0.8832959979263507,7.270676719355979,-30.289965356626883,-1.1526946985330149,-0.0395,-0.1
0.09978599997702986,-0.23769385069013055,-0.08415116598848059,0.8948661177808178,9.340360221871912,-18.407807460113688,0.1847032372875341,-0.0395,-0.1
0.15338119998341426,-0.23776842576328555,-0.08400125590043453,0.8950136959749799,8.496892550578927,-16.007628303931504,0.4984954359980709,-0.0395,-0.1
0.20415950001915917,-0.23779013846302927,-0.0841352669874332,0.8951713497778009,8.594571866998107,-17.178797991909054,0.3787888559288198,-0.0395,-0.1
0.25667520001297817,-0.23779531733072787,-0.08395830176304854,0.8951059603357473,7.287230179338852,-14.094797592248424,0.7163867257219583,-0.0395,-0.1
0.3081428000004962,-0.2297337550450166,-0.08373810495358895,0.8797819417660985,8.495242708261129,-32.51583193864076,-1.1690423469846396,-0.0395,-0.1
0.35956509999232367,-0.22405042964206967,-0.08252589647932738,0.8780078081877208,3.1523216492791377,1.9892233544757223,2.438879654976885,-0.0395,-0.1
0.41198109998367816,-0.20719699728057633,-0.08229964999327258,0.8812815225003711,4.214519589906122,0.4474920269038147,1.1075643172064498,-0.0395,-0.1
0.4665621999884024,-0.18834284520158182,-0.08129339084002991,0.8817152324125562,7.017714508276297,0.7473304877822585,-4.548270907324782,-0.0395,-0.1
0.519572600023821,-0.17926357814947474,-0.08262765465845849,0.8834353364530817,6.773750446752472,0.0097571298324827,-6.5523463996716735,-0.0395,-0.1
0.5758717000135221,-0.16902771129838207,-0.08396477058528347,0.8813699196842206,5.259877568778375,1.836585696597968,-8.146731298037272,-0.0395,-0.1
0.6315155000193045,-0.14758499154955879,-0.08952296453429687,0.8835920867219544,4.98134440890767,-10.245085952910625,-11.954099843345585,-0.0395,-0.1
0.6845487999962652,-0.12628117681135204,-0.0934243135509752,0.8762819736914393,4.33154590217113,-11.101367568384644,-13.71859262851757,-0.0395,-0.1
0.740740499983076,-0.10682801436227789,-0.0977614600135589,0.8721264808821568,0.9943918968599632,-10.123178309384432,-15.40080920717342,-0.0395,-0.1
0.795538000005763,-0.09966932510201869,-0.10006850841593347,0.8693296807893907,-1.7291434924919933,-8.145744270431711,-14.985202757684815,-0.0395,-0.1
0.8489617999875918,-0.09083008365242738,-0.10407462676216718,0.879749605570112,-1.9109173709309053,-0.6147228550320615,-12.32270243361528,-0.0395,-0.1
0.9016688999836342,-0.08484272158407867,-0.10533705306362337,0.8796128945632515,-1.9997029877341723,-0.6620660905712501,-10.947205629385332,-0.0395,-0.1
0.9557228999910876,-0.06726689296397725,-0.10670033812971115,0.8730299837970411,-2.56124100327294,-6.869206282946669,-11.13484369575532,-0.0395,-0.1
1.0116288000135691,-0.059331868779131505,-0.10747732297528619,0.8688565289819047,-3.456824286976593,-6.833480450127356,-10.333278442933311,-0.0395,-0.1
1.079443100024946,-0.04914669108995424,-0.10983205043310929,0.8762746659586598,-2.047400888675937,-3.3155940567150632,-7.684964403572328,0.3445,-0.0912
1.1337455000029877,-0.038214109545979286,-0.11135835909525578,0.8760902033303158,-3.2442766407880868,-0.7364899942831665,-3.1740048772569844,0.3445,-0.0912
1.2029497000039555,-0.027225592566604145,-0.11238714838004385,0.8782876446342992,-3.2057803945158034,-1.8544272816160785,1.5696501165000882,0.3445,-0.0912
1.2593356000143086,-0.014102026727246919,-0.1108920155158517,0.878880384495197,0.9602708067390914,-8.02455768137532,3.1624483980503406,0.3445,-0.0912
1.3166020999778993,-0.007463718486510486,-0.10936001758870746,0.8772389310988132,-1.3601582391712497,-6.192955226964801,2.415121238152875,0.3445,-0.0912
1.3719741000095382,0.00233913920570537,-0.10801590736952842,0.8704867392967642,-0.7174119735836891,-8.253336583196418,2.7381666020928024,0.3445,-0.0912
1.42631710000569,0.0023220773178366585,-0.10994544544945677,0.8853852329225399,8.116269173947893,-4.8927900931328185,2.0519557404429665,0.3445,-0.0912
1.4835870999959297,0.021305251934980618,-0.11011301075385434,0.8839047395613302,1.1293143293872834,-9.44789881515365,0.5261636133226425,0.3445,-0.0912
1.5408437000005506,0.03520923870626993,-0.11009882385619402,0.8865159138209917,0.9772194699179808,-9.517578232943686,-0.2781558814284983,0.3445,-0.0912
1.592896300018765,0.06849242710910777,-0.10939052629066034,0.8766435068688343,1.4521942636918057,-9.996529110454333,-4.549933935278518,0.3445,-0.0912
1.6435827999957837,0.09488866316914377,-0.112684489490659,0.8812020375461946,-1.9262950734913096,-8.151798266267548,-6.542900687765771,0.3445,-0.0912
1.6961378999985754,0.1075912526594718,-0.11440588473400658,0.887372170264313,14.308897545046005,16.898494304964313,0.1447962170942902,0.3445,-0.0912
1.748946400010027,0.13676467980704266,-0.11317019082820559,0.881300876092173,-1.083623690186133,-6.781144006187202,-2.057148565195913,0.3445,-0.0912
1.8003879999741912,0.15240283208932093,-0.11378585389475239,0.8831140523084186,-0.2457674792093748,-6.881213182320754,-1.8631144839224687,0.3445,-0.0912
1.8513480999972671,0.18616320315646456,-0.11560673547612019,0.8840958221651658,0.7903255743462573,-9.378122224053032,-0.1734752824662671,0.3445,-0.0912
1.9072508999961428,0.21701647986395425,-0.1144889384799197,0.8844554254312609,0.0627521931757165,-8.080760987714463,2.829316409539312,0.3445,-0.0912
1.9608328000176698,0.23180061048624245,-0.11387378331349432,0.8866585719515025,0.7369841911417734,-7.3403733000805795,4.226554966563533,0.3445,-0.0912
2.01431820000289,0.25670099041070366,-0.11173099163325337,0.8874729401925348,-0.3562010124875843,-5.565986097740392,8.844635387657586,0.3445,-0.0912
2.0669438000186346,0.2664322753539712,-0.10801215683412999,0.8877741212936455,2.07502725576622,-4.675066391094301,8.412123396392815,0.3445,-0.0912
2.121161699993536,0.2849178860308749,-0.10635243903382792,0.8915010564296876,-0.0891107019628409,-0.7019371855093435,10.787276934891024,0.3445,-0.0912
2.173150099988561,0.29393221087131877,-0.10424669201202176,0.8898960650923243,-0.1441553797094047,-0.8094417448384403,12.27222431352457,0.3445,-0.0912
2.2259978000074625,0.31325985030173,-0.09987182185626615,0.8914836337671588,0.2297866813403866,-0.3912885460483291,14.59157701611675,0.3445,-0.0912
2.27810589998262,0.3277896584054061,-0.09576974531035866,0.8889068265836685,-0.3801516524383875,0.5854314088467478,19.089942155363225,0.3445,-0.0912
