t,x,y,z,roll,pitch,yaw,desired_x,desired_y
0.0,-0.22911867333912878,-0.0760214123973252,0.8816059496641112,6.620813923633098,-33.22700479516104,-1.0859357542278922,-0.0716,-0.0852
0.06801210006233305,-0.2292491780125994,-0.07601628183239452,0.8820405079705914,6.243687839136048,-33.14494346098142,-1.0213863301441952,-0.0716,-0.0852
0.12251550005748868,-0.22908047559272268,-0.07598475773032298,0.8814388676746174,6.552087631619759,-33.22239347420597,-1.0601456036677457,-0.0716,-0.0852
0.17947360000107437,-0.22914162352043616,-0.0759842229872739,0.881746138574665,6.522805290471068,-33.134211910451754,-1.037543609013687,-0.0716,-0.0852
0.23549150000326335,-0.22921778879664334,-0.07602670706817886,0.8819924151740615,6.562212093224229,-33.02117111664093,-1.0577133180197704,-0.0716,-0.0852
0.29106750001665205,-0.22911570978180912,-0.07600801817871541,0.8816291294552978,6.7677929161386245,-33.060131074346025,-1.0911084081832256,-0.0716,-0.0852
0.34624370001256466,-0.22935920883335267,-0.07609261080121212,0.8824490993914118,6.599332013013971,-32.99119920680844,-1.071577471851072,-0.0716,-0.0852
0.40224590001162097,-0.22921066398423406,-0.07607325212564715,0.8819116899150939,6.181485718177721,-33.1626387252131,-1.0976858049973244,-0.0716,-0.0852
0.45823820005171,-0.2290985689819559,-0.07596424784953007,0.8815367413777843,6.095510413445088,-33.257626561877984,-1.0015815075252397,-0.0716,-0.0852
0.5143324000528078,-0.22926787097192294,-0.0760650594239943,0.8820988721060112,6.27207412823436,-33.27626156697462,-1.0748975715480031,-0.0716,-0.0852
0.5705308000324294,-0.2291735023696083,-0.07604054516158693,0.8817604749806222,6.75370593414913,-33.20498537583092,-1.1422418017672626,-0.0716,-0.0852
0.6266898000612855,-0.2292483940498965,-0.07600302674808167,0.8820202481219089,5.9712500790451255,-33.14039395125286,-1.0251367996409908,-0.0716,-0.0852
0.6826921000611037,-0.23053273172718675,-0.07472417099227577,0.8852698497975755,5.317350967905824,-1.322911710142667,2.0122046033032124,-0.0716,-0.0852
0.7368477999698371,-0.2290949218463313,-0.07603393576959346,0.8814885913568216,6.461210910625868,-33.2255727204921,-1.1219797973233008,-0.0716,-0.0852
0.7920449000084768,-0.22915079440970818,-0.07604047607373422,0.8816841590715455,6.167272730410344,-33.25800908140643,-1.1192903693142229,-0.0716,-0.0852
0.8485497999936333,-0.22902039920155615,-0.07600405853295013,0.8812632991167343,6.494155363244828,-33.31776177782041,-1.127675298555353,-0.0716,-0.0852
0.9025622999761254,-0.2304755822269354,-0.07469207201230224,0.8850583356105356,5.48273702725031,-1.2747789411684325,2.015755127189685,-0.0716,-0.0852
0.9582171000074595,-0.22918610090161604,-0.07599109420207849,0.8818220523919839,6.216890113135629,-33.19183269527945,-1.0200149704308683,-0.0716,-0.0852
1.011653200024739,-0.22913457857754477,-0.07602092765598036,0.8816670991954769,6.660204119886327,-33.201984942809915,-1.0904621885973074,-0.0716,-0.0852
1.0667129000648856,-0.2293312088030504,-0.07606290802784911,0.8823305969332514,6.376282261515098,-32.906575306882296,-1.0605906114434154,-0.0716,-0.0852
1.121272600023076,-0.22934325358532565,-0.07611435302072642,0.8823755770426167,6.7316424476810495,-32.95606675631819,-1.1274881744793674,-0.0716,-0.0852
1.178662099991925,-0.22922603343217984,-0.07604629811324323,0.8819762159871675,6.619123625263114,-33.141788868136885,-1.089973450678566,-0.0716,-0.0852
1.2327877000207081,-0.2294840984549222,-0.07612238614284038,0.8828710847082752,6.442021459595774,-32.87872535398703,-1.059709728497414,-0.0716,-0.0852
1.2890136999776587,-0.22922762552798942,-0.07600767479766311,0.8819553604819423,6.304994101465193,-33.17165022820843,-1.026852599438354,-0.0716,-0.0852
1.3602433999767527,-0.2291374670636503,-0.07601863806804829,0.8816522132551647,6.727077317996061,-33.16974546178692,-1.1125799082477863,-0.0716,-0.0852
1.4169024999719113,-0.22929954167497088,-0.07609276231734355,0.8822033946965604,6.446989432403704,-33.00457716477862,-1.0953846877122777,-0.0716,-0.0852
1.4738161000423133,-0.22909817059504473,-0.0760311163786215,0.8815029855137027,6.559003475234445,-33.274191599867336,-1.1300558309982738,-0.0716,-0.0852
1.5303683000383899,-0.2292134274189307,-0.07608916260911475,0.881865464905821,6.295834446879834,-33.210651238600384,-1.167060459363348,-0.0716,-0.0852
1.5847530000610277,-0.2293303852127523,-0.07608113957523907,0.8822541427344069,6.442766449081547,-33.08802350185774,-1.11186513844686,-0.0716,-0.0852
1.6394263000693172,-0.22933204674358884,-0.07605881575766787,0.8822717117334853,6.179023856916901,-33.12542557380441,-1.058373878542406,-0.0716,-0.0852
1.6945977000286803,-0.22913881964425306,-0.07600467243384434,0.8816693287759924,6.412187848865351,-33.14279345368013,-1.0640964734396288,-0.0716,-0.0852
1.748940599965863,-0.22934801785996312,-0.0760907328402771,0.882384728041746,6.325969654099145,-32.96317749156681,-1.0731025434292638,-0.0716,-0.0852
1.8044911000179127,-0.22925096144899337,-0.07605508532452472,0.8819832057885629,6.234751095087194,-33.1357004557966,-1.1002612484083458,-0.0716,-0.0852
1.8716215000022203,-0.22923100635076904,-0.07604460571284355,0.8819795169103504,6.230378629818596,-33.21037907452909,-1.0795456003528114,-0.0716,-0.0852
1.9248546999879181,-0.22929251403632767,-0.076101973172657,0.8821524901121611,6.697094416760899,-33.01437699680414,-1.1312055234159712,-0.0716,-0.0852
1.9799498000647873,-0.22937074481435604,-0.07604998852724824,0.8824388226737744,6.330790725616047,-32.96327938258565,-1.0224827738592288,-0.0716,-0.0852
2.0341770000522956,-0.23333728730714995,-0.07575119613934729,0.8950073121199242,6.845008508277013,-7.457410587055264,1.600771816608366,-0.0716,-0.0852
2.0898224000120535,-0.22961394788424638,-0.07608832235308663,0.8832768541099736,6.101058586686579,-32.53303027976556,-0.9064206596153356,-0.0716,-0.0852
2.1440304999705404,-0.22924746365819665,-0.0760441813596207,0.8820701128044686,6.606183997979964,-33.051579915453225,-1.060114564141577,-0.0716,-0.0852
2.1999549999600276,-0.22932742051835442,-0.07603559475944843,0.8823078680330118,6.348457989442379,-33.081601176036614,-0.98302480645278,-0.0716,-0.0852
2.254319600062445,-0.229244092821729,-0.07605807601847234,0.8819874399481331,6.541185919058214,-33.090533249533564,-1.0903273175631838,-0.0716,-0.0852
2.309060400002636,-0.22932303046903654,-0.07610664707853583,0.8822649287991817,6.525974085543743,-33.16605550263079,-1.1366989533659342,-0.0716,-0.0852
2.364802399999462,-0.22927406158569957,-0.07609119814149336,0.8821316576598021,6.893815194460704,-33.05153153605002,-1.1376224615800503,-0.0716,-0.0852
2.4209229999687523,-0.2292151215683425,-0.07606544079132971,0.8819170251356817,6.359335349423255,-33.111085118933275,-1.137102377316143,-0.0716,-0.0852
2.4781296000583097,-0.229269194216415,-0.07606561515460783,0.8820684076507785,6.447387557131256,-33.080858752746984,-1.1046256874207507,-0.0716,-0.0852
2.5335901000071317,-0.22912813095280807,-0.07600451167475117,0.8815799732196937,6.313076408565943,-33.241404918720384,-1.086155702285722,-0.0716,-0.0852
2.5874708000337705,-0.22919985954047128,-0.07602373524442403,0.8818906521497789,6.162567113620351,-33.244871299793026,-1.043298179622867,-0.0716,-0.0852
2.6432239999994636,-0.23068416607559078,-0.07477456612098281,0.8857393296795463,5.210011018694482,-1.3275429038079731,1.976295337529661,-0.0716,-0.0852
2.7000690000131726,-0.22932577328851977,-0.07610102529920235,0.8822649295496999,6.625710138499669,-32.996369116071115,-1.1128174068622771,-0.0716,-0.0852
2.7550198000390083,-0.22932117197371138,-0.0760947374269557,0.8822426978145548,6.336923071917889,-33.13063355807661,-1.129538242450348,-0.0716,-0.0852
2.8112754999892786,-0.22917276038898046,-0.07604106791202214,0.8817657890114334,6.679043082905297,-33.302519708727296,-1.1228265883037825,-0.0716,-0.0852
2.865058399969712,-0.22932024104772872,-0.07607908303765472,0.8822459444358879,6.431190179324347,-33.10630375339377,-1.091706944071729,-0.0716,-0.0852
2.920252399984747,-0.22921701769766242,-0.07606454486656188,0.8819008639539343,6.681974097070843,-33.151559903241605,-1.1360476104954689,-0.0716,-0.0852
2.975580499973148,-0.2292041505801706,-0.0760102865831302,0.8818786183567633,6.2775673196879005,-33.119088057736995,-1.0555527535438065,-0.0716,-0.0852
3.029514400055632,-0.22920107135173018,-0.07601821843851068,0.8818275558307841,6.218470412096769,-33.15963332022878,-1.0459466692003447,-0.0716,-0.0852
3.0843105000676587,-0.22919728367076614,-0.07601825169916814,0.8818649772114953,6.2604088237594135,-33.26682250761399,-1.050097313050791,-0.0716,-0.0852
3.140798500040546,-0.22928781147708097,-0.07603743633212837,0.8821284735955819,6.403884279933273,-33.1520340789019,-1.042239997635906,-0.0716,-0.0852
3.1952904000645503,-0.22909152659571771,-0.07603530587845522,0.8814769286832018,6.906516424702022,-33.18805125306682,-1.14908179754077,-0.0716,-0.0852
3.2499759000493214,-0.2308118516394972,-0.0748013331886992,0.886141370167203,5.819911107144707,-1.772969913769732,1.9944898109642557,-0.0716,-0.0852
3.3085244999965653,-0.2292008879005789,-0.07604347357268723,0.8817929394279544,6.42761767760509,-33.183109996324646,-1.0637001288514558,-0.0716,-0.0852
3.3651687999954447,-0.2291651903557977,-0.07604018964845786,0.8816925851996639,6.622577885342223,-33.24092037208696,-1.137935038612828,-0.0716,-0.0852
3.4187156000407413,-0.23062064161884366,-0.07473029650710984,0.8853267254311403,5.368043322049055,-1.326036832534559,1.9648036312087116,-0.0716,-0.0852
3.4734358000569046,-0.23081207681127,-0.07482579490466308,0.8859352146327568,5.336842580406984,-1.6329909654059875,1.8770356491135056,-0.0716,-0.0852
3.5273031999822706,-0.2331691939009543,-0.07570421195251262,0.89408364401472,6.081873343306059,-6.5678712736091,1.5043033373030552,-0.0716,-0.0852
3.585863700020127,-0.2292601482126021,-0.0760357795251082,0.8817418889551889,6.200393722927302,-33.31115537954106,-1.1531609775045373,-0.0716,-0.0852
3.6417381999781355,-0.2310175803528975,-0.07489255771120167,0.8865413630002522,4.984703450982835,-1.6171809761919491,1.8397836043364,-0.0716,-0.0852
3.6960254999576136,-0.2292714705521602,-0.07604168541868282,0.8816957844391604,6.657144886632077,-33.40614623591227,-1.1750391956594055,-0.0716,-0.0852
3.7506836999673396,-0.22929838211140466,-0.07602934813567261,0.8817800248512434,6.306338102723556,-33.434733588224205,-1.1588657302288647,-0.0716,-0.0852
3.8053255999693647,-0.22925466176322487,-0.07601474189514014,0.8816666129401741,6.803600685038265,-33.27627679289012,-1.157610577311225,-0.0716,-0.0852
3.8588058999739587,-0.2293151743278881,-0.07605559289816134,0.8818895876316831,6.342378787388422,-33.3436326656689,-1.1612721359349294,-0.0716,-0.0852
3.9140223000431433,-0.22955390376356705,-0.07604782793941713,0.882668182499097,6.032670949264963,-32.80659722769866,-1.0120787937604545,-0.0716,-0.0852
3.9676665000151843,-0.229344398429772,-0.07603520837556127,0.881976870661407,6.423576961407345,-33.10560764716486,-1.1113001432013452,-0.0716,-0.0852
4.027508500032127,-0.22910851614168132,-0.07599992466698084,0.8811760509198168,6.659401403462107,-33.319527844162806,-1.201653882008166,-0.0716,-0.0852
4.0836312000174075,-0.2310964042680019,-0.07482991815153413,0.8867314648350217,5.5546087710644665,-1.7027591012851233,2.0079696956704773,-0.0716,-0.0852
4.140178799978457,-0.22915967730843467,-0.07600682892678386,0.8813303870364503,6.432315727145271,-33.37561685927019,-1.1791268878186094,-0.0716,-0.0852
4.197438900009729,-0.229351785668549,-0.0760187968701829,0.8820358049726476,6.2854997089165865,-33.20426957915844,-1.060938879220749,-0.0716,-0.0852
4.254380600061268,-0.22932736833028983,-0.07602172517415193,0.8818422655248661,6.706050827904853,-33.12832806630177,-1.143113029243476,-0.0716,-0.0852
4.3084391000447795,-0.22929450661111878,-0.07601541908353869,0.8817812558658882,6.241561229284964,-33.16082816434534,-1.1227623322969265,-0.0716,-0.0852
4.375275300000794,-0.22925089999306836,-0.07599465484210191,0.8816784299663413,6.487570616151845,-33.347608866327334,-1.108353701054137,-0.0716,-0.0852
4.429613700020127,-0.2292068100202785,-0.07602426956169452,0.8814876573883865,6.725107220545837,-33.40514758501471,-1.1912712356543895,-0.0716,-0.0852
4.485448300023563,-0.22917413062927233,-0.0759869394012625,0.8813151701770741,6.39868817481075,-33.491578594521094,-1.132318490927053,-0.0716,-0.0852
4.545674300054088,-0.23061475651060317,-0.07470516569303004,0.8850618809075439,4.90915053392605,-0.8003663777680445,1.9240585433715045,-0.0716,-0.0852
4.604218399967067,-0.22934894987587928,-0.07603462569244279,0.8819690293968083,6.468414879713562,-33.18784008754153,-1.1365746559318948,-0.0716,-0.0852
4.664945699973032,-0.2305773818910035,-0.07472310945349153,0.8849922595215655,5.229454890051182,-1.197762168950445,1.900378445723646,-0.0716,-0.0852
4.7218513999832785,-0.22926825829749703,-0.0760086373825582,0.8816985157689995,6.236948578121248,-33.346819628353494,-1.1244202081682386,-0.0716,-0.0852
4.777904900023714,-0.2308837744533901,-0.07476936385163661,0.8860105323739491,5.339706394759037,-1.4385975702028593,1.96922144811721,-0.0716,-0.0852
4.834021899965592,-0.22940727624102827,-0.07606718320264778,0.88222030923665,6.161605397405473,-33.28127116654917,-1.1434886194265312,-0.0716,-0.0852
4.890274700010195,-0.22876030919698212,-0.07595481838980199,0.8817636204860776,6.9436549715591775,-33.297870978324504,-0.8023858093068833,-0.0716,-0.0852
4.944081600056961,-0.22885427928297425,-0.07598180873612867,0.8956312041182171,5.348992466302784,-6.6418783405601305,0.8282498452678483,-0.0716,-0.0852
5.002052100026049,-0.21526843053792935,-0.07668875354150326,0.8990636951477164,8.489814114194774,-11.073514903282693,-1.7362226348947138,-0.0716,-0.0852
5.071643500006758,-0.2030867713055644,-0.07692363069097276,0.884010400075115,7.158682911487191,-30.20873753711246,-4.003071063033999,-0.0716,-0.0852
5.126581500051543,-0.1873508490007769,-0.07529940386893005,0.8836596264167594,5.639181827807267,1.4434815895128004,1.5476157378931976,-0.0716,-0.0852
5.197915300028399,-0.17142907996748813,-0.07516853295319881,0.8843422154716618,5.726208010917523,0.5000814737979836,3.754768377618027,-0.0716,-0.0852
5.253911899984814,-0.15645337807885903,-0.07519145055528377,0.8923035850079487,7.984131086335808,-9.881868364549613,3.5491159610725225,-0.0716,-0.0852
5.313972500036471,-0.13844910942838984,-0.07310743166586776,0.8827110632884173,7.495116014299056,0.4713858212500204,2.241977412719801,-0.0716,-0.0852
5.368949900032021,-0.12419570505350461,-0.07336874553849537,0.886229394632792,4.145834735662556,-2.1191797511419987,2.8817110667170382,-0.0716,-0.0852
5.428319000056945,-0.11044237213747449,-0.07309999335854468,0.888713169005186,6.060163081781211,-9.43674136918222,3.549550951558277,-0.0716,-0.0852
5.49148199998308,-0.10323011370149382,-0.0724724555288234,0.8872644384935625,7.391257938087754,-6.608041399448321,2.9175753945993947,-0.0716,-0.0852
5.555074600037187,-0.0883567504662224,-0.07241872806892491,0.8824871093646466,11.0487992313961,-12.424409657509864,-0.9996725764907132,-0.0716,-0.0852
5.613835199968889,-0.07500843901010519,-0.07298938333005321,0.8868445171605128,6.578289930021513,-5.908653690652823,-3.1735697262130285,0.1076,-0.0866
5.676578799961135,-0.0606003864187315,-0.07427207010761505,0.8856262889472276,7.072797634408803,-6.909426694775632,-6.138703867377559,0.1076,-0.0866
5.736763900029473,-0.046176569934678065,-0.07612877329401163,0.8863011044476402,6.751546046965021,-5.252827547610827,-9.133634470691971,0.1076,-0.0866
5.795193400001153,-0.032224440386903454,-0.0788617192847339,0.8866377292679408,5.631453397579999,-5.565076274490861,-12.459625895106884,0.1076,-0.0866
5.85213879996445,-0.02532621825188327,-0.08041235719720692,0.8835762062695556,3.962673920506792,-10.066869025928415,-14.428292670510949,0.1076,-0.0866
5.912983600050213,-0.011289965273684734,-0.08367699709757989,0.8852842242652865,8.065908940081663,5.954464462625837,-16.211963821160577,0.1076,-0.0866
5.971739600063302,0.006584996535561594,-0.08990399720962704,0.8861815709036492,8.131868747409417,10.000158718572964,-19.312588809301552,0.1076,-0.0866
6.031418900005519,0.025076384311409912,-0.09815190450768668,0.885084522823239,-1.9383769856267083,-6.46744899952546,-22.28539858190075,0.1076,-0.0866
6.122298700036479,0.03372557078350018,-0.10139067714806738,0.8840891467447645,-2.609642157001429,-6.418010688965723,-21.466848666325493,0.1076,-0.0866
6.177944199997,0.04998173134807898,-0.1070202939971791,0.8819577791669974,-3.183094191978292,-6.244280205996124,-18.44874371168196,0.1076,-0.0866
6.242377800052054,0.0710206266588902,-0.11302964155386377,0.8808544019595709,-2.435719791923643,-5.812426258876787,-14.501478369572428,0.1076,-0.0866
6.300400000065565,0.07773266539093072,-0.11471623958271686,0.8816884031284898,-2.5071463300988164,-4.93153905350799,-13.115854746142162,0.1076,-0.0866
6.357915100059472,0.09131104408867403,-0.11753351993363396,0.8817948997887493,-1.9448013688505636,-4.197445303147512,-10.216800869675913,0.1076,-0.0866
6.416693900013344,0.10499441283400321,-0.11923988832957555,0.8794119378172487,-2.858536271088543,-4.525405577524817,-6.6529682184445695,0.1076,-0.0866
6.473480000044219,0.118814319252172,-0.12053025680402109,0.8785903834007944,-2.6884830755716385,-3.90661027163783,-4.0222089385347015,0.3832,-0.0597
6.542632800061256,0.13322621046899,-0.1217453813131571,0.8827740583885157,-2.767943753086696,-1.811042403382996,-0.3272742284920073,0.3832,-0.0597
6.621140600065701,0.1471651106663167,-0.12097373480490024,0.8818419132468667,-1.692622775021789,-2.117125637702271,4.582022467356965,0.3832,-0.0597
6.68907369999215,0.15423353059128458,-0.12027114344669773,0.8824723940003212,-1.6563946813820003,-2.2203641308352955,6.642680542157076,0.3832,-0.0597
6.748912199982442,0.17441845521070826,-0.11706178203371218,0.8833684618380924,-1.2035057260252524,-4.444863876462401,10.550638484359206,0.3832,-0.0597
6.806918099988252,0.17598359975693253,-0.11657006027148747,0.883258559319834,-1.277144845481441,-3.001987121191531,11.210114155190414,0.3832,-0.0597
6.866918200044893,0.1847261074248953,-0.11472443436022531,0.8837144254935694,-0.6271695546323833,-2.997190621098807,12.416154527101307,0.3832,-0.0597
6.925962300039828,0.19378091421029212,-0.11277929517869147,0.8835613380357681,-1.066888997675716,-3.281942396992521,12.726206624305409,0.3832,-0.0597
6.987419400014916,0.21534381737957067,-0.10871316965477933,0.8856173992417452,-0.297636340087829,-3.8338381716143535,10.579020057708709,0.3832,-0.0597
7.048431699979121,0.23843566557169543,-0.10507505671999025,0.8860986840271992,-1.6206924799394693,-2.366786267164548,9.929430048434927,0.3832,-0.0597
7.110015199985355,0.26161404887241874,-0.10100055402353166,0.887455671936453,-0.6344464511331537,-2.11553874735771,10.940332994719371,0.3832,-0.0597
7.169618200045081,0.28353125198191864,-0.09617352045980299,0.8871012175893136,-1.3830876769962268,-1.253248044010097,13.235954517348096,0.3832,-0.0597
7.230314700049348,0.2943932303207053,-0.0938670561934746,0.8885550900528855,-1.156857191371488,-0.5199077269379001,14.774370228614616,0.3832,-0.0597
7.303595000063067,0.3141455832159901,-0.08815928066400118,0.8887244646785539,-1.3704242629912164,0.0303838591933798,18.279891419985518,0.3832,-0.0597
7.3618704000255075,0.3338407641285281,-0.08217248575832366,0.8918895874772872,-0.3042683766942594,0.3668769685482699,20.902174448947832,0.3832,-0.0597
7.43706090003252,0.34724464823366175,-0.07605393302946745,0.8890897064179759,-0.9686646256824636,1.2917861213872468,23.875279894726763,0.3832,-0.0597
7.505612000008114,0.3596281123915654,-0.07002105622919208,0.8879622810684049,-0.7671974555566567,1.5965978503485243,26.53226230894525,0.3832,-0.0597
7.582907199976036,0.37253042714415374,-0.06373070395519148,0.8891533077675996,-0.3741572245112167,2.3573588113392625,29.126555850718468,0.3832,-0.0597
