t,x,y,z,roll,pitch,yaw,desired_x,desired_y
0.0,-0.23054684636151518,-0.07562316322738846,0.8831604564417478,4.777178751410599,-5.737947209882959,1.2962721845587075,-0.0716,-0.0852
0.06011299998499453,-0.23039191271060835,-0.07554905626723571,0.8826261595767516,4.5783174424837565,-5.221090185558973,1.3147217784874952,-0.0716,-0.0852
0.11563840007875115,-0.22988957546995142,-0.07541340238979248,0.8808575525708184,3.576258647528791,-4.2148530634400725,1.3057957796982775,-0.0716,-0.0852
0.18676380009856075,-0.23024065792878406,-0.07548531162509722,0.8820317648613055,4.491254590810137,-5.126516052578675,1.3760548195963132,-0.0716,-0.0852
0.2461843000492081,-0.23012858827993818,-0.07549614088290672,0.8816898286010013,3.707835148815391,-4.675981154536264,1.285294335687877,-0.0716,-0.0852
0.3180972000118345,-0.2298209286449795,-0.07548062145119903,0.8807351332275015,1.958034715850541,-4.0301068340345605,1.1634154905415242,-0.0716,-0.0852
0.37648600002285093,-0.22374196976925723,-0.07599702626043756,0.8879200791022821,9.454274247592096,-7.632926541463595,-0.8358349800405293,-0.0716,-0.0852
0.4381915000267327,-0.21765296359984912,-0.07709903782263734,0.8922996797161741,9.464209429815474,-12.983068716497357,-2.94574204868152,-0.0716,-0.0852
0.49834290007129356,-0.19990294990393173,-0.07814230428960757,0.8902041470749475,10.363193662704369,-8.138812359735834,-5.302543718671839,-0.0716,-0.0852
0.5574854000005867,-0.18184068326349992,-0.08098795301283619,0.89180606849086,10.745530834949106,-10.848148914671103,-8.756399971399699,-0.0716,-0.0852
0.6172778999898587,-0.162231210120517,-0.08402610467210216,0.8895411301132414,14.050032000023146,-9.680169939565245,-11.985357419735054,-0.0716,-0.0852
0.6781306000193577,-0.1439152095912551,-0.08878007116303366,0.8923539159875699,11.772060662396653,-8.2465716347662,-14.589468614038068,-0.0716,-0.0852
0.7354282999876887,-0.12478228031158543,-0.09449938050667839,0.8893388108533776,9.880870798626251,-13.439299777261803,-18.84384561720621,-0.0716,-0.0852
0.7956463000737131,-0.11600793949751148,-0.09749865805734367,0.891217872067531,8.321281656071527,-10.42483162857559,-20.0030384344633,-0.0716,-0.0852
0.8527872000122452,-0.09787834895601638,-0.10433731131466598,0.8893505842141768,6.724073869646847,-10.478047251691535,-23.32955580188422,-0.0716,-0.0852
0.9117072999943048,-0.08013399467448945,-0.11196529071883411,0.8892702061561528,10.813646915898833,-6.729898855803778,-26.23215964632848,-0.0716,-0.0852
0.9689880000660196,-0.06236076468080975,-0.12032260815807966,0.8838635217666057,5.022724907992545,-9.963983383451463,-29.70143887143801,0.1076,-0.0866
1.031364900059998,-0.05394092006403213,-0.12475947809191763,0.8823134818731171,4.1119785298988525,-9.47197030210725,-31.062387699517863,0.1076,-0.0866
1.1013812000164762,-0.037469245497468356,-0.13431473535066782,0.877576321633813,2.007845932916482,-10.21748194380511,-34.36402924559692,0.1076,-0.0866
1.1614235000452027,-0.02200691196750329,-0.145143356020387,0.8760823783468115,-0.1060000054562051,-8.766320175603981,-37.23594562155322,0.1076,-0.0866
1.2235905000707135,-0.0074738085666367325,-0.15697854485584964,0.8776642802002885,1.6116664226116897,-7.302885355565015,-40.53290801443743,0.1076,-0.0866
1.2867377999937162,0.006825329480861335,-0.16937045319509816,0.875642716302721,0.8926716562533931,-7.615909476398404,-43.73443956187256,0.1076,-0.0866
1.345803500036709,0.02003898709772376,-0.18234676173689346,0.8746624892920088,0.2043017672391192,-6.982366413258757,-46.57702128144293,0.1076,-0.0866
1.4056525999912992,0.03268755555656036,-0.19635407790452655,0.87360570832203,0.2158521782908279,-7.3005015484784925,-49.95823447184344,0.1076,-0.0866
1.4650686000240967,0.04428037575173166,-0.21169295034529473,0.8757941186059909,-0.1932266420779442,-6.564377006467126,-53.034632808573214,0.1076,-0.0866
1.5373912000795826,0.049933350376226836,-0.21958589937102793,0.8767405853215713,-0.1620837924868445,-6.133267655894008,-54.51465648000217,0.1076,-0.0866
1.5968505000928417,0.06047722703911598,-0.23499756989513668,0.8748618875024892,0.279424036966077,-6.7369387893613535,-57.78797177377545,0.1076,-0.0866
1.6565168000524864,0.0701585272775323,-0.25154716880769135,0.8765401151050757,-0.4153478562798577,-6.014899196643936,-60.75732370615496,0.1076,-0.0866
1.7155515000922605,0.07859400809294889,-0.268891745737854,0.878637929959857,0.8691247887163934,-5.35475553866764,-64.25678582466493,0.1076,-0.0866
1.7886974000139162,0.08606728686400754,-0.28603042633966486,0.8782789324604955,0.5281571415867712,-5.084509468565313,-67.26959459475695,0.1076,-0.0866
1.8609510000096634,0.09271048904174785,-0.30399634705767864,0.8795395299928556,0.5631554141903673,-4.40702208768383,-70.25632923738894,0.1076,-0.0866
1.9167194000910968,0.09823719188698775,-0.32205341324207176,0.879454243750722,1.499552965670385,-4.258941913145356,-73.39351788388221,0.1076,-0.0866
1.9729878000216559,0.10306363277719695,-0.34146035114908263,0.8790098355383587,1.10347818463394,-5.291881635365724,-76.12655446499356,0.1076,-0.0866
2.0293209000956267,0.10527148378358664,-0.35114199756106934,0.8787499930327352,1.210438344503604,-4.921858939299976,-77.62297159322239,0.1076,-0.0866
2.084278600057587,0.10804926866076227,-0.36822514463378936,0.8779013745618751,1.7510395789051736,-2.93731809825891,-81.2134044756582,0.1076,-0.0866
2.140661000041291,0.10997010101864037,-0.38703009583022596,0.8778897393564916,1.0612602738423866,-2.5273448651727937,-84.09832365304808,0.1076,-0.0866
2.2000957001000643,0.11116487559346586,-0.40615983727369775,0.8777463920462941,1.0373859979310596,-2.2669225177733003,-87.26039749524887,0.1076,-0.0866
2.2572800000198185,0.11160138535805816,-0.4165061559436816,0.8792337722865421,1.0347557281663111,-1.3705427087132618,-88.89205290334554,0.1076,-0.0866
2.3292405999964103,0.11068375590431356,-0.4347946843053433,0.8766452634362292,0.8943299154661222,-1.830749657358264,-91.80040568444126,0.1076,-0.0866
2.3901454000733793,0.11046577105363127,-0.45754061715595384,0.8747747393020219,2.61601590913035,-6.9752862823797175,-94.7673054242898,0.1076,-0.0866
2.4495924999937415,0.10608232197648494,-0.47633106209118864,0.8742597680232891,0.6266309029270797,-5.812353011523832,-98.1727075768946,0.1076,-0.0866
2.504805100033991,0.10244426838909255,-0.49443218114538356,0.8722433594834198,0.4733143408555474,-4.83623452656416,-101.134479307596,0.1076,-0.0866
6.134277100092731,-0.5989973715453459,-0.4445591176618675,0.8660002919067618,3.400432379936856,-3.612904445611224,93.2836031302612,0.1076,-0.0866
6.201443700003438,-0.597986498191146,-0.4339917609323666,0.8641300591630651,3.579862125113244,-3.9404634006659705,91.72046208809084,0.1076,-0.0866
6.257455300074069,-0.5965292071356731,-0.4143007881446116,0.8628498509505229,3.565871908582815,-3.871111702704115,88.5046839857085,0.1076,-0.0866
6.320272000040857,-0.596355279833902,-0.3962153546926893,0.8652421670464712,3.146477400616372,-4.402638799741764,85.44220196415064,0.1076,-0.0866
6.380370400031097,-0.594998738416116,-0.3782693325478744,0.8678747953298396,2.6597742837029434,-4.644189957655216,81.99173111558355,0.1076,-0.0866
6.4377968000480905,-0.5952053319663776,-0.37009498211122915,0.8707390399256121,2.407418452689829,-4.834923426750674,80.4993988896029,0.1076,-0.0866
6.501272500026969,-0.5951819380276996,-0.35332559643792893,0.8772468190888559,2.381017897932421,-6.376235717068643,77.20136095293422,0.1076,-0.0866
6.5789734000572935,-0.5910171971688036,-0.3353039291999307,0.8800842888891265,2.372034765438901,-6.382041606559927,74.02223278870451,0.1076,-0.0866
6.640793200000189,-0.5842259051456016,-0.316572394120982,0.8801997471684884,2.3758796940911844,-5.891123338250825,70.80313050784379,0.1076,-0.0866
6.702030900050886,-0.576061984020654,-0.2980440916782222,0.8797208382421016,2.8336407688847234,-5.914063936105923,67.20283465150658,0.1076,-0.0866
6.768148300005123,-0.5662814599364275,-0.27988881120529935,0.8785360183542471,2.3281649478285704,-5.963313690200114,64.08431556835583,0.1076,-0.0866
6.826447700033896,-0.5583857831354869,-0.2631739056433279,0.881761379149312,2.0835931135907435,-6.470810820226679,60.54014466336126,0.1076,-0.0866
11.952095800079405,-0.31504528567976847,-0.0955059431646974,0.6388056913561729,17.601332960129568,-3.830287181196871,13.464522671962213,0.1076,-0.0866
12.0300446000183,-0.2982397598678568,-0.08157196416902637,0.6934916395418693,15.713721192063302,-0.0704685898758155,12.845867842388309,0.1076,-0.0866
12.092031500069425,-0.29032150530378836,-0.07521097499669469,0.7196277852965953,14.312449097418694,1.001212353276363,12.028967502024448,0.1076,-0.0866
12.154093499993905,-0.27366191973514864,-0.06499147904831312,0.7635656665868896,13.426587077926774,2.1776513472544057,10.488256141571473,0.1076,-0.0866
12.230285500059836,-0.25741427462746796,-0.058042583847462505,0.7951642103551808,11.060508762123202,2.879865421532186,10.32725437353468,0.1076,-0.0866
12.30474100005813,-0.2472284690981685,-0.05505523835092917,0.8213259220436837,12.10316235680404,3.522953624911059,8.556691705063395,0.1076,-0.0866
12.368288600002415,-0.2334635342243096,-0.05591551237427547,0.8394797523744457,10.644069058896578,3.8238917254266735,5.48090579572582,0.1076,-0.0866
12.430164700024761,-0.22758239434263058,-0.05789445270167264,0.8465330553738872,9.753288428763174,3.215426948143132,3.857217165836124,0.1076,-0.0866
12.493320200010201,-0.22306661951903933,-0.062085526192162004,0.8489378198622317,10.0563546160156,2.008707582918148,6.014449006217157,0.1076,-0.0866
12.555098799988627,-0.2197049622273247,-0.06316691756929933,0.8480946481832672,9.710733533128645,1.340498212223068,7.00615797233999,0.1076,-0.0866
12.613228700007312,-0.2198461608120272,-0.0640357812635067,0.8518992926154494,10.580332108782809,-0.1777780486710625,4.898466498128331,0.1076,-0.0866
12.67682709998917,-0.21867365202754405,-0.06829708168390562,0.8565030439659337,2.5260515794314093,-6.276131790862013,2.26051615847501,0.1076,-0.0866
12.736988499993458,-0.2196993140550325,-0.07042932278553568,0.8577894581371828,-1.9392130948400688,-11.066120007793234,1.503945854085664,0.1076,-0.0866
12.810909399995582,-0.2186935841589036,-0.07039603086003159,0.8520329401978526,-5.394713214768552,-13.567683568197586,0.5712602547791366,0.1076,-0.0866
12.874701100052334,-0.22031046821867653,-0.06975927248366745,0.8508679893985788,-4.750011327515582,-16.462490094570448,-0.7827883188303171,0.1076,-0.0866
12.932947600027546,-0.21872770004280792,-0.06740960949626205,0.8440557397923883,-8.60331760279929,-11.235288485636204,-0.0263263870259095,0.1076,-0.0866
12.991699800011702,-0.22079639151929656,-0.06838737740307607,0.8463337428930627,-8.433654549872395,-9.875083147062488,0.5210831361582575,0.1076,-0.0866
13.05322330002673,-0.22080601542337178,-0.0705525499661801,0.8465248304198805,-8.735299447668462,-9.211181842420594,0.4289059583610028,0.1076,-0.0866
13.115373500040732,-0.2225300158761375,-0.07141501760376316,0.8493756325459969,-7.706757609480384,-9.466064456065489,-0.1992168404856576,0.1076,-0.0866
13.17361900000833,-0.2245293342400187,-0.07409921403754888,0.8521601061639278,-8.221815284566826,-9.233661577855584,0.2933235194854102,0.1076,-0.0866
13.231331099988893,-0.22535532608525088,-0.07625431804040968,0.8552923753986805,-7.727569357987939,-9.709947760663692,0.508002362901395,0.1076,-0.0866
13.306732900091447,-0.22546678037333814,-0.07700445092004622,0.8573259542983527,-6.839564395321672,-8.655640546660862,-0.0012541426685263,0.1076,-0.0866
13.365674200002104,-0.22544274883899454,-0.07740962958171484,0.8589220805609633,-7.564604917414253,-9.297419658293853,0.376520815571842,0.1076,-0.0866
13.439986000070348,-0.22442839996015335,-0.0779191494696711,0.8570102364526833,-7.491041955899114,-6.936119616287174,1.2107367641308873,0.1076,-0.0866
13.512740200036205,-0.2252391433845815,-0.07722839573549688,0.8587635023858392,-7.934811878418083,-7.912894825697377,1.4368278759637103,0.1076,-0.0866
13.587169200065546,-0.22526643033330424,-0.07642069472492459,0.8604055094394684,-7.570858598227162,-7.601241109955666,1.971490055429712,0.1076,-0.0866
13.64952890004497,-0.22463469058502317,-0.07622375457022669,0.8608375197691048,-7.690383016658482,-8.611162159963056,1.8148351110746288,0.1076,-0.0866
13.709822900011204,-0.22590794332693045,-0.07681732052716043,0.8629326366016968,-7.115041056231516,-10.060555199307002,2.2344152737244567,0.1076,-0.0866
13.77487269998528,-0.22542113179040274,-0.07651880886570592,0.8587985099914552,-8.001914355973364,-8.850942438172508,2.172479481185335,0.1076,-0.0866
13.840238200034946,-0.2260993242613129,-0.0761889111734418,0.8610718676939897,-7.592279575565245,-10.252272246659231,2.0800399707394828,0.1076,-0.0866
13.90380150009878,-0.22614059667815417,-0.07566705961687528,0.8629428862739141,-6.675786648991784,-10.76894301534956,2.018173514765672,0.1076,-0.0866
13.96405270008836,-0.22534139787795043,-0.07558732733699805,0.8615077168814423,-7.522884616719199,-10.60475700398055,1.9787829421475365,0.1076,-0.0866
14.025741100078449,-0.2247118158379457,-0.0757013666713737,0.8618119139127459,-7.1974978072488645,-11.177328692274456,1.296451914307437,0.1076,-0.0866
14.089068900095299,-0.2239582114215466,-0.07644912821290276,0.8609264172248201,15.765387939695104,-24.613868370778437,-0.1875967222293715,0.1076,-0.0866
14.155165900010616,-0.22375483032980914,-0.07630288268504322,0.8600379736908291,15.885390025079898,-24.896170087325785,-0.0919754585995871,0.1076,-0.0866
14.215422600042075,-0.2239838829780163,-0.07584950663899576,0.8588986945683413,-8.161509443307006,-11.202717174790186,1.5148706155890563,0.1076,-0.0866
14.278992000035942,-0.22415175113298275,-0.07586960739909711,0.8598748257148545,-7.239399402476923,-10.578534832003347,1.6299270381933504,0.1076,-0.0866
14.341531899990514,-0.22414161030299454,-0.07628478834438378,0.860342340675187,15.479438797431431,-24.01220598971973,0.4079944532956219,0.1076,-0.0866
14.409641000092961,-0.22397158495869005,-0.07631651673189987,0.8597918626198459,15.571916946640108,-24.509386298676816,0.2613453344335126,0.1076,-0.0866
14.473108800011687,-0.2240045886143194,-0.07629871860317745,0.8599440350067817,15.896448703846666,-24.53536788456657,0.2842477338376839,0.1076,-0.0866
14.535839300020598,-0.22382227689343254,-0.07639325059692674,0.8597253621403093,15.911863301489284,-25.17488715067611,0.1079838446025881,0.1076,-0.0866
14.5980855000671,-0.22255662165963713,-0.0758452841663868,0.8595055712153737,-7.976148912042019,-11.321643548739528,2.048521920665182,0.1076,-0.0866
14.660519000026397,-0.22365252369503494,-0.07583026514999486,0.8608732852524195,-7.531110776410542,-10.55922265229072,2.9947679909833917,0.1076,-0.0866
14.723441499983892,-0.22386543751898066,-0.07637606914993493,0.8623627247438259,14.17794237139937,-25.64903329857833,1.760170128020384,0.1076,-0.0866
14.785302100004628,-0.2242056669769682,-0.07636335773324726,0.8629426677313936,13.997367735361848,-25.436227587090634,1.578963769655525,0.1076,-0.0866
14.847676500095986,-0.22554088774910053,-0.07643065043304076,0.865517116943397,13.044829417665571,-22.941143332133183,1.3635103766348002,0.1076,-0.0866
14.909319700091146,-0.22567393480741432,-0.07648313620474569,0.8662218174300081,12.77005124200591,-22.68502658832736,1.3927128005567573,0.1076,-0.0866
14.986263500060886,-0.22441021687835452,-0.07590564660826735,0.8618954658417444,-7.417965006643425,-10.735043939256544,2.181634107159577,0.1076,-0.0866
15.048414900084023,-0.22485140582436725,-0.0763516536523386,0.8636007761643844,14.215541510729317,-23.096511501580817,1.119057380935528,0.1076,-0.0866
15.121660500066355,-0.22460003687429703,-0.07634046085895384,0.8627472655437658,14.556106573831835,-23.77859107296836,0.9912949382173216,0.1076,-0.0866
15.180982100078836,-0.22441029295628057,-0.07588551280130992,0.8618269434447536,-7.329728020953362,-10.947604875798534,2.1871416443075518,0.1076,-0.0866
15.260212799999863,-0.2241451896175982,-0.07622157157671054,0.8622497439364684,14.544731602731655,-24.07241796349545,1.5247235244470263,0.1076,-0.0866
15.324298800085671,-0.22419923051527565,-0.07618436838623927,0.862910681069785,13.887981357471734,-23.824136557860808,1.9175037313472707,0.1076,-0.0866
15.387943200068545,-0.223682335550135,-0.07566944987010467,0.8613607483975515,-6.822117356876788,-10.019638321247994,3.425781880258662,0.1076,-0.0866
15.449974499992095,-0.22299905262049624,-0.07591039360707319,0.8598578404456789,15.110547615443863,-24.685205410137804,2.088984305186906,0.1076,-0.0866
15.515662100049667,-0.22261552954556016,-0.07596695087854541,0.8586105142863412,15.47688944178917,-25.602744577695063,1.8978564126487003,0.1076,-0.0866
15.578547300072387,-0.2232435301134912,-0.07557869458822492,0.8604676863447573,-7.756445957331164,-10.502647185348655,3.2438824841995184,0.1076,-0.0866
15.642690400010903,-0.22338539807585434,-0.07568559495835844,0.8613309480071941,-7.199499487767454,-11.354085448263374,3.0946797791113587,0.1076,-0.0866
15.703918999992311,-0.22427874916405055,-0.07629135848005798,0.8632738547798533,14.2041206907533,-23.68515956491177,1.4665879089102447,0.1076,-0.0866
15.768203800078481,-0.22438906389084803,-0.07583278261524981,0.8614067077050584,-7.553104578861816,-11.51920557445644,2.450792446258205,0.1076,-0.0866
15.829411000013351,-0.22431863101988056,-0.07582343406571317,0.8611064763846115,-7.308833640956178,-10.32054573625582,2.4145709430619875,0.1076,-0.0866
15.891999799991027,-0.22431640533903613,-0.07585026499318666,0.8611258068956946,-7.529076551282642,-10.469878510607646,2.353984293913097,0.1076,-0.0866
15.951213799999095,-0.22438007628194892,-0.07585641051156589,0.8612614053452978,-7.683861268649866,-11.045424454898503,2.3760957079656198,0.1076,-0.0866
16.009119300055318,-0.22409958198687324,-0.07579304777067743,0.8603130846267332,-7.908541633536704,-10.552132086767916,2.3009878432205864,0.1076,-0.0866
16.085054500028495,-0.22405427679604684,-0.07577019532748684,0.8601204550807785,-7.894158301451885,-10.071214861984874,2.3240600112876098,0.1076,-0.0866
16.16071910003666,-0.22402323635581217,-0.07573576051070656,0.8600508017741523,-7.7923853889674,-10.018322249805758,2.332813860939829,0.1076,-0.0866
16.222541900002398,-0.22422287798110618,-0.07580483033050092,0.8607526890152806,-7.655289210078237,-10.050774316362697,2.3463622596696023,0.1076,-0.0866
16.2863327000523,-0.22369209811233107,-0.0756264370776374,0.8588628223260698,-8.172735841818612,-9.778652164989724,2.325728643774729,0.1076,-0.0866
16.350310000008903,-0.2239281861115979,-0.0757241429573348,0.8597272223595817,-8.159721914661638,-9.970752540914557,2.338102189675196,0.1076,-0.0866
16.415953600080684,-0.22437578550827497,-0.07585333743122097,0.8612501513534121,-7.439270307930261,-10.866222233008616,2.3170741046482703,0.1076,-0.0866
16.478171200025827,-0.22407719648568666,-0.07575108248553239,0.8601942520328013,-7.661155291469657,-10.187151941322057,2.324673824609888,0.1076,-0.0866
16.539466300047934,-0.22415001012618288,-0.07577484099267166,0.8604898540821961,-7.763192343898728,-10.16846744584198,2.333312904424981,0.1076,-0.0866
16.60278459999245,-0.22374528586619225,-0.07566828452185619,0.8589172369847299,-8.02769624344393,-10.25515697537547,2.2970934908899423,0.1076,-0.0866
16.66710940003395,-0.22390548624433657,-0.07572950950166556,0.8596730937943986,-7.923516189409183,-9.990506842915408,2.297334420299658,0.1076,-0.0866
16.729786000098102,-0.22408964303355147,-0.0757461447882425,0.8602284919531261,-8.38026441582063,-10.459170213494131,2.363135009107347,0.1076,-0.0866
16.793325400096364,-0.22423391442495916,-0.0758468844508082,0.8607846278872042,-7.93713288392567,-11.064168568942009,2.2588723903122383,0.1076,-0.0866
16.857830099994317,-0.22406254073494117,-0.0757763054446742,0.8601547187888527,-8.137645420244883,-10.23147316453511,2.3000616633625963,0.1076,-0.0866
16.918831899994984,-0.22465552395383234,-0.07593498653581017,0.8621379051930086,-7.196080498148066,-11.29227444978574,2.286705243554028,0.1076,-0.0866
16.98245400004089,-0.22446632874512026,-0.07588475115039607,0.8615531974837394,-7.50006181585297,-11.38445755069968,2.286644632462406,0.1076,-0.0866
17.044946799986064,-0.2245242734209851,-0.07588090971279601,0.8616931216410305,-7.780507454766036,-11.46474591796524,2.3468706956854324,0.1076,-0.0866
17.10700449999422,-0.22387715953153747,-0.07568163580215381,0.859393427561795,-8.49345151720034,-10.586566186045603,2.3053085133624114,0.1076,-0.0866
17.175000600051135,-0.2239707078250237,-0.07569187125016948,0.8596119894789163,-8.129809443272862,-10.891980202466288,2.322203781457836,0.1076,-0.0866
17.239494599984027,-0.2246704219304589,-0.0758947681095074,0.8622099767114957,-7.490027918044052,-12.100556515789338,2.3313224776959496,0.1076,-0.0866
17.306737900013104,-0.22426731644941333,-0.07578568125763711,0.860781054484544,-8.001067114094477,-11.961493403692987,2.339309756054619,0.1076,-0.0866
17.37374640000053,-0.22426376404695778,-0.07579647078379737,0.8607716923087781,-7.834473332307647,-11.3325892856111,2.304428850710059,0.1076,-0.0866
17.45154190005269,-0.22501226551817766,-0.0760406980885571,0.8634218035849351,-7.047848017662737,-12.137123314078858,2.297978817573078,0.1076,-0.0866
17.519703400088474,-0.22460695039015707,-0.07588643314763517,0.8619141323226432,-7.583500920638997,-12.518981538355758,2.335197394706449,0.1076,-0.0866
17.57929050002713,-0.22471159905775667,-0.07630003714481216,0.86278121244933,14.64327788293812,-23.71123205415005,1.233905807373068,0.1076,-0.0866
17.642947799991813,-0.22484207406829623,-0.07593676445613498,0.862811374440359,-7.433351498023841,-12.200566447527851,2.3781306520260608,0.1076,-0.0866
17.708576200064268,-0.22426848538440078,-0.0758382621448187,0.8608406870120171,-7.791133772706128,-10.24702110358968,2.252482571262908,0.1076,-0.0866
17.769477199995894,-0.22416343634705732,-0.07577140828670755,0.8604467089360643,-7.962995368242192,-10.50196598953601,2.34783553840891,0.1076,-0.0866
17.830114000011235,-0.22454463138531833,-0.07585723197238678,0.8618223081049778,-7.776978052470199,-11.319437327620465,2.387530579293712,0.1076,-0.0866
17.891446700086817,-0.22439354732358746,-0.07587350290576646,0.8612714826701796,-7.735254415444984,-10.432491123722864,2.279081337988547,0.1076,-0.0866
17.955495200003497,-0.2245497029529211,-0.07591092123849376,0.8619173354782942,-7.491669677891095,-11.004452408603974,2.3015388859678265,0.1076,-0.0866
18.018662200076506,-0.2245123545295986,-0.075858344864186,0.8617510010581177,-7.625398469780459,-11.418009853556857,2.3685775817477324,0.1076,-0.0866
18.080514600034803,-0.2246826457315861,-0.07593045225585268,0.8623692786843115,-7.27521412837465,-11.353918153524967,2.3353076970683566,0.1076,-0.0866
18.14203089999501,-0.22456689821075587,-0.0758922471727025,0.8619629539833702,-7.264437266171552,-10.94640288601164,2.3276069875531484,0.1076,-0.0866
18.202862600097433,-0.22442993268875605,-0.07588332371730173,0.8614871865594985,-7.2387649971380625,-10.525038941139991,2.270808732435765,0.1076,-0.0866
18.264556200010702,-0.22402227671336053,-0.0757161969126786,0.8600595280043583,-7.946501373751959,-10.544591707237556,2.3291972716572835,0.1076,-0.0866
18.325360400020145,-0.22504903400480716,-0.07594387983517174,0.8635900091737619,-6.247319280563301,-12.780446977691684,2.4348119162904607,0.1076,-0.0866
18.386126000084914,-0.22420598141701492,-0.07578027604574226,0.8606734105387963,-7.369114909139875,-10.959995715189844,2.31483599777187,0.1076,-0.0866
18.46296919998713,-0.22405172639150703,-0.0757602140504155,0.860140262000449,-7.382900413460334,-10.358242730192808,2.2565387975277664,0.1076,-0.0866
18.54263959999662,-0.2239506120716769,-0.07573465695999683,0.8598018143413788,-6.786347288801708,-9.07908202943658,2.240832497723415,0.1076,-0.0866
18.606321200029925,-0.22486374630930772,-0.07592197126477315,0.8630387284022626,-6.085690906852656,-12.03726956726648,2.400889947303092,0.1076,-0.0866
18.669878900051117,-0.2245666452466732,-0.07586987949929072,0.8620702862596665,-6.301495286582631,-11.14001948680728,2.384802466896496,0.1076,-0.0866
18.732354600098915,-0.22376536023196744,-0.07570224184574569,0.8593000185707462,-7.365098402876791,-9.371837556476803,2.3161900028266764,0.1076,-0.0866
18.79970630002208,-0.22415433980689206,-0.07577666870083921,0.8606164494011636,-6.821670625889672,-10.325968766720417,2.3394139618313137,0.1076,-0.0866
18.865112200030126,-0.22403952910589495,-0.07618871256283147,0.8608018682375298,14.355627516045317,-24.104012554834178,1.1385037432671214,0.1076,-0.0866
18.937119100010023,-0.2244610723490692,-0.07583621534734583,0.8617305946897581,-6.553328713941069,-11.196012049934106,2.3931335975667354,0.1076,-0.0866
18.999405400012623,-0.2244082232508636,-0.0758260558297462,0.8615015693976931,-6.522522417869211,-11.681468576851117,2.387538134426719,0.1076,-0.0866
19.063986300025135,-0.22372505534808626,-0.07567405238435106,0.8591618560824001,-7.220532873603031,-10.062432783633898,2.283947876271722,0.1076,-0.0866
19.133464200072922,-0.2243814241481694,-0.07577715866377481,0.8614148324568306,-6.811311346573002,-12.015504543454531,2.427861258408519,0.1076,-0.0866
19.196631900034845,-0.22384703986692572,-0.07607120436545961,0.8600973102381477,14.62298595863714,-24.2611370104454,1.1999670193862004,0.1076,-0.0866
19.26369410008192,-0.22344634062342983,-0.07555858891055804,0.858182248884741,-7.54518861355652,-10.036578405356767,2.350019570068428,0.1076,-0.0866
19.330367800081145,-0.22436154803522812,-0.07576836004574007,0.8613268982547624,-6.772864511789551,-11.887723697724017,2.418880485052099,0.1076,-0.0866
19.39701379998587,-0.22381235173806174,-0.07563225103631298,0.8594758629231543,-7.721920603027994,-10.58179366860064,2.392057473024021,0.1076,-0.0866
19.46826640004292,-0.22424415969950603,-0.07575550274183046,0.8608921870045232,-6.830387848176457,-11.658047228500548,2.40332852528875,0.1076,-0.0866
19.536364800063893,-0.2242822338621339,-0.07577047207306893,0.8609937462948491,-7.030339877803487,-11.256554336361882,2.362206536204784,0.1076,-0.0866
19.602507400093597,-0.22410796045480172,-0.07613485253059166,0.8609344452968033,14.440841308444517,-24.11391638389225,1.198632611016021,0.1076,-0.0866
19.670001900056377,-0.2245424033686519,-0.07584807688693888,0.8619120444321229,-6.671911221334788,-11.476234217304391,2.3963603948290126,0.1076,-0.0866
19.735737000009976,-0.22451007532629993,-0.07584089799810839,0.8617986926939797,-6.721403774205228,-11.243372275426571,2.3745116296578432,0.1076,-0.0866
19.80064900009893,-0.22463701991643464,-0.07590302257792245,0.8622792081275552,-6.664286600871352,-12.220166124029578,2.3723764358539072,0.1076,-0.0866
19.86552890005987,-0.22459676727991934,-0.07588779543680407,0.8621411687131776,-6.240172078742705,-11.330046890917291,2.38912050788833,0.1076,-0.0866
19.93141070008278,-0.22391757052149883,-0.07574308214721447,0.8598144148180185,-6.932416634696845,-9.893964292167173,2.321901817527045,0.1076,-0.0866
19.995312500046566,-0.22428254530236608,-0.07583166477908178,0.8611105862361093,-6.487094180285234,-10.73604813998679,2.3306546111322715,0.1076,-0.0866
20.058836900047027,-0.22416370404965025,-0.07581735963265511,0.8607450496226936,-6.989452948439951,-10.98604489780802,2.3383227123963946,0.1076,-0.0866
20.12224260007497,-0.22443593161530664,-0.07587328484805143,0.8616393603595566,-6.287302359834323,-11.683345897079487,2.3780068339767726,0.1076,-0.0866
20.182707300060425,-0.22450532894858566,-0.07625162548576218,0.8623744745897773,13.932719032618644,-23.4518196517896,1.34864432272017,0.1076,-0.0866
20.253208899986934,-0.22445655098023978,-0.07588928621266433,0.8617589659199625,-6.7695169555699,-11.086890389825184,2.393649042124108,0.1076,-0.0866
20.32698320003692,-0.22382997972647006,-0.07574599908262948,0.8595537310798158,-7.2327951082212145,-9.831378840882374,2.324081168743366,0.1076,-0.0866
20.4019945000764,-0.2245992968453543,-0.07596478267691564,0.8622237559244096,-6.739396751942252,-11.471311809723623,2.3133133704451248,0.1076,-0.0866
20.47581110009924,-0.22506567515037526,-0.07605123000967615,0.863805928619432,-6.245373988639124,-11.795473400727884,2.40197729234729,0.1076,-0.0866
20.549884300096895,-0.22518669580799686,-0.07607776729296911,0.8642103177697975,-6.222668360367203,-12.05847711877529,2.421623064296784,0.1076,-0.0866
20.62592660007067,-0.2245040819462677,-0.07595893409158888,0.8619472440602525,-7.069855724945128,-10.63776580186478,2.303521944200058,0.1076,-0.0866
20.701165700098503,-0.22452186276852582,-0.07595357169904408,0.8619339422242792,-6.866368829481753,-10.268670257897412,2.3016776119041893,0.1076,-0.0866
20.77529040002264,-0.22430167984019456,-0.07590560122873045,0.8611777152019933,-6.966304491706513,-9.50654489353386,2.274628821392102,0.1076,-0.0866
20.850937900017012,-0.2253000348983572,-0.07613652451116865,0.8645653769021076,-5.503053640966767,-11.131757284229966,2.358814051422581,0.1076,-0.0866
20.925912500009872,-0.22470795510728858,-0.07600722143488742,0.8625649653923322,-7.00174447979026,-11.052770837633076,2.3015347061180327,0.1076,-0.0866
21.001436399994418,-0.2250920681873769,-0.07641255348354359,0.8643757557509999,13.827275930670195,-22.91357172352022,1.4155552145709942,0.1076,-0.0866
21.07497250009328,-0.22473175001066809,-0.07600413268733656,0.8626949411778893,-6.993186938197281,-11.077623373128729,2.320895599018248,0.1076,-0.0866
21.14743220002856,-0.22428900631677426,-0.07590165396130485,0.861143251997951,-7.437627206207657,-10.068506140238744,2.2737786592379705,0.1076,-0.0866
21.21626830007881,-0.22454128201430087,-0.07594943638925383,0.8620140844651963,-7.091798584307037,-10.385498293477887,2.304631533407204,0.1076,-0.0866
21.309380799997598,-0.2248809407326926,-0.07603501537860409,0.8631356951241875,-6.7070008285919,-10.703126685512942,2.355228712743231,0.1076,-0.0866
21.384806900052354,-0.22449567063447504,-0.07596561863911436,0.8618301109540667,-7.196810551816955,-10.269317925295386,2.2701763730472875,0.1076,-0.0866
21.45956940005999,-0.22503650517804238,-0.07609273354611126,0.863760268867544,-6.753552958298022,-11.704587996955995,2.35030872134464,0.1076,-0.0866
21.536014800076373,-0.2245386440849192,-0.07592811969199045,0.8619840472301493,-7.043581893878184,-10.445415563233404,2.3109938876753406,0.1076,-0.0866
21.616857400047593,-0.22513638224863947,-0.07609673982020687,0.8640631981411289,-6.516114146522895,-12.225547838606191,2.3260298477998416,0.1076,-0.0866
21.688231000094675,-0.22527256853250716,-0.07614043176644211,0.8645705878294885,-6.385173118391555,-12.565185653844557,2.363661096008804,0.1076,-0.0866
21.765026000095535,-0.22445995677452468,-0.07594532230711869,0.861716549762158,-7.22708890588592,-10.2504406223559,2.281296949074102,0.1076,-0.0866
21.841565100010484,-0.22491059884596004,-0.07606379442369215,0.8633470576948059,-6.656325916995938,-11.100615913838432,2.3457149159672306,0.1076,-0.0866
21.914538800017905,-0.22481335951542597,-0.07607601578470359,0.863002729836676,-6.515617595284071,-10.410631775304774,2.266925441430764,0.1076,-0.0866
21.988194500096142,-0.22513981385006854,-0.07612506379358107,0.8640748071797794,-6.221136906241378,-10.914092160801095,2.346825595231777,0.1076,-0.0866
22.06357630004641,-0.22445365129116235,-0.07594496872865114,0.861619595029451,-7.028457735564259,-9.36415725364712,2.264906913143667,0.1076,-0.0866
22.138818000094034,-0.22472126102556292,-0.07603880800416524,0.8626339358306108,-7.004490474912063,-11.059171324567028,2.267639938976244,0.1076,-0.0866
22.214074900024574,-0.22486489558438072,-0.07605448432807989,0.8631238634358875,-6.717280167335646,-11.13138959714543,2.295428443199311,0.1076,-0.0866
22.281270500039682,-0.22427090073937916,-0.075904710536269,0.8610425780020229,-7.170896224495898,-9.47528565896281,2.240447830125516,0.1076,-0.0866
22.373420100077055,-0.2248657634398067,-0.07605887307515793,0.863137429284041,-6.831177240952248,-11.39846966467311,2.31111944082838,0.1076,-0.0866
22.444707400049083,-0.2248369152947933,-0.07603062762286499,0.8630591965495694,-6.732890602083494,-11.161145815399884,2.3293471680492823,0.1076,-0.0866
22.515041000093333,-0.22461131265852854,-0.07599743638222638,0.8622692984790454,-6.826327032896336,-10.515543495790324,2.319545778672107,0.1076,-0.0866
22.597425400046628,-0.2250172149435589,-0.07607169400608335,0.8636777787952703,-6.598251621634192,-11.33084003910556,2.359588186484555,0.1076,-0.0866
22.672380800009705,-0.2249533976445256,-0.07606748902412314,0.8634720992154703,-6.595271976605076,-10.981071125456024,2.3506664300420312,0.1076,-0.0866
22.744856700068343,-0.22506443476187532,-0.07614482858939499,0.8639446978193408,-6.086136413069762,-11.019370628632974,2.3489910404634147,0.1076,-0.0866
22.81943640008103,-0.2252133645963187,-0.07651499025739165,0.8648472135326858,13.67397157060056,-23.207114437633145,1.381860166465968,0.1076,-0.0866
22.894173600012437,-0.22463455570071256,-0.07601744197816641,0.8624425158940878,-7.1101773753549775,-10.720944008613404,2.363687875243221,0.1076,-0.0866
22.966555300052278,-0.22473619668457293,-0.07602889658611421,0.8627930299893444,-6.246605411796183,-9.969146378993296,2.362476605811779,0.1076,-0.0866
23.037496800068766,-0.22506638421084296,-0.0761133880669409,0.8639233633088459,-5.929967259635722,-10.759016263316564,2.3935159177224308,0.1076,-0.0866
23.111734200036153,-0.22470585263100296,-0.0760050687741408,0.8625550838253503,-6.613142015229228,-10.21626318106924,2.325512486179863,0.1076,-0.0866
23.184929999988526,-0.2250797415694888,-0.07613257475669238,0.8639416890407445,-6.172279462720649,-11.153793901749276,2.322964964619957,0.1076,-0.0866
23.258628200041134,-0.22524822499073535,-0.076145732461721,0.8645192741793036,-6.320121642138591,-12.064536255534971,2.394789263869685,0.1076,-0.0866
23.336278700036928,-0.22468464112559478,-0.07603591587930192,0.8625580200847212,-6.927517062627207,-10.69877849965414,2.2899157810022777,0.1076,-0.0866
23.4117544000037,-0.22487933706757168,-0.0760846686524007,0.8632402324196369,-6.665130166363976,-10.8073280008479,2.311644140273442,0.1076,-0.0866
23.486469099996615,-0.2247781811781767,-0.0760668647968408,0.8628983346366863,-6.471199518499306,-10.323121158964854,2.295041031893879,0.1076,-0.0866
23.563343900023025,-0.22466102642061822,-0.076014253421545,0.8624924655688265,-6.637795577855067,-10.472864355586111,2.3587548229937467,0.1076,-0.0866
23.641475900076333,-0.2250993072896813,-0.07613774990061939,0.864002670575966,-6.148807401730332,-10.77688895444608,2.3501178906403344,0.1076,-0.0866
23.71898400003556,-0.22460970691040794,-0.0760185323671906,0.8623595967264197,-7.10611777903079,-10.768508538443294,2.3547606717353182,0.1076,-0.0866
23.792775500100102,-0.2252824802584019,-0.07617227086992658,0.8646693182775644,-5.632462858584189,-10.772585913466392,2.4152649817775336,0.1076,-0.0866
23.867346900049597,-0.22518009747628262,-0.07618535472828994,0.8643535528194008,-6.288705415292078,-11.42880127653723,2.3666457982019,0.1076,-0.0866
23.943688700092025,-0.22538325066392892,-0.07624207005227601,0.8650167747513817,-5.541552755706879,-11.668294441392405,2.380740822062925,0.1076,-0.0866
24.02645130001474,-0.22478750412092463,-0.07608184280613246,0.8629459164780041,-6.475711971414579,-10.255645609707472,2.3095106102382803,0.1076,-0.0866
24.099678000085987,-0.22487943042261882,-0.07608827388109428,0.8632532157014514,-6.486730915734273,-10.587837166329136,2.336300545630656,0.1076,-0.0866
24.176455400069244,-0.22504509153520158,-0.07618877538518601,0.8638711954653814,-6.062939534532469,-10.564116290780234,2.238636286768078,0.1076,-0.0866
24.252657700097185,-0.22451093269547506,-0.07600316589331428,0.8620202530476989,-6.585574463152794,-9.582076566351327,2.2815530825667167,0.1076,-0.0866
24.32814740005415,-0.22514785412901042,-0.07614309225139483,0.8641703135736029,-6.433646429183852,-11.310090541061236,2.361828888407728,0.1076,-0.0866
24.404705299995836,-0.22466671657032936,-0.07603539175918975,0.8624935633729254,-6.635030378154616,-9.85829171771299,2.267747548796948,0.1076,-0.0866
24.476999400067143,-0.2246838004051169,-0.07603729091222126,0.8625097190223622,-6.793932175069057,-10.099874911327372,2.2693923526544166,0.1076,-0.0866
24.548381700064052,-0.2248087821227669,-0.07607857176399542,0.8630265167526607,-6.73773247649127,-10.48290853145349,2.2782887665658027,0.1076,-0.0866
24.621114799985662,-0.224764049860514,-0.07606339829137818,0.8628127026343511,-7.002996575529261,-10.890695884903009,2.2551616937039327,0.1076,-0.0866
24.691657899995334,-0.22521313076816774,-0.07617044463534443,0.8644399762143529,-6.140253888405805,-11.474459492305527,2.319228708930381,0.1076,-0.0866
24.76359240000602,-0.22448897480340627,-0.07596991807137293,0.8619032969043385,-7.008320392652734,-9.715658380056851,2.2793095163620056,0.1076,-0.0866
24.830243100062944,-0.22451537324111281,-0.07598895143571352,0.8619477354291836,-7.081613259571348,-9.623918919506345,2.26162180433455,0.1076,-0.0866
24.904055200051516,-0.22488908432236143,-0.07608651046545697,0.8632585011629329,-6.560564404524062,-10.400968647352926,2.317436823549593,0.1076,-0.0866
24.974111000075936,-0.22482637944749692,-0.07607640507608683,0.8631188780388359,-6.755351017127676,-10.4361849927905,2.284640641698412,0.1076,-0.0866
25.04253570002038,-0.225089048340366,-0.07619148887462235,0.8640014221862093,-6.521945476462641,-10.908004193866224,2.268114636949555,0.1076,-0.0866
25.112355099990964,-0.22460798547798416,-0.07605252907164593,0.8623158894402584,-6.787664983948097,-10.022539312501314,2.208579553642456,0.1076,-0.0866
25.18246630008798,-0.22552354550038628,-0.07628419269001244,0.8655293519967205,-5.6535970294882665,-11.401059087314009,2.343228384637874,0.1076,-0.0866
25.252499100053683,-0.2244918366750635,-0.0759790514478959,0.861958033456618,-7.073306867664506,-9.851699673978429,2.3221028647412174,0.1076,-0.0866
25.322598900063895,-0.2250443994227995,-0.07612761980332851,0.863816109776747,-6.316207646444896,-10.753340756731143,2.3234711417578606,0.1076,-0.0866
25.392912900075316,-0.22474385617998982,-0.07602144954305982,0.8628458091450422,-6.564837918377776,-10.184865043831673,2.343729841765344,0.1076,-0.0866
25.461033700034022,-0.22503276892799107,-0.07608933185088561,0.8637706807822936,-5.951959615512821,-10.11750863243485,2.332285579742803,0.1076,-0.0866
25.52725240006112,-0.22519716562248726,-0.07622138395129857,0.8643505137916729,-6.165280289014965,-11.012675992857789,2.24148193366112,0.1076,-0.0866
25.600173900020305,-0.22521284818632856,-0.07615075308110726,0.8644325355350833,-6.093039468988864,-12.081159367571814,2.374700619645544,0.1076,-0.0866
25.672343500074934,-0.22453456798584345,-0.0759835539483594,0.8619968943157272,-6.583293529978973,-9.65661935253885,2.287817392678277,0.1076,-0.0866
25.739314400008876,-0.2245866076371981,-0.07598447702696645,0.8622568801568143,-6.723911123893868,-10.529231427405804,2.3260477695850468,0.1076,-0.0866
25.826394600095227,-0.22506900266041058,-0.07612105319364618,0.86387152062259,-6.030375134497782,-10.969208802472028,2.326492068253938,0.1076,-0.0866
25.89735290000681,-0.22534155848514703,-0.07620038548556961,0.8648536252672124,-5.697628706066252,-11.593089686304998,2.359072799527248,0.1076,-0.0866
25.96478380006738,-0.22496542959758148,-0.07606027485554573,0.8635816162239572,-6.211663845442686,-11.981640691327684,2.4350438740869214,0.1076,-0.0866
26.05195370002184,-0.22508844232379013,-0.07611403338924583,0.8640159894275544,-5.998311229464846,-11.348331858359511,2.3588229100975497,0.1076,-0.0866
26.119997100089677,-0.22477301616719977,-0.07600964753615386,0.8629373132731746,-6.522721005390177,-11.102285743135749,2.3941107554177425,0.1076,-0.0866
26.19449420005549,-0.22484728479281227,-0.07605135879773701,0.8631760560613088,-6.1412884328098425,-9.988328827219672,2.3630412940787355,0.1076,-0.0866
26.266958000021987,-0.2247704343351273,-0.07605560500734024,0.862903565089166,-6.421258090609767,-10.516751916070284,2.311558421947832,0.1076,-0.0866
26.358230400015596,-0.2242672115622794,-0.07590141482721109,0.8611201797882582,-6.842936192582631,-9.394506721427897,2.2978015416391964,0.1076,-0.0866
26.43015190004371,-0.2250826761073457,-0.0761167930088104,0.8640113121926113,-6.352713223580549,-11.598526752738136,2.35533659387339,0.1076,-0.0866
26.501861400087364,-0.22448922499879195,-0.07596818339709754,0.86189567871649,-7.005779167804291,-10.22585999246127,2.311330704123582,0.1076,-0.0866
26.573921900009736,-0.225241799250254,-0.07649360518548158,0.8649926182184611,13.579866711995567,-23.02147211775429,1.3897665570433757,0.1076,-0.0866
26.646497300011102,-0.2252150896322934,-0.07615060643150653,0.864434294773274,-6.208098228558745,-11.8180111285614,2.36247901649277,0.1076,-0.0866
26.736884600017223,-0.22516575215764348,-0.07649551378222866,0.8647771147120363,13.785622529606192,-23.32335575868653,1.3415834716652506,0.1076,-0.0866
26.808327700011432,-0.22491556367000562,-0.07608517407411763,0.8634134178273729,-6.087121790951387,-9.640619276442123,2.314576449431049,0.1076,-0.0866
26.882569700013846,-0.22507463955791057,-0.076151316273503,0.8639232977657079,-6.604527288767034,-11.114293827583731,2.3072268022041413,0.1076,-0.0866
26.954379300004803,-0.22500743072982862,-0.07610837787614878,0.8637314354686787,-6.479852759073175,-11.04073296516106,2.3613412014290125,0.1076,-0.0866
27.028435599990186,-0.22457491696746812,-0.07603910063816526,0.8621673238458484,-6.790146762752179,-9.755320233332457,2.2487046481314885,0.1076,-0.0866
27.101100100087933,-0.2251595311185247,-0.07615636594241562,0.8642136408370925,-6.19638270691132,-10.895709218884605,2.3239913364776004,0.1076,-0.0866
27.175457400036972,-0.22495104465077198,-0.07611345534246686,0.8634919253473139,-6.316995018989168,-10.69876086822127,2.2581496697203134,0.1076,-0.0866
27.248259600019082,-0.2248791819926897,-0.0760696573330138,0.8632976993735022,-6.387417742525538,-10.50679138199154,2.339543719262154,0.1076,-0.0866
27.323888599989004,-0.22493104977645823,-0.07606925880685587,0.8634065203275522,-6.394012445262354,-10.22020841821533,2.3617403074390286,0.1076,-0.0866
27.398989800014533,-0.22529798481065672,-0.07619473453265378,0.8647365398250989,-6.108653508558387,-11.88688579777939,2.335293343632689,0.1076,-0.0866
27.476290700025856,-0.2246893319003947,-0.07604414800157212,0.8626138220168269,-6.285294107768131,-9.762814611155708,2.2950939658429013,0.1076,-0.0866
27.544375900062732,-0.22489804766839447,-0.07608864075210804,0.863301377108113,-6.47165913880035,-10.402109977008193,2.3140869074881696,0.1076,-0.0866
27.618948200019076,-0.2250691077451423,-0.0761490039924555,0.8639247043070495,-6.210216688258071,-11.135010210918724,2.2873413062082237,0.1076,-0.0866
27.71352700004354,-0.22465864708571703,-0.07602235989698147,0.8625004023047684,-6.605828549159817,-9.713016416228966,2.3054142725757583,0.1076,-0.0866
27.786942500039004,-0.2251746215070117,-0.07617052222287474,0.8642824178358278,-6.0759695278356,-11.140422496999378,2.3090864096599533,0.1076,-0.0866
27.858183300006203,-0.2248739150987487,-0.07607289771937384,0.8632596747948267,-6.143741828654206,-10.320405939638436,2.315465291191406,0.1076,-0.0866
27.932554300059564,-0.22525076671647676,-0.07615394213775842,0.86464832756206,-5.98698685225019,-12.163887512611094,2.4128105397923374,0.1076,-0.0866
28.006644500070255,-0.2253290885381601,-0.07619793874861301,0.8647352690072196,-5.599652748559575,-11.093894919643768,2.330952148493606,0.1076,-0.0866
28.08216510002967,-0.22449704965668454,-0.0759803112996655,0.8618448576678761,-6.680701061149128,-9.887916313987766,2.289700606375976,0.1076,-0.0866
28.150714099989273,-0.2242813349309537,-0.07590722672880654,0.8609572065120255,-7.401217930613399,-10.337078568498391,2.2450376880724003,0.1076,-0.0866
28.221879700082354,-0.22405273699421405,-0.0758655188081792,0.8602090760481884,-7.475701250807718,-9.967610103611705,2.2211640401978974,0.1076,-0.0866
28.292620300082493,-0.2238101248472076,-0.07572896021518695,0.8592174778207872,-7.650164470450681,-9.30427372082842,2.2334892864610407,0.1076,-0.0866
28.364911600016057,-0.2247642964128889,-0.07600507958374957,0.8625221132999479,-6.867663043890602,-11.42418236703986,2.2149620262899306,0.1076,-0.0866
28.436309100012295,-0.2246437445596102,-0.07593189135710973,0.8620282326382303,-6.973171383037562,-11.092700852044455,2.2388259645977064,0.1076,-0.0866
28.508867700002156,-0.2243010248557242,-0.07587048388622225,0.860964409671018,-7.20697890167124,-10.33454725829023,2.214148348233176,0.1076,-0.0866
28.582270500017334,-0.22427463739401735,-0.07581683246935154,0.8608489269954301,-7.49548857188929,-10.42100130568724,2.29187325469366,0.1076,-0.0866
28.67386560002342,-0.22447397538896935,-0.07587896115750078,0.8614939104023608,-7.236681997110329,-10.554231226547806,2.2785856409791427,0.1076,-0.0866
28.748030100017782,-0.22427805744885063,-0.07589762539190711,0.860957078729671,-7.0567750889321,-9.220997026465536,2.2292410699643166,0.1076,-0.0866
28.81797660002485,-0.22467971620796567,-0.07600594770449128,0.8624169681432339,-7.021099042169359,-10.836749214420433,2.2559211925022167,0.1076,-0.0866
28.886995700071566,-0.22439855828665836,-0.07591768115636043,0.8613681773962657,-7.104465623837135,-9.729965555645927,2.2354140411557704,0.1076,-0.0866
28.976282800082117,-0.2247899473798066,-0.0760870643137723,0.86284430533912,-6.963154639071998,-11.004841408093942,2.2340881701537514,0.1076,-0.0866
29.04655269999057,-0.2247241106282915,-0.07607532208277933,0.8627126506811785,-6.73248107652984,-10.06567969218118,2.259309411615334,0.1076,-0.0866
29.114828500081785,-0.2245831312207012,-0.07601028366808145,0.8621260886360843,-6.897234741553171,-9.878638316310644,2.244771893713668,0.1076,-0.0866
29.20479400001932,-0.2251641871853552,-0.07613866957277345,0.8642687211430352,-6.27860746147314,-11.000685045710116,2.336269977394207,0.1076,-0.0866
29.264462999999523,-0.22489143277107762,-0.07608959188305886,0.863353824087463,-6.291790334433012,-9.814261101545922,2.283892600943737,0.1076,-0.0866
29.32095130009111,-0.22504301893628298,-0.0761009088110395,0.8637463700925154,-6.009302192172354,-10.59687315193891,2.318559873331297,0.1076,-0.0866
29.389793900074437,-0.2245144850991849,-0.07598164914354659,0.8618676652437286,-6.955475031098383,-9.83789086893697,2.223030341954696,0.1076,-0.0866
29.44657500006724,-0.22470848959233547,-0.07605197002014517,0.8626835840967284,-6.4186968246410165,-9.68317970513987,2.268296488645598,0.1076,-0.0866
29.516013100044802,-0.22481714268874056,-0.07603882823206792,0.8630743787286786,-6.864131072349642,-10.750865182620789,2.343204789209952,0.1076,-0.0866
29.572077400051057,-0.22436721823084083,-0.07596187762557917,0.8614102078247785,-6.99901833061258,-9.390125837723817,2.2123299487210946,0.1076,-0.0866
29.62739570008125,-0.22452216494397131,-0.07597221380320862,0.8619873340027141,-6.686848029995204,-9.908098560619475,2.3115702864545247,0.1076,-0.0866
29.683691399986856,-0.22515290249778783,-0.07612885873318145,0.8642759167064187,-5.859475436492883,-10.715380971962354,2.3859407528157304,0.1076,-0.0866
29.744029500056058,-0.22513821414751253,-0.07614366849654719,0.8642680144618804,-5.928906109107332,-11.09288731661931,2.361292587046033,0.1076,-0.0866
29.803020099992864,-0.22450297175750855,-0.0759767857757017,0.8619793725309554,-6.249131035138587,-8.926197225599218,2.2991690736754675,0.1076,-0.0866
29.868326600058936,-0.22450072157238948,-0.07598229832183474,0.8619502472359466,-7.109048463746488,-10.584227487798511,2.279036280071164,0.1076,-0.0866
29.925110300071537,-0.22512656349450846,-0.07613182324522767,0.8641352816321444,-6.149444289638374,-11.542960370130276,2.368110361066945,0.1076,-0.0866
29.996698700007983,-0.22518846206888937,-0.0761808674104608,0.8644028625116225,-6.015966694107588,-11.793013102778438,2.35650293643264,0.1076,-0.0866
30.05649440002162,-0.22487816490561666,-0.0761096808689719,0.8632818257555072,-6.351718502798955,-10.927217441122112,2.305751820220712,0.1076,-0.0866
30.117865900043398,-0.22421632917370704,-0.07590901669845315,0.8609214607523662,-7.246730175956158,-9.893946393463317,2.273669892602574,0.1076,-0.0866
30.179071900085546,-0.22497485221312094,-0.07611070200133649,0.8635645691270517,-6.273019146085678,-11.049757444371089,2.320595759231831,0.1076,-0.0866
30.238512700074352,-0.22548905674336747,-0.07623557254635634,0.8654726197534476,-5.765067458826342,-11.886630207528617,2.3738038784971542,0.1076,-0.0866
30.297150900005363,-0.22523186205002635,-0.07616500018097287,0.864542814275336,-6.067897520706401,-11.851296987164814,2.3816799492292757,0.1076,-0.0866
30.359606300015002,-0.22477436871515163,-0.0760366971265698,0.8628863626436458,-6.432010356246916,-10.38305926624925,2.3314127320836677,0.1076,-0.0866
30.419075099984184,-0.22414364096662528,-0.07588686955782789,0.8606738796373418,-7.184083292603519,-9.41819158088523,2.275527461665958,0.1076,-0.0866
30.478269100072794,-0.22469615107555713,-0.07600992652762911,0.8626318135560528,-6.560791871149724,-10.552431406300366,2.327611674531961,0.1076,-0.0866
30.55614710005466,-0.22504127028043033,-0.0760788585517552,0.8637962213345138,-5.641879274038377,-10.663269871234682,2.371426773485577,0.1076,-0.0866
30.613007600069977,-0.22470597808421128,-0.07602419693837895,0.8626573536131841,-6.521846283822676,-10.78067288878029,2.32994652225627,0.1076,-0.0866
30.67626720003318,-0.22466338740399042,-0.07599709804613221,0.8624485161556246,-6.654839497353486,-10.967226022621013,2.3476355549118173,0.1076,-0.0866
30.73632170003839,-0.22533792241067843,-0.0762025541670545,0.8648778591976325,-5.35875406324425,-10.986456872520623,2.338131799262713,0.1076,-0.0866
30.795079700066708,-0.2245417354749385,-0.07597157223624028,0.8620889193856432,-6.640103296575422,-10.256827837886629,2.339106623777942,0.1076,-0.0866
30.8539979000343,-0.22473999592990052,-0.07601210431815934,0.8627627764137911,-6.532203223180594,-10.959826259227626,2.3721952434250797,0.1076,-0.0866
30.92581829999108,-0.22486119737966914,-0.07607091471176784,0.8632311237739688,-6.143839931741677,-10.729028655150334,2.3624610017906456,0.1076,-0.0866
30.984011400025338,-0.22497832132221746,-0.07607155019145408,0.8636919679792305,-6.28269302456347,-11.937526680378074,2.410244274379932,0.1076,-0.0866
31.043669000035152,-0.22463787323657686,-0.07600030925295077,0.8624337400722041,-6.432958788160386,-10.063536301401738,2.355720159303845,0.1076,-0.0866
31.113170100026764,-0.2245037029726487,-0.0759632910528361,0.8619294756718048,-6.424683186250096,-9.735186851148068,2.322278379105951,0.1076,-0.0866
31.17253109999001,-0.22481329745634912,-0.07601570021298006,0.8630248505828193,-6.057711075168093,-10.863164639238224,2.3780213557890035,0.1076,-0.0866
31.231686000013724,-0.22492740920949786,-0.07611164837962117,0.8634742415338146,-5.931219568587242,-10.791062821195656,2.3393420739957005,0.1076,-0.0866
31.288272400037386,-0.22539343482655494,-0.07621387711018474,0.8651380441790034,-5.643766014210877,-12.215220908646796,2.394942148451809,0.1076,-0.0866
31.348935900023207,-0.22416849248867313,-0.07587414975815197,0.8607498205016774,-6.687259575392242,-9.250026657326174,2.289317642354059,0.1076,-0.0866
31.410571100073867,-0.22467824821544974,-0.07601852192718768,0.8625466614385133,-6.256614950533758,-9.850673959791113,2.344452840086369,0.1076,-0.0866
31.466522000031546,-0.2256275527575261,-0.07627332437999543,0.8658869565287618,-5.189684224335736,-12.063936832706656,2.391241697465349,0.1076,-0.0866
31.522853700094856,-0.22483613172021757,-0.0760405670760538,0.863129619934759,-6.410115346936183,-11.03777960030232,2.366091923710941,0.1076,-0.0866
31.577228600042872,-0.22479606715246997,-0.07604167864781766,0.8629918792202499,-6.322665483453402,-10.687352485025505,2.342507113824063,0.1076,-0.0866
31.64996940002311,-0.22465098026244779,-0.07601839390557541,0.8624618972080281,-6.126100251517097,-9.844868312125616,2.2947032676231136,0.1076,-0.0866
31.709450900088996,-0.22515671677283405,-0.07613004849008718,0.864284618971157,-5.596000660945205,-11.301292992533073,2.3742571168460107,0.1076,-0.0866
31.780346999992616,-0.2243253399534279,-0.07592476732664663,0.8614009285884037,-6.832261199058775,-10.176008118076314,2.3283936418152,0.1076,-0.0866
31.839064300060272,-0.22420539748232335,-0.07594210140715164,0.8609174445609941,-6.998651906754725,-9.552490896429982,2.2201815230439754,0.1076,-0.0866
31.89964499999769,-0.22484161237932537,-0.07605933323685092,0.8631254006528133,-6.06286026139555,-10.734642418588049,2.3431603961985346,0.1076,-0.0866
31.95846650004387,-0.22526925040625023,-0.07617381080746578,0.8647275879587228,-5.641167102670014,-11.947371489312255,2.381037758850898,0.1076,-0.0866
32.01566450006794,-0.22455051559037764,-0.07598146755576082,0.8622005944861799,-6.565090211722509,-10.674339730872845,2.330609896839177,0.1076,-0.0866
32.07184370001778,-0.22472986189017394,-0.07647409307920944,0.8633241142860462,13.857968142813844,-24.000820685345182,1.1966018833914462,0.1076,-0.0866
32.131146300002,-0.2246865309336302,-0.07603655027937292,0.8625920131007456,-6.110360942937393,-10.4498367028211,2.2991176791915047,0.1076,-0.0866
32.18775270006154,-0.2247772991591861,-0.07606264804064704,0.8629408872473063,-6.228348938210326,-10.638085108040883,2.33167999340907,0.1076,-0.0866
32.24418370006606,-0.22447465232335034,-0.07596433719693632,0.8619440387296127,-6.239738202121592,-9.82144660017028,2.3438867312372595,0.1076,-0.0866
32.30162530008238,-0.22490378305923794,-0.07603082602491619,0.8633784047994163,-5.749352225236644,-10.892906505849206,2.3931034334558,0.1076,-0.0866
32.3588749000337,-0.22460963371403408,-0.07598306316190949,0.8622985076575821,-6.314513242011069,-10.327784546269871,2.3326194166584626,0.1076,-0.0866
32.41698630002793,-0.22468741184816046,-0.07600226433957837,0.8626060878377825,-6.388638360521051,-10.463047487988623,2.352101480865033,0.1076,-0.0866
32.475594100076705,-0.22531670535843312,-0.07617217924916038,0.8647883923242421,-5.380398153277409,-11.77733003105961,2.3920885841906987,0.1076,-0.0866
32.5369531000033,-0.224683949397759,-0.07600224373459329,0.8625978162216272,-6.53999499930988,-10.753504162056611,2.36232210978026,0.1076,-0.0866
32.592829700093716,-0.22453941512939185,-0.07596736542824135,0.8621020228039427,-6.635700696584694,-9.951598114964392,2.320305478696662,0.1076,-0.0866
32.65235530002974,-0.22453108734587424,-0.07597118746385169,0.8620755479258023,-6.739186214118269,-10.84536608041526,2.3205710905046373,0.1076,-0.0866
32.710793400066905,-0.22459705890802092,-0.07597921837733713,0.8623665444733619,-6.444940642178043,-10.56129041962969,2.339456678580726,0.1076,-0.0866
32.771298600011505,-0.22423234924939495,-0.07590610636003627,0.8610641602913051,-6.851341688002898,-9.628979504444144,2.264557206866814,0.1076,-0.0866
32.827111300081015,-0.22477321414752321,-0.07605267668517408,0.8629318627510055,-6.461146797473792,-10.886623116359877,2.331257439074674,0.1076,-0.0866
32.886781500070356,-0.22465703047304075,-0.07599257433443755,0.8624982689500255,-6.30273502210144,-10.525116608712237,2.379352758788622,0.1076,-0.0866
32.94505119998939,-0.22478441663303966,-0.07603892360173724,0.8629761379766206,-6.308006502942107,-10.785334039938617,2.37781755328902,0.1076,-0.0866
33.00263860006817,-0.22473997433287446,-0.07603241281313534,0.8627589408465849,-6.139324159756836,-10.473772828425238,2.3745303563076474,0.1076,-0.0866
33.072960400022566,-0.22459223003300388,-0.07599506477790254,0.8622770847412047,-6.290952543748104,-10.183847685445896,2.31289795542783,0.1076,-0.0866
33.132382999989204,-0.2242654763335808,-0.0759062238888235,0.8611450462890371,-6.839007592044094,-9.348503269564626,2.290588818972102,0.1076,-0.0866
33.19076170003974,-0.2252078718645284,-0.07613028814961065,0.8643929012670712,-5.568644855556165,-11.371028571867836,2.4162551740917677,0.1076,-0.0866
33.24749099998735,-0.22490824546876584,-0.07609106384218788,0.863404390564766,-6.2035098003859295,-11.225994311145346,2.3217740862721663,0.1076,-0.0866
33.305075800046325,-0.22439586036492182,-0.07639170813608503,0.8621774630441037,14.456286938014928,-24.337063771660105,1.0694824837719032,0.1076,-0.0866
33.36056880000979,-0.2244685427282873,-0.07594743194220849,0.8617617990687221,-6.840115430729496,-9.94709849973579,2.3054832335132125,0.1076,-0.0866
33.41826090007089,-0.2246340818948059,-0.0759817349286241,0.8623963032459077,-6.44105099797944,-10.717019168367132,2.317789476796235,0.1076,-0.0866
33.489025500020944,-0.2243185648134674,-0.0758694371332504,0.8613096251016651,-6.603314330050569,-10.00041242203196,2.3104320775095366,0.1076,-0.0866
33.546529600047506,-0.22432375898340703,-0.07590089585605116,0.8612888772716928,-6.533693324270861,-9.115165293970408,2.2871783395234693,0.1076,-0.0866
33.60500880004838,-0.2246687616316698,-0.07599433027484052,0.8625263094045477,-6.129309185359964,-9.542767240604675,2.3192169604653103,0.1076,-0.0866
33.66229440004099,-0.22531617002361548,-0.07616779653498024,0.8647634241238111,-5.51909373899587,-11.370623998210222,2.3633578739989973,0.1076,-0.0866
33.719401900074445,-0.2246034302340505,-0.07601675937779817,0.8623470335884971,-6.582455446328547,-10.056125497585583,2.291873903874295,0.1076,-0.0866
33.778293900075376,-0.22467556630204022,-0.07604694383007479,0.8625838808255964,-6.141041274443492,-9.79733303907833,2.2711384560328405,0.1076,-0.0866
33.839750200044364,-0.22415031372878885,-0.07590172425095248,0.8607194461197054,-7.148257017704034,-9.45634697650715,2.2520385984466857,0.1076,-0.0866
33.897053500055335,-0.2252770269722028,-0.07614992132367403,0.8646132021375316,-5.48634869659048,-10.679722170746036,2.37329102798996,0.1076,-0.0866
33.953985700034536,-0.22455987955425505,-0.07642592911903676,0.8627569726581823,14.164516871373491,-24.167762431809034,1.141005944866594,0.1076,-0.0866
34.02735600003507,-0.2245818262263159,-0.07598344942668388,0.8622579617424039,-6.806069289914606,-10.30838740460652,2.3532618985854525,0.1076,-0.0866
34.085987700033,-0.22485948903975359,-0.07608201869900558,0.863221216342092,-6.363385658641793,-10.363313785181036,2.314213100596164,0.1076,-0.0866
34.14373730006627,-0.22460113214194655,-0.07602299318531801,0.8623043703736494,-6.541717784913653,-9.947914092424412,2.2545789851258418,0.1076,-0.0866
34.20161980006378,-0.22517946366852287,-0.07616668976427043,0.8643562026809296,-5.827450991360206,-10.805712135229028,2.3105782770536214,0.1076,-0.0866
34.25984000007156,-0.2250136684347181,-0.07608782285756858,0.8637380241085455,-6.384291025006931,-10.96686597134941,2.3508548785912557,0.1076,-0.0866
34.319114500074654,-0.2246022364931335,-0.07599860525739228,0.8622292130727469,-6.64560805247729,-9.971631171019832,2.2743578724644147,0.1076,-0.0866
34.37568200007081,-0.22563844850498124,-0.07624461887648357,0.8658901908523242,-5.2782022917716365,-11.954252519266864,2.3734398081973924,0.1076,-0.0866
34.43353150004987,-0.22474773169926165,-0.07605548063704598,0.8627981017897829,-6.2528124081243766,-9.742096814708734,2.2897011869451576,0.1076,-0.0866
34.491195900016464,-0.2247754064317176,-0.07607238574137265,0.8629191294493623,-6.932326576652152,-10.383511956228428,2.285310101018663,0.1076,-0.0866
34.54980839998461,-0.2246829398604379,-0.07603471295615151,0.8625115646912624,-6.195664127835434,-9.575143820809606,2.2721841001727814,0.1076,-0.0866
34.60538980003913,-0.22499925170544832,-0.07612443567819527,0.8636856518235502,-6.11692361195615,-10.028391101264583,2.2832769398842747,0.1076,-0.0866
34.66250109998509,-0.22467191123877084,-0.07607817642428472,0.8625215546324789,-6.688285590871335,-10.306365769839072,2.2175393374747974,0.1076,-0.0866
34.721143100061454,-0.22438085990018647,-0.07598998966986871,0.8615389561088823,-6.7293951924305295,-9.065074360503807,2.2308198208125223,0.1076,-0.0866
34.779448900022544,-0.22529879828853855,-0.07619070342883962,0.8647455962242391,-5.741067046175479,-10.583147018377284,2.34151296779726,0.1076,-0.0866
34.83889360004105,-0.2244831927411162,-0.07599989805601463,0.8619278864369173,-6.729576947850857,-9.440831876592773,2.270642809992333,0.1076,-0.0866
