t,x,y,z,roll,pitch,yaw,desired_x,desired_y
0.0,-0.2361895552032122,-0.07628004936782382,0.8985188311468407,6.160031275659417,-8.876300135951997,0.4592108380906957,-0.0716,-0.0852
0.056172900018282235,-0.23109524252523567,-0.07634365665790403,0.8823787276895623,7.709714987576303,-33.13143522312004,-2.2800790163690703,-0.0716,-0.0852
0.11837699997704476,-0.23116074800827557,-0.07626912316112566,0.8823421681157501,7.814912983846405,-32.810208501605906,-2.171671854507045,-0.0716,-0.0852
0.1792653000447899,-0.23101229019034475,-0.07637285931721283,0.881806083052258,8.191809537974333,-33.91273077208408,-2.438781059140856,-0.0716,-0.0852
0.23590500000864267,-0.2364969423888316,-0.07662919756545834,0.8999738108328847,7.865717558069925,-13.66479293243838,-0.0161766290616268,-0.0716,-0.0852
0.2910580999450758,-0.23643028804081848,-0.07675417802866541,0.8996869161138048,8.393672602699851,-15.354213517104505,-0.236812044411916,-0.0716,-0.0852
0.36053359997458756,-0.22933805743873206,-0.07507935806952318,0.8853044529968677,4.70372658240353,-0.3901176577350019,0.1752298964404111,-0.0716,-0.0852
0.4206815999932587,-0.2287795182161973,-0.07739228484738574,0.9010370548438316,9.71298265510854,-18.231433401247106,-2.521905162980862,-0.0716,-0.0852
0.47890029998961836,-0.21013098615928308,-0.07741249139554875,0.8836870886377279,7.804174880834995,-30.94524683647534,-5.43167079324302,-0.0716,-0.0852
0.5340531000401825,-0.19393030561248764,-0.07765472644174735,0.8812413149205731,6.927606992810526,-29.51888667542385,-3.687200941458826,-0.0716,-0.0852
0.5905585000291467,-0.17861120040576234,-0.07833121186581832,0.8856882776240902,6.453039768424957,-25.70204763429194,-4.231141772341921,-0.0716,-0.0852
0.647108200006187,-0.16975543908010515,-0.07875848186807995,0.8845259708497437,6.301086067753133,-25.455865783878423,-5.538407191069411,-0.0716,-0.0852
0.7012614000122994,-0.15418685949341415,-0.07982526956529867,0.8915077088128969,10.610985856460992,-6.73681538480545,-6.390847215764598,-0.0716,-0.0852
0.7547675999812777,-0.13801878511131002,-0.08257649495115847,0.891276023052331,11.292878131269433,-12.18720131940285,-9.244543726998003,-0.0716,-0.0852
0.833634200040251,-0.13049564713587342,-0.08287262226540344,0.8898537951914781,9.62005452450657,-4.778609321617941,-7.366214804024288,-0.0716,-0.0852
0.8884244000073522,-0.11650752517583697,-0.08473222967149249,0.890667414397543,8.210943084348417,-8.372526164668056,-5.518461298823286,-0.0716,-0.0852
0.9557680999860168,-0.10213554143136468,-0.0855279850660197,0.8894459778185613,6.477209300045376,-7.756412415052142,-2.936760154938366,-0.0716,-0.0852
1.0125674000009894,-0.08741861999766573,-0.0857600250442729,0.8857760375628472,-0.2607883312256166,-10.035357227415076,-0.9940001636937744,-0.0716,-0.0852
1.068396299961023,-0.07364761871231555,-0.08509777239784666,0.8861108982316351,9.198010531674273,-3.4262650494344102,2.19989662209126,0.1076,-0.0866
1.1225722000235692,-0.059677147435624925,-0.08474390105027069,0.8872949958510559,3.7692806688139497,-6.733642376016482,4.488970371395265,0.1076,-0.0866
1.1786349000176415,-0.052245412641385824,-0.084158153057152,0.8853818496468795,5.60368728323802,-10.749867712749577,4.315677688080148,0.1076,-0.0866
1.2309697000309825,-0.03826652192887135,-0.08298044593373236,0.8849076794712591,7.732781204973124,-4.38368251902266,2.2619852245712035,0.1076,-0.0866
1.284738800022751,-0.030990002515749782,-0.0828499849729762,0.8820760075849102,3.446567939059466,-10.3625925475665,0.2607048659394888,0.1076,-0.0866
1.3407532999990508,-0.01714291184356752,-0.08338744181736822,0.8838799156944668,5.361647308152122,-8.21499577254922,-2.6894836816944827,0.1076,-0.0866
1.3944319000001997,0.0011446034249509678,-0.08477659262701245,0.8830934144085246,4.081222926808564,-10.672145731867817,-6.344310988498003,0.1076,-0.0866
1.4494275000179186,0.021410131592193425,-0.08775934786258635,0.8894053140361984,4.662065623553732,-2.4759780377547345,-9.170339952831524,0.1076,-0.0866
1.5068287999602035,0.03097115124434597,-0.08890631420154257,0.8828461858300765,-0.3826311601941581,-7.333728992338432,-10.710516785403705,0.1076,-0.0866
1.5638432999840006,0.03957557070121416,-0.0906764047433827,0.8828562322058315,1.5309147521613051,-7.109778803442048,-12.165999846874762,0.1076,-0.0866
1.6182072999654338,0.05471495155026731,-0.09371357990699296,0.8806366694034004,-2.202540966861944,-6.470942821271908,-11.23180501751967,0.1076,-0.0866
1.6851306000025943,0.06836814647569484,-0.09593852332305412,0.8787014155555934,-1.8922092917505424,-6.330835850057233,-8.56889707934635,0.1076,-0.0866
1.7402535999426618,0.0818937596802693,-0.09778284418311836,0.8795615604019158,-2.6369821838908347,-4.369622145897419,-6.1895723266893885,0.1076,-0.0866
1.7953846999444067,0.09596210956823245,-0.09914372753026893,0.8808804487511201,-0.7281529071317541,-5.123237773415635,-4.0703564175282265,0.1076,-0.0866
1.8518738000420862,0.10990451750417017,-0.09942158802848126,0.8787705469403745,-3.020921554203607,-4.042449953544204,-1.56034755493161,0.3832,-0.0597
1.906890599988401,0.11709176265980617,-0.09975815161326958,0.8794957024768502,-0.8675350372616772,-4.80887704092393,-0.5123393901991213,0.3832,-0.0597
1.9596644999692217,0.1242375716693018,-0.09965028405819024,0.8802512057828411,-3.263887223550252,-3.119293313344945,0.834837761666797,0.3832,-0.0597
2.016629199963063,0.13809314435014206,-0.09915294047689784,0.8795937201587645,-2.907684812978218,-2.644577178899705,3.378759243619676,0.3832,-0.0597
2.074947700020857,0.1520769293456703,-0.09821663195605758,0.8799707450043698,-1.39096939638647,-4.915637392002374,5.103050138738408,0.3832,-0.0597
2.1284347999608144,0.15608924151403278,-0.09801588311339238,0.8826783989412078,-1.2555236052222414,-3.868357089378768,6.00109454050506,0.3832,-0.0597
2.183614599984139,0.15654388612666115,-0.09773707085121307,0.8808645114584135,-1.3585317049222652,-3.4440777254112835,6.57840308732637,0.3832,-0.0597
2.2388324999483302,0.17288829297842603,-0.09567478503650616,0.8834715862853473,-1.674690688566594,-4.012549291246113,8.654306075031151,0.3832,-0.0597
2.293344900012017,0.1963086644933733,-0.09233212650191382,0.8858564722815072,-1.1090250766680247,-4.002025892174961,10.70698561792006,0.3832,-0.0597
2.3503672999795526,0.20846993234897473,-0.08987421588701006,0.885355946974986,-0.9787372619357552,-4.392214587454513,11.687324287884788,0.3832,-0.0597
2.404625399969518,0.2336062688980173,-0.08481123695949154,0.8858788499850856,-0.7263894246400991,-4.547040147523404,11.2378014608563,0.3832,-0.0597
2.46041369996965,0.2572491992188233,-0.08058278939960888,0.8861132868669466,-0.6112123821479306,-2.9387163457510272,9.286862004713624,0.3832,-0.0597
2.525222099968232,0.2680083505348857,-0.07854729729176735,0.8845617241767214,-1.832395993685324,-2.9092286091046007,9.690492199815102,0.3832,-0.0597
2.579068799968809,0.2902801748363733,-0.07480206821288643,0.8854900623742501,-1.4691201177899598,-2.0717878172969195,11.08339580172861,0.3832,-0.0597
2.637425999972038,0.31214870302330916,-0.07119940918289214,0.8860899725639482,-0.9374446403595112,-1.9442350110035205,8.534341721632066,0.3832,-0.0597
2.6901090999599546,0.3322548008171649,-0.06868978075003328,0.885156767695453,-1.1882596863360513,-1.2295624468107365,5.90798759279031,0.3832,-0.0597
2.7437268999638036,0.3412825174739884,-0.0681080366669093,0.8851982034835346,-1.274278300547526,-0.475191913666186,4.569150281934714,0.3832,-0.0597
2.795763500034809,0.3584224706659734,-0.0671828204651266,0.8882923534284237,-0.8240236472494628,0.2464600599848715,5.341783914184371,0.3832,-0.0597
2.8511548000387847,0.3656041220776082,-0.0664628360379854,0.8885435152950435,-0.813638155751199,0.8219439579881379,6.348933194878746,0.3832,-0.0597
