t,x,y,z,roll,pitch,yaw,desired_x,desired_y
0.0,-0.22908385289124691,-0.07560473498722262,0.8744209421700991,0.9394191683687564,-20.7191116238362,1.1149626946171012,-0.0716,-0.0852
0.05529209994710982,-0.2290766259382281,-0.07554569683872493,0.8743350737382247,0.9941545519767016,-20.849538218282184,1.1773951985111222,-0.0716,-0.0852
0.1141279999865219,-0.22908210645647434,-0.0755747348760415,0.8743677611560117,0.4854955760629936,-20.397526824153115,1.1651056301801064,-0.0716,-0.0852
0.1708199999993667,-0.22916829085555807,-0.07559097513623722,0.8746924299589397,0.0587779842405888,-19.24107802745416,1.1894056590244937,-0.0716,-0.0852
0.22854259994346648,-0.22925499918670714,-0.07559547975266818,0.8749323772662628,0.0096316721217589,-18.89056942155593,1.2292180502336991,-0.0716,-0.0852
0.28680160001385957,-0.22885706807665526,-0.07542849299422032,0.873525384095886,-2.287493237394504,-16.69459745750223,1.334227893105726,-0.0716,-0.0852
0.341370000038296,-0.22896185851996087,-0.07544721960048631,0.8738670546369439,-2.2161188092265443,-17.381105113484832,1.3261020120338731,-0.0716,-0.0852
0.39833680004812777,-0.22897064356813837,-0.07547111554089936,0.8739346301298392,-2.004639464783864,-17.4249566277006,1.3455733631692697,-0.0716,-0.0852
0.4521787000121549,-0.21938187453638827,-0.07566719076947355,0.8686301670309263,14.091758172694256,-23.87838194936353,-1.1452431433227463,-0.0716,-0.0852
0.5201444999547675,-0.20570860032547122,-0.07585420554079954,0.8736007213179036,-2.4587606661900736,-9.79420995970526,-2.144847475256479,-0.0716,-0.0852
0.5752309999661525,-0.19648261675702794,-0.07619209795645474,0.8724102935205117,-4.030034794456332,-11.733993339099236,-3.45228676700105,-0.0716,-0.0852
0.6312871000263844,-0.17812500599609593,-0.07789226853039184,0.8720939655771618,-3.741411401759168,-10.659766210091744,-5.964890868889303,-0.0716,-0.0852
0.6854647999862209,-0.15978822607168036,-0.08048321113773185,0.8733865284679065,-2.28621726309317,-14.485776952052612,-9.04502803523946,-0.0716,-0.0852
0.7535201000282541,-0.14985775364670903,-0.08174926822697827,0.8714785503118035,-4.212450707800951,-11.191037771281431,-9.515697083503838,-0.0716,-0.0852
0.8110171000007549,-0.13081385781865115,-0.08455987586315304,0.8697320280294998,-5.034228560252472,-10.04962300089517,-8.060068577052355,-0.0716,-0.0852
0.8786531999940053,-0.11240522623441102,-0.08672904046715182,0.8694762656921813,-4.261781625438033,-10.75201263005947,-5.36194852420381,-0.0716,-0.0852
0.9351975000463426,-0.09386585328517798,-0.08812120188120978,0.8706896718243778,-3.818553018768254,-11.179468701033532,-2.761250415037169,-0.0716,-0.0852
0.9907664000056684,-0.07552360170022815,-0.08928015557071332,0.8745787534093125,-3.210659500088119,-9.403621745421203,-0.1908229070215519,-0.0716,-0.0852
1.0472599000204355,-0.05529019590729943,-0.08887136697090818,0.8716326805403567,-1.8154129922024151,-13.175719097374586,0.4461350045088643,0.1076,-0.0866
1.1050138999707997,-0.045365971485214526,-0.08905651514306445,0.8740682036686162,-0.4983421859340508,-12.820177652574992,0.3365407237258031,0.1076,-0.0866
1.1740262999664992,-0.02512784069301064,-0.08853867715798588,0.8752258582382795,-2.977875686330972,-9.567905057401363,1.9252032457532624,0.1076,-0.0866
1.231640600017272,-0.005991085934720447,-0.08786835090417736,0.8764219706049949,-2.5883752143360024,-10.141233962519255,4.492881044984275,0.1076,-0.0866
1.287478500045836,0.01305424148447884,-0.08635422719417293,0.8797658369443275,-1.4850535722534814,-9.816850782677552,7.215479255849998,0.1076,-0.0866
1.345432100002654,0.0325590457750422,-0.08345197705012125,0.8802361204469981,-0.6131395878072943,-11.477630811827591,9.72930740594964,0.1076,-0.0866
1.4019035999663174,0.04225449064166999,-0.08187490178897688,0.8812302467999217,-0.8332732865634095,-11.327496175392008,10.948338309215218,0.1076,-0.0866
1.4597811000421643,0.06201784218555151,-0.07803934294741968,0.8801216172839678,0.5228235271382443,-12.824913890643042,10.451784139871242,0.1076,-0.0866
1.51591209997423,0.0718591247150234,-0.07624151478734932,0.8804389428781831,0.9023753639617812,-12.397505324193949,9.288424489200365,0.1076,-0.0866
1.5724875000305474,0.09136342887032378,-0.07368047195563698,0.8813723305779176,1.079226798485107,-11.922980647992691,6.29634313148186,0.1076,-0.0866
1.6281985000241548,0.1105426338858428,-0.07214338735692515,0.8797456101067486,0.6656728375666622,-12.41495105158072,3.4450615634593085,0.3832,-0.0597
1.683524899999611,0.12977284989871368,-0.0716673800089924,0.879105423754763,1.694156283201105,-12.268004665335752,0.5313425921110088,0.3832,-0.0597
1.7408361999550834,0.1390443261730469,-0.0713962812614605,0.877001038997414,-0.1349691289690666,-12.311910453287409,-0.5874207839609719,0.3832,-0.0597
1.8083387999795377,0.15858296752896597,-0.07245983471646637,0.8792383396011316,1.4150227123318797,-12.352590199069386,-4.113252354966225,0.3832,-0.0597
1.8654547999612987,0.16837475198794666,-0.07331098939862968,0.8800497521855883,1.6448435198494502,-12.329553260137065,-5.773790921103864,0.3832,-0.0597
1.9320346999447793,0.19936254757727,-0.0776205317815495,0.8809288731080701,1.304962262042232,-13.225766907422742,-10.458972745901203,0.3832,-0.0597
1.986810400034301,0.21259422834752328,-0.08027544433339652,0.8809088514283596,0.7207953628021799,-14.1640901693662,-12.396224020657623,0.3832,-0.0597
2.040222099982202,0.2410791203738709,-0.08756248491574307,0.882464027866131,0.4968948731185255,-14.32038231031787,-14.80816486327168,0.3832,-0.0597
2.0935110000427812,0.2668510352668078,-0.09376788016163663,0.8831601632431335,0.9439724858619726,-13.038843022233497,-13.348435195085743,0.3832,-0.0597
2.1491578000131994,0.29120511934467763,-0.09890951934837271,0.8837340964893506,0.8763271655156036,-12.704444387775627,-10.407351039128006,0.3832,-0.0597
2.2025879999855533,0.3026885014384335,-0.10099401471053587,0.8842364926794525,1.1026261058821687,-12.213871717733872,-9.35607714349858,0.3832,-0.0597
2.257623099954799,0.32472979378309613,-0.10401535481129856,0.8854962438354234,0.8721614396534134,-11.989280688418946,-6.273756964369872,0.3832,-0.0597
2.313482500030659,0.335025745442297,-0.10507735507401703,0.8859540202194094,1.0904319287865936,-11.824185596793356,-4.7546229683416605,0.3832,-0.0597
2.368892499944195,0.35283311426696096,-0.10580237269750442,0.8842644848508069,1.4332062513147783,-10.68111064020788,-1.763395385217719,0.3832,-0.0597
2.426701199961826,0.373982599761268,-0.10593530568048744,0.8897683370124545,1.1323501462997585,-10.820911162681666,1.947351812815368,0.3832,-0.0597
2.48194450000301,0.3942056324988337,-0.10480207704180255,0.8920726060503562,1.47314105640419,-10.882417600371882,5.624678899305579,0.3832,-0.0597
2.538234299980104,0.40469716282022083,-0.10386209181226062,0.8946151167965003,2.0224454729136743,-10.236716051872246,7.637162707690563,0.3832,-0.0597
