t,x,y,z,roll,pitch,yaw,desired_x,desired_y
6.709464899999148,-0.25930741467322055,-0.06567091842614586,0.875602910155688,2.6017320961108408,2.336950347070054,0.3835810945351626,-0.0716,-0.0852
6.763696199999686,-0.2650964590931613,-0.0671161291729306,0.8951960263817362,4.980710588181485,-7.097432765256045,-0.1659353018470504,-0.0716,-0.0852
6.8151867000015045,-0.26020712061912266,-0.06583649756413432,0.8784948752632988,2.740202664864866,1.3613791708172915,0.3121333330420325,-0.0716,-0.0852
6.867596799998864,-0.2606376976443079,-0.06599868059657507,0.8797688794734666,2.6718158940651864,1.8664909259994331,0.2961801135550788,-0.0716,-0.0852
6.920595600000524,-0.2610067751607295,-0.06601232946445373,0.8811970908039697,2.4463422845032383,0.6320090041588268,0.06699488297487931,-0.0716,-0.0852
6.974166799998784,-0.26129865528098967,-0.0661784391708,0.8821764428040245,2.683337515537536,1.032970338414231,0.1535627902635597,-0.0716,-0.0852
7.025851099999272,-0.26045242000213387,-0.06604123777645297,0.8807249431404506,8.652202534577757,-34.189388926032514,-3.0403841999729924,-0.0716,-0.0852
7.078790399998979,-0.2582992121477705,-0.06606809807292262,0.8813426008799755,1.523808988510771,2.2443246022885197,-0.13868614892649467,-0.0716,-0.0852
7.133861900001648,-0.24750488942747756,-0.06618459171980576,0.8888675784545031,4.747596291559365,0.677796127678039,-1.7506516249880033,-0.0716,-0.0852
7.187288199998875,-0.23779295477415127,-0.06576020099345278,0.8854363883871886,8.068385456134353,-31.564360693579346,-6.628350953678673,-0.0716,-0.0852
7.239361600000848,-0.21987889835813523,-0.06606659595164686,0.8873869055142282,8.116516579071105,-28.3808795264377,-9.310407831694212,-0.0716,-0.0852
7.294686100001854,-0.2021839688588611,-0.06878468949828463,0.8906744675688143,3.8632036319261465,0.2032345664321599,-5.833595709500824,-0.0716,-0.0852
7.348008199998731,-0.1917538802776901,-0.07003496351717411,0.8870511759750377,7.443732824639091,-26.065326711554686,-7.6228773203530285,-0.0716,-0.0852
7.400939399998606,-0.17401834239790648,-0.07201830065449344,0.8946983445053404,9.633793276361251,-5.535837634324967,-6.221765241830415,-0.0716,-0.0852
7.452792899999622,-0.1642506242428125,-0.0728183763195883,0.8951515331067963,9.951240528869835,-5.778508797656733,-7.612082150816444,-0.0716,-0.0852
7.505418500000815,-0.14508052213655986,-0.0758075279125096,0.8951620157086905,6.61695834216244,-4.2149677906996805,-6.973221214400418,-0.0716,-0.0852
7.561210399999254,-0.13407573718518961,-0.0768843502495412,0.8884070090303834,7.033013756356392,-17.782110857309206,-7.46933883263836,-0.0716,-0.0852
7.612898999999743,-0.11497787896950651,-0.07990593009431896,0.8910658199398418,6.888053096545938,-12.431540871175741,-4.545706097056117,-0.0716,-0.0852
7.665672700000869,-0.09519292578566152,-0.0814904896003291,0.8860498711400561,6.752648786758855,3.2938504461846536,-0.6318722281847973,0.1076,-0.0866
7.718234799998754,-0.0857493074240881,-0.08252953304073346,0.8877443243514557,1.8604421951025685,-0.32572910724831944,0.050406492974691915,0.1076,-0.0866
7.785429399998975,-0.06566228730328123,-0.08294648356932616,0.8886173024207729,6.511085943830685,-4.907138863055016,0.9349621916655553,0.1076,-0.0866
7.837686899998516,-0.05533660197383389,-0.08194876911206567,0.8834263326523516,3.562382360867921,-10.550710972808591,-0.478559796892137,0.1076,-0.0866
7.88958300000013,-0.03697692133480515,-0.08095550114521638,0.8743686750459713,-3.268985984578894,-7.630933615495192,-1.3460771289075601,0.1076,-0.0866
7.942656600000191,-0.036596950924925126,-0.08121531171038193,0.8780603451700272,-1.7416912577944765,-2.9765477181040527,-1.3499128290485272,0.1076,-0.0866
7.996689899999183,-0.030556390229318612,-0.08118281660971048,0.8822010035680475,-0.6501233320625986,-4.3537938341117535,-3.0578800668797785,0.1076,-0.0866
8.062726700001804,-0.022738105522134074,-0.08117139521754572,0.8838492740441843,1.7396252823815088,-6.636343517459574,-4.572907897493888,0.1076,-0.0866
8.1173146000001,-0.005185934589548579,-0.0812066402060807,0.8819957914011615,1.1911163803411873,-7.597916385187231,-7.736245045558886,0.1076,-0.0866
8.171515300000465,0.013230993867747773,-0.08310575910873216,0.8817256015927631,-2.280730081817077,-5.892175159008415,-9.285199174761027,0.1076,-0.0866
8.227949399999488,0.022547908664487432,-0.0847989299385051,0.8805680628530619,-2.9488678176204726,-5.954112261710996,-8.696996060761137,0.1076,-0.0866
8.280276000001322,0.04228598658077873,-0.08837939467455104,0.8797482215315964,-4.256161332675908,-5.580011422848849,-7.18206366092586,0.1076,-0.0866
8.335646800001996,0.0618355227715337,-0.09153502366139651,0.8784152740634992,-3.7808722510837947,-5.8721403892516975,-4.944749543184649,0.1076,-0.0866
8.388503999998647,0.07072235882312183,-0.0931447006239375,0.8803625475453944,-4.329457340504823,-3.382235333302332,-3.5431970367272108,0.3832,-0.0597
8.439305600000807,0.0894418229819155,-0.09484891188921689,0.8795088670872583,-3.3813946417486354,-5.245447439146406,-1.3984353124245072,0.3832,-0.0597
8.490749500000675,0.1086972022738365,-0.09624412734189855,0.8816969200152973,-2.5558117732566523,-3.993973813867398,0.8718416449286666,0.3832,-0.0597
8.54319680000117,0.11846451877302366,-0.09682348972251832,0.8826928353287464,-3.2323105403807295,-3.013937541932655,2.2538671548595546,0.3832,-0.0597
8.595371200000955,0.1279229591900461,-0.09679127338032484,0.8813117524985249,-3.548631628195938,-3.9603724607657154,3.488286186819834,0.3832,-0.0597
8.647905900001206,0.14775162105053138,-0.09666366722787989,0.8831086438705471,-3.558465755434167,-2.8081217535077596,5.816357834159682,0.3832,-0.0597
8.716176199999609,0.17415826743310447,-0.09575895275610938,0.8860815209161659,-3.1252182699341127,-3.9747435161992875,8.515807777152695,0.3832,-0.0597
8.770851299999777,0.1895490532895139,-0.09407995176947764,0.8867927319172041,-2.815294906368969,-4.219931644621553,10.05312111478922,0.3832,-0.0597
8.826653399999486,0.22052293331828496,-0.08892553250878456,0.8851057910353813,-1.797358990702354,-5.020171497025652,12.814329619716307,0.3832,-0.0597
8.880750200001785,0.2456956740455298,-0.0838402304392545,0.8863473217949023,-1.6512994407523947,-2.732535862464785,15.362540888748617,0.3832,-0.0597
8.934798000002047,0.2580067610059813,-0.08084504299944115,0.886111995691676,-1.5229790664889602,-3.188344787014987,16.163460769743345,0.3832,-0.0597
8.986569799999415,0.2791846033241727,-0.07447767974875696,0.8811267204990224,-1.8744447653910283,-3.5721729336082233,17.8524547064345,0.3832,-0.0597
9.03998700000011,0.2986878618647709,-0.06713589095840973,0.8818300376971231,-2.0274769271269664,-0.8751992781685332,15.42419712727684,0.3832,-0.0597
9.09324750000087,0.3085370599025508,-0.064078724920502,0.8838018785865984,-1.3285133646479894,-0.1683783202989218,13.682434839122676,0.3832,-0.0597
9.14479879999999,0.32673125739060305,-0.05876859649894067,0.8832714517392368,-1.6105002936003783,0.606098864058738,10.733967897620865,0.3832,-0.0597
9.19788619999963,0.34610719246907945,-0.054507563926038546,0.884601574401955,-1.3678431136895708,0.9292402181120559,7.76997049273997,0.3832,-0.0597
