t,x,y,z,roll,pitch,yaw,desired_x,desired_y
3.066548499977216,-0.26201649879422,-0.07642846598070586,0.8857299461245626,3.9228429563410536,-0.9514106229182976,1.1400801251843884,-0.0716,-0.0852
3.1244082999182865,-0.26127827123808434,-0.07627118415142213,0.8842054890441783,7.637182921206529,-32.44809802827029,-1.9952165771521375,-0.0716,-0.0852
3.1799481000052765,-0.26093582531729287,-0.07619747393843113,0.8832369777220026,8.183112738267008,-33.03300153157843,-2.1696559743201687,-0.0716,-0.0852
3.235640999977477,-0.2617579262175288,-0.07635028956821377,0.8848530214742304,4.362844625226617,-0.36044857714100925,1.2554917904755902,-0.0716,-0.0852
3.290478599956259,-0.2611180034095373,-0.07623384436991161,0.8838438307758959,8.501204222321231,-32.884737640462745,-2.1829913738444446,-0.0716,-0.0852
3.3463845999212936,-0.262419426589587,-0.07652761080672062,0.8869902475364828,4.914768907521432,-1.9317274201401387,1.19263621220652,-0.0716,-0.0852
3.4127721999539062,-0.2623801830981333,-0.07652526700993521,0.8869948493457414,4.846339299617772,-1.5054229317537835,1.2046067327586978,-0.0716,-0.0852
3.4682081999490038,-0.2609906916121663,-0.07620569035991119,0.8834379981811993,8.178464850882062,-32.92176371952984,-2.11183316155506,-0.0716,-0.0852
3.526536599965766,-0.2624655423118524,-0.07657694615699215,0.8872901354540764,3.7685058665100137,-1.441274908676214,1.078341069473959,-0.0716,-0.0852
3.5834375999402255,-0.2620886666337096,-0.07646812777939783,0.8860172852379732,4.821052867313535,-1.0505632458009069,1.290910413413866,-0.0716,-0.0852
3.64157959993463,-0.26103684538252414,-0.07621370471912361,0.8836333439366255,8.242408565541814,-32.90391259033281,-2.098535619947032,-0.0716,-0.0852
3.701411999994889,-0.2609772956989104,-0.07618975062222326,0.8834208768537888,8.13151311713471,-32.882755236901126,-2.040439901780328,-0.0716,-0.0852
3.7587320000166073,-0.26252326151411814,-0.07657933436648054,0.8875016088650751,4.344087768198564,-1.6136014410515265,1.1031898775185551,-0.0716,-0.0852
3.818452199921012,-0.2612237670573402,-0.07625383513522446,0.8840611591799247,7.8893139860846455,-32.407195561138685,-2.0987636871879256,-0.0716,-0.0852
3.8792849999153987,-0.2609067506563669,-0.07616120477667408,0.8830563351794429,8.966084416494676,-32.95690200835696,-2.181249464313292,-0.0716,-0.0852
3.939439499983564,-0.2621837264087547,-0.0764718889926415,0.8862697776080855,4.379405871208597,-1.0855475531565972,1.1896903659545093,-0.0716,-0.0852
3.999993299948983,-0.2614143987484549,-0.07625132420942421,0.8836123074247237,3.3390431532662643,0.14689926084148075,1.1995156507108569,-0.0716,-0.0852
4.062062699929811,-0.26107465206123137,-0.07622660224085978,0.8836593576977705,8.005673913361395,-33.00059459603093,-2.1389624378523497,-0.0716,-0.0852
4.122574099921621,-0.26093192841533747,-0.07619010189452902,0.8831877590826352,8.51433075273583,-33.12537779726613,-2.182519927624177,-0.0716,-0.0852
4.194177499972284,-0.2543098203436419,-0.07556072799259395,0.8789313229068733,7.024504266888697,-34.43998177307554,-2.7959760170868684,-0.0716,-0.0852
4.25437769992277,-0.24166610063358188,-0.07502025617768207,0.8852394659313565,6.860064740114022,-31.61939752051724,-5.4425905432500326,-0.0716,-0.0852
4.315685399924405,-0.22464050615302938,-0.07531845633257303,0.8898671483741559,6.4657243810200855,-26.698270497765066,-8.306583718667012,-0.0716,-0.0852
4.3759101999457926,-0.20500733587149614,-0.07696489700547654,0.8872062377305181,7.101426712580427,-26.29936165115094,-9.062758017192284,-0.0716,-0.0852
4.44939510000404,-0.18609802077843815,-0.07948579543966282,0.8874482951699133,6.859389953414608,-24.147395196439767,-7.764864437459235,-0.0716,-0.0852
4.521801199996844,-0.16802859999370084,-0.0814958221463795,0.8940664889457152,11.73841794601178,-13.442775745047394,-8.53940471094682,-0.0716,-0.0852
4.580037700012326,-0.14841541512179038,-0.0837859781839857,0.8932542543164346,12.84197917242272,-10.223213263732017,-8.92950367304594,-0.0716,-0.0852
4.636011399910785,-0.12907962604447992,-0.0871046319858008,0.8930799313892722,10.336341779202892,-4.254385452645586,-6.4530622531008275,-0.0716,-0.0852
4.690835800021887,-0.10965589515311971,-0.09021723713501019,0.8924009715085823,6.14129224699973,-8.190572607685791,-4.718478369088338,-0.0716,-0.0852
4.749525099992752,-0.10010813156636507,-0.09139842635991505,0.8922458444026788,6.918303034065355,-6.252800062242868,-3.326019463512891,0.1076,-0.0866
4.809645099914633,-0.0805914839376428,-0.09306524313465146,0.8911761261468526,5.187153848941414,-9.675022547233247,-1.45281758519353,0.1076,-0.0866
4.867317299940623,-0.061210512809637324,-0.09405477154079377,0.8891550416533306,8.115423994111277,-0.5862425261455113,1.6912517920347296,0.1076,-0.0866
4.935140799963847,-0.04152751659211652,-0.09437791953106588,0.8870010178186076,3.454761727747725,-8.481582870018007,3.2470186696559087,0.1076,-0.0866
4.991346599999815,-0.031749199902942726,-0.0942539994682062,0.8863602635806649,0.11630240381429834,-6.450093014333737,4.683775661594804,0.1076,-0.0866
5.049094400019385,-0.012051114015190349,-0.09333181924755647,0.8876526482289282,8.752650063567964,4.0043282586652875,8.054103610733632,0.1076,-0.0866
5.109964799950831,0.008539984858800144,-0.09131201539623839,0.8854107640425223,-1.9254795313711843,-5.079703861937196,9.550070620113985,0.1076,-0.0866
5.1670496999286115,0.029423588544207905,-0.08798012892047108,0.8858704376507563,3.6055008194623466,-7.529205947519377,9.774826509631328,0.1076,-0.0866
5.235220599919558,0.04921521037991325,-0.0833324658698012,0.8832741413268389,0.9040273324835243,-6.574810101333788,7.311262143298021,0.1076,-0.0866
5.29265660000965,0.058584323391792155,-0.08130129009502995,0.8816221219046065,1.2575578775537297,-6.555636433753802,5.621949312308714,0.1076,-0.0866
5.349665199988522,0.07831737068398086,-0.07806206144661307,0.8810130045317485,0.955546299685807,-6.665302997908661,2.3093577105159686,0.3832,-0.0597
5.405186299933121,0.09780854346336307,-0.07602429198024882,0.8788707210967059,-2.189045720183948,-5.7307340485389435,-0.3838359466687792,0.3832,-0.0597
5.462851500022225,0.11730715405345152,-0.07499685342235445,0.8783789862651236,-1.1946443414425634,-5.955750297016027,-3.9135032510038297,0.3832,-0.0597
5.534654299961403,0.12744515774203033,-0.07522289497597573,0.881247721293396,-1.5888755206959206,-5.469891801088525,-5.639276795632111,0.3832,-0.0597
5.607729599927552,0.14692622678038353,-0.0764070182492368,0.8813214662799265,-1.1845510190139628,-5.305288932519316,-8.98046173585399,0.3832,-0.0597
5.666716699954122,0.1674861168307008,-0.07890518907820802,0.8843987649238456,-1.6727350408672923,-5.16858607401727,-11.77734234111578,0.3832,-0.0597
5.726261299918406,0.20634751823987235,-0.08815384536055115,0.8876090988567801,-1.111134306037753,-4.881087173554119,-10.952332461526309,0.3832,-0.0597
5.798946599941701,0.2192125892311697,-0.09100129663854112,0.885511027024373,-1.5800625283524707,-5.072211933486232,-9.978612474617224,0.3832,-0.0597
5.871038699988276,0.24365248392042932,-0.09639957156315901,0.8861796148898035,-1.481939066780433,-2.840386104636034,-7.220604704257502,0.3832,-0.0597
5.931397799984552,0.2656903955910549,-0.10037256459850445,0.8850316427137418,-1.744381128288322,-1.6606301759330608,-4.2600294330502235,0.3832,-0.0597
5.991340499953367,0.28790098369993006,-0.10298599450744529,0.8853771011450824,-1.0395132982892015,-1.3732977927952403,-2.172849400091887,0.3832,-0.0597
6.0491528999991715,0.3092856224570776,-0.1047196083686241,0.8858033931476714,-0.2936365340408107,-0.6566544760869288,0.27461114096083106,0.3832,-0.0597
6.107659499975853,0.33012337465183256,-0.10594894439456656,0.8886996423684508,-0.15202579531098823,0.8558401834270475,2.9934994655906926,0.3832,-0.0597
6.167677499935962,0.34993307067052903,-0.10628815778867387,0.8897241926681484,0.20401793185421982,1.4312756420228572,5.611405694501282,0.3832,-0.0597
6.226668399991468,0.35918888000491234,-0.10600698512211922,0.8887133917392345,0.15456966024561214,1.2199837700931042,6.839173335717112,0.3832,-0.0597
6.285850699990988,0.37931323852899357,-0.1050963706108991,0.8904581634541427,0.4539118926360993,1.8338981524057585,9.206587480325185,0.3832,-0.0597
