t,x,y,z,roll,pitch,yaw,desired_x,desired_y
3.14870180003345,-0.2569771842141403,-0.07748008595638423,0.8834476981883094,4.970339128279566,-0.3500106213240029,1.6107586193840304,-0.0716,-0.0852
3.216412500012666,-0.25692267776016636,-0.07748125508391769,0.8833039972808207,4.76577032159234,-0.2017200598590708,1.6023869608332675,-0.0716,-0.0852
3.272676100023091,-0.25730850894942425,-0.07758402586929374,0.8846301775765752,4.8843294749751625,-1.015077430045778,1.6119994183254607,-0.0716,-0.0852
3.3319741000887007,-0.2569146329296439,-0.07747319787310726,0.8832974230315552,4.655092659820379,-0.41832178813618126,1.5683407308488655,-0.0716,-0.0852
3.3870999000500888,-0.2567910288251901,-0.07742161130708008,0.8828452733968084,4.511502825231804,-0.17820061902150142,1.5953454789677788,-0.0716,-0.0852
3.4423993000527844,-0.2573524293162275,-0.0776003129251199,0.8848243608486219,5.324397010070335,-1.1051709924159883,1.6140019617297288,-0.0716,-0.0852
3.497633700026199,-0.25760553814320863,-0.07768985424100443,0.8858363469247581,4.989846640537896,-1.1958789911775913,1.4973426642758543,-0.0716,-0.0852
3.5513528999872506,-0.24746408596585873,-0.07691612818881677,0.8842556804732927,6.436682826139875,-31.17373306775206,-2.8762678606559176,-0.0716,-0.0852
3.6078030000207946,-0.24056371053929715,-0.07670384104314454,0.8860144803315391,6.53377149685445,-30.07966874115529,-4.48661315962551,-0.0716,-0.0852
3.6626852999906987,-0.22413087612537524,-0.0761697530139327,0.8840505119976743,8.220779171411978,-28.88144493941026,-7.77144980836318,-0.0716,-0.0852
3.7183181000873446,-0.21051633576307127,-0.07733863555072866,0.8953749272373338,10.661145336178171,-8.564190857414356,-8.155527358418455,-0.0716,-0.0852
3.7735481000272557,-0.19969128035080883,-0.07712958415559207,0.8854526482529533,9.696827750820866,-24.446146198637383,-12.36789689263399,-0.0716,-0.0852
3.829526900080964,-0.185357068933377,-0.08029201620855217,0.8946965013355378,10.261170726611002,-6.007973936670013,-11.31525029274223,-0.0716,-0.0852
3.8851262000389397,-0.17686073621135165,-0.08178173506101091,0.8901303594575496,6.857772391054416,-1.1221528316646947,-10.010481495045962,-0.0716,-0.0852
3.951508600031957,-0.1627383077506537,-0.08562452440793879,0.892455362008801,8.944200546422845,-10.256986705019814,-8.715109115989998,-0.0716,-0.0852
4.007488499977626,-0.14877103146593143,-0.08867342671479818,0.8910972003480961,7.328544134834966,-8.17009661765164,-5.694559262675948,-0.0716,-0.0852
4.075707399984822,-0.1348611117546507,-0.09104725521235772,0.8907353995526891,5.80430013581732,-5.796835505235267,-2.977395834035162,-0.0716,-0.0852
4.131814100081101,-0.12046746472418074,-0.0924002134690853,0.8863587812430125,8.033048255869097,-0.4039582197728215,0.5040492051726101,-0.0716,-0.0852
4.199198300018907,-0.10660827197708239,-0.0935884543498025,0.8872543722711526,2.2696514979359637,-2.0517744469331514,2.366770902878469,0.1076,-0.0866
4.252521299989894,-0.09931713831485865,-0.09362968150585933,0.8856190330385036,7.29484213330755,-1.4561148431403332,3.8024629966326158,0.1076,-0.0866
4.305411200039089,-0.08508613946249395,-0.09385708154489225,0.886901677984292,2.1304102594547856,-4.573391117306722,5.724067400494354,0.1076,-0.0866
4.362518100067973,-0.071436165220528,-0.09357389590323406,0.8885315843187841,4.385110979314121,-4.061888234370681,8.331445017037886,0.1076,-0.0866
4.420524700079113,-0.06467028037838354,-0.0930690192526649,0.887629206167045,5.415779664111496,-4.622884438262747,9.582227126322262,0.1076,-0.0866
4.474815300083719,-0.0554797079390105,-0.0906635658724434,0.8724271363968005,-3.504103524073664,-7.223265715468717,10.825165878422954,0.1076,-0.0866
4.531793000060134,-0.05615026137337258,-0.09158720561695548,0.8825070713867623,-0.5160128057182333,-6.7306633167125085,10.496404423143881,0.1076,-0.0866
4.590572000015527,-0.04338675591600052,-0.08866495753788597,0.885879763380208,7.912451639040893,-7.9231810051296385,7.870936451046454,0.1076,-0.0866
4.651622100034729,-0.03575599074455115,-0.08711715034510609,0.8859327651960945,3.1237419041768746,-6.291576938700958,6.751611736422062,0.1076,-0.0866
4.709478000062518,-0.019945681938167436,-0.08401347982327005,0.8831054576711039,-0.10372494702678495,-6.739849777023918,3.7904907933934986,0.1076,-0.0866
4.765399900032207,-0.004693620175377738,-0.08124426646108109,0.8777517397253495,-2.365674716176725,-6.870844196057953,0.7458976769241243,0.1076,-0.0866
4.821182399988174,0.01017232675196549,-0.0801326076920327,0.8793418270700161,3.3995829040592027,-7.838604945459207,-2.6482444480099225,0.1076,-0.0866
4.876199800055474,0.01744917309704332,-0.07999278935517883,0.8820480322080855,8.836026805116644,-4.505035628405019,-4.1734671707949,0.1076,-0.0866
4.932605099980719,0.031713489883844974,-0.07959970323990409,0.879356661734452,-1.7786096874963453,-5.472787248808737,-6.795589237810792,0.1076,-0.0866
4.989016400068067,0.04599587533204997,-0.08023697086338755,0.8794692933995817,-1.2218532468070789,-6.4323791796710115,-9.93973040083748,0.1076,-0.0866
5.044436600059271,0.0530404398787246,-0.08140308506835121,0.8792670955534998,-3.1714447525870604,-5.668935952313595,-10.146533019623126,0.1076,-0.0866
5.098334399983287,0.06642814102372722,-0.08493033229087896,0.8797736117902629,-2.851376509976037,-4.826411865532462,-8.029520362515774,0.1076,-0.0866
5.1552146000321954,0.0798929379914824,-0.08791123094865425,0.8788772147142808,-3.4509482496517077,-3.9568247494646163,-5.4509666688598415,0.3832,-0.0597
5.210499300039373,0.08677530947631837,-0.08912353154072268,0.8788635360938379,-3.1096902049609945,-4.0196293424273115,-4.075268633205496,0.3832,-0.0597
5.266537700081244,0.1007679171946167,-0.09101904419172739,0.8786072306241453,-3.062883769736969,-4.221104904114772,-1.6956034190651779,0.3832,-0.0597
5.3231733000138775,0.1152598795988666,-0.09257282723445495,0.8792664778177348,-1.8625774365710577,-4.050661564636543,0.6517622006996083,0.3832,-0.0597
5.377297400031239,0.12919666379064157,-0.09334042062832597,0.8794623782479478,-2.49009616732836,-3.5238554127126225,3.286424797747507,0.3832,-0.0597
5.430768900085241,0.13556491651804195,-0.09335698297274696,0.8811151588153042,-0.5958893520453827,-4.633395566047332,3.4887842294886857,0.3832,-0.0597
5.486089400015771,0.1384632658041119,-0.09337356676357833,0.8821204312585892,-1.1465060561642535,-3.935876017846341,4.097624354410114,0.3832,-0.0597
5.5426596000324935,0.13859190590747078,-0.09356641999501941,0.8796406559462966,-2.033731693548766,-2.7677183487370263,5.359590808594917,0.3832,-0.0597
5.599697300000116,0.15466200248101108,-0.09276862555183786,0.8814378979339444,-2.3964566994941205,-4.068613176360853,6.89395178344733,0.3832,-0.0597
5.656221800018102,0.1765350725347682,-0.09148184972522211,0.8849738138648575,-1.3276377941939475,-3.138996344821874,8.415182446956518,0.3832,-0.0597
5.711681300075725,0.18751947572358035,-0.09022461722524887,0.8841958293470815,-1.3752254790333307,-3.2028477066191936,9.227625250913663,0.3832,-0.0597
5.767379100085236,0.2111244627205199,-0.08633963107457125,0.8853688163982748,-0.6977669166614595,-3.2838679249308553,8.044567023168582,0.3832,-0.0597
5.820997599978,0.2223299637656005,-0.08404428967906657,0.8839581413751157,-0.9905402906427297,-3.8206379841966847,6.867780402821265,0.3832,-0.0597
5.876484700012952,0.24340175592072888,-0.0801384058455473,0.8820672426373939,-0.9769199630134988,-2.9735287679876214,3.3760658921716535,0.3832,-0.0597
5.932674800045788,0.264934057061017,-0.07811148546830217,0.8827522080959925,-1.2033591672210215,-2.067047803102735,-0.1406115069658473,0.3832,-0.0597
5.9879227000055835,0.2861398865301964,-0.07734390462699278,0.8840121752970023,-1.4281383716203717,-2.312659249596115,-3.750494847475438,0.3832,-0.0597
6.045040299999528,0.2971195969594905,-0.07767141936674837,0.8862495420559018,-1.108088352657898,-1.6132737615662707,-5.202145924791558,0.3832,-0.0597
6.100174200022593,0.31671068958172965,-0.07887415501621227,0.8881134389441968,-0.9470706318748711,-1.1005352585061552,-7.764159383737803,0.3832,-0.0597
6.1575257000513375,0.33359085911118214,-0.08199896519874547,0.8898230126911708,-0.23096820982928043,-0.4307823645122964,-6.752625063862823,0.3832,-0.0597
6.211196499993093,0.34040035804042057,-0.08327265815725565,0.8899648305206378,-0.32740681807708044,0.42042479148189155,-5.718057134093411,0.3832,-0.0597
