t,x,y,z,roll,pitch,yaw,desired_x,desired_y
3.055870199925266,-0.2605391688606588,-0.07630183185592769,0.8831604564417478,4.777178751410599,-5.737947209882959,1.2962721845587075,-0.0716,-0.0852
3.1159831999102607,-0.2603840151193555,-0.07623738257301199,0.8826261595767516,4.5783174424837565,-5.221090185558973,1.3147217784874952,-0.0716,-0.0852
3.1715086000040174,-0.25988178474777046,-0.07609705627554829,0.8808575525708184,3.576258647528791,-4.2148530634400725,1.3057957796982775,-0.0716,-0.0852
3.242634000023827,-0.260232006325625,-0.07620574298151314,0.8820317648613055,4.491254590810137,-5.126516052578675,1.3760548195963132,-0.0716,-0.0852
3.3020544999744743,-0.26012104026120875,-0.07616906298180261,0.8816898286010013,3.707835148815391,-4.675981154536264,1.285294335687877,-0.0716,-0.0852
3.3739673999371007,-0.259814744199629,-0.07608974251770752,0.8807351332275015,1.9580347158505411,-4.0301068340345605,1.1634154905415242,-0.0716,-0.0852
3.432356199948117,-0.25373877764802055,-0.07555939961069484,0.8879200791022821,9.454274247592096,-7.632926541463595,-0.8358349800405293,-0.0716,-0.0852
3.494061699951999,-0.24761332304208805,-0.07555733029789494,0.8922996797161741,9.464209429815474,-12.983068716497355,-2.9457420486815202,-0.0716,-0.0852
3.5542130999965593,-0.22977456779275493,-0.07536986047518326,0.8902041470749475,10.363193662704369,-8.138812359735834,-5.302543718671839,-0.0716,-0.0852
3.6133555999258533,-0.21149101862447486,-0.07642093943920607,0.89180606849086,10.745530834949106,-10.848148914671105,-8.756399971399699,-0.0716,-0.0852
3.6731480999151245,-0.19157723120931328,-0.0777962534494862,0.8895411301132414,14.050032000023146,-9.680169939565243,-11.985357419735054,-0.0716,-0.0852
3.7340007999446243,-0.17294787418139057,-0.0812233267054846,0.8923539159875699,11.772060662396653,-8.2465716347662,-14.589468614038067,-0.0716,-0.0852
3.791298499912955,-0.15317435138189675,-0.08480967977144449,0.8893388108533776,9.880870798626251,-13.439299777261805,-18.843845617206206,-0.0716,-0.0852
3.8515164999989793,-0.14419817395456963,-0.08723655879568717,0.891217872067531,8.321281656071527,-10.42483162857559,-20.0030384344633,-0.0716,-0.0852
3.9086573999375105,-0.1254256155130177,-0.09245673450890796,0.8893505842141768,6.724073869646847,-10.478047251691535,-23.32955580188422,-0.0716,-0.0852
3.967577499919571,-0.10704430711759776,-0.09870500851164514,0.8892702061561528,10.813646915898833,-6.729898855803778,-26.23215964632848,-0.0716,-0.0852
4.024858199991286,-0.08841933683147658,-0.10545819369034856,0.8838635217666057,5.022724907992545,-9.963983383451465,-29.70143887143801,0.1076,-0.0866
4.087235099985264,-0.07963909954690394,-0.10928034467734603,0.8823134818731171,4.1119785298988525,-9.47197030210725,-31.062387699517863,0.1076,-0.0866
4.157251399941742,-0.06223328629273617,-0.11738126897516417,0.877576321633813,2.007845932916482,-10.21748194380511,-34.36402924559692,0.1076,-0.0866
4.217293699970469,-0.04589142559596919,-0.1269903945889392,0.8760823783468115,-0.10600000545620511,-8.766320175603981,-37.23594562155322,0.1076,-0.0866
4.27946069999598,-0.03027479339560686,-0.13748200437223887,0.8776642802002885,1.6116664226116895,-7.302885355565015,-40.53290801443743,0.1076,-0.0866
4.342607999918982,-0.014851222633373014,-0.14863094769378782,0.875642716302721,0.8926716562533931,-7.615909476398404,-43.73443956187256,0.1076,-0.0866
4.401673699961975,-0.0005823784452706619,-0.1605577901424789,0.8746624892920088,0.20430176723911928,-6.982366413258757,-46.577021281442924,0.1076,-0.0866
4.461522799916565,0.013387180240220339,-0.1733868074387439,0.87360570832203,0.21585217829082792,-7.3005015484784925,-49.95823447184344,0.1076,-0.0866
4.520938799949363,0.026240410568230246,-0.18772297629069779,0.8757941186059909,-0.1932266420779442,-6.564377006467126,-53.034632808573214,0.1076,-0.0866
4.593261400004849,0.03251850989090818,-0.19515797823821554,0.8767405853215713,-0.16208379248684454,-6.133267655894008,-54.51465648000217,0.1076,-0.0866
4.652720700018108,0.04448560981476268,-0.20961513150656258,0.8748618875024892,0.27942403696607704,-6.7369387893613535,-57.78797177377545,0.1076,-0.0866
4.712386999977753,0.05550323589847397,-0.22537041510149444,0.8765401151050757,-0.4153478562798577,-6.014899196643936,-60.757323706154956,0.1076,-0.0866
4.771421700017527,0.06556385068763368,-0.24186925514219082,0.878637929959857,0.8691247887163934,-5.35475553866764,-64.25678582466493,0.1076,-0.0866
4.844567599939182,0.07447542020382764,-0.2583604312667956,0.8782789324604955,0.5281571415867712,-5.084509468565313,-67.26959459475695,0.1076,-0.0866
4.91682119993493,0.08257610660287708,-0.27575994692269856,0.8795395299928556,0.5631554141903673,-4.40702208768383,-70.25632923738894,0.1076,-0.0866
4.972589600016363,0.08966328834598424,-0.2933047058264406,0.879454243750722,1.499552965670385,-4.258941913145356,-73.39351788388221,0.1076,-0.0866
5.028857999946922,0.09587028900707703,-0.3123355197263108,0.8790098355383587,1.10347818463394,-5.291881635365724,-76.12655446499356,0.1076,-0.0866
5.085191100020893,0.09884117180064998,-0.3218392487514082,0.8787499930327352,1.210438344503604,-4.921858939299976,-77.62297159322239,0.1076,-0.0866
5.140148799982853,0.10346662964492817,-0.3385772202603943,0.8779013745618751,1.7510395789051736,-2.93731809825891,-81.2134044756582,0.1076,-0.0866
5.196531199966557,0.10688545183264486,-0.3571891015539064,0.8778897393564916,1.0612602738423866,-2.5273448651727937,-84.09832365304808,0.1076,-0.0866
5.2559659000253305,0.10973096960775994,-0.37619412497406846,0.8777463920462941,1.0373859979310596,-2.2669225177733003,-87.26039749524887,0.1076,-0.0866
5.313150199945085,0.11102130176838147,-0.3865117647508438,0.8792337722865421,1.0347557281663111,-1.3705427087132618,-88.89205290334554,0.1076,-0.0866
5.3851107999216765,0.11162629098769616,-0.40480949416726697,0.8766452634362292,0.8943299154661222,-1.8307496573582636,-91.80040568444126,0.1076,-0.0866
5.4460155999986455,0.11295904714419362,-0.42764440377806556,0.8747747393020219,2.61601590913035,-6.9752862823797175,-94.7673054242898,0.1076,-0.0866
5.505462699919008,0.11034704532393766,-0.4466357403254678,0.8742597680232891,0.6266309029270797,-5.8123530115238315,-98.17270757689461,0.1076,-0.0866
5.560675299959257,0.10823764193167018,-0.46499688221712127,0.8722433594834198,0.47331434085554747,-4.83623452656416,-101.134479307596,0.1076,-0.0866
9.190147300017998,-0.597279021951941,-0.4745098651429379,0.8660002919067618,3.4004323799368557,-3.6129044456112243,93.2836031302612,0.1076,-0.0866
9.257313899928704,-0.5970858017169307,-0.4639782369817682,0.8641300591630651,3.5798621251132436,-3.9404634006659705,91.72046208809083,0.1076,-0.0866
9.313325499999337,-0.5973120638935265,-0.44429057199339395,0.8628498509505229,3.565871908582815,-3.871111702704115,88.5046839857085,0.1076,-0.0866
9.376142199966125,-0.5987392211931432,-0.42612048508190015,0.8652421670464712,3.146477400616372,-4.402638799741764,85.44220196415064,0.1076,-0.0866
9.436240599956363,-0.5991782188440253,-0.4079767717399812,0.8678747953298396,2.6597742837029434,-4.644189957655216,81.99173111558355,0.1076,-0.0866
9.493666999973357,-0.6001570705661144,-0.39968349820852406,0.8707390399256121,2.407418452689829,-4.834923426750674,80.4993988896029,0.1076,-0.0866
9.557142699952237,-0.6018276980695221,-0.3825802349328158,0.8772468190888559,2.381017897932421,-6.376235717068643,77.20136095293422,0.1076,-0.0866
9.63484359998256,-0.5992751271150624,-0.36414498661817885,0.8800842888891265,2.372034765438901,-6.382041606559927,74.02223278870451,0.1076,-0.0866
9.696663399925455,-0.5940903565773239,-0.3449042242410288,0.8801997471684884,2.3758796940911844,-5.891123338250825,70.80313050784379,0.1076,-0.0866
9.757901099976152,-0.5876860833522095,-0.3257005613504369,0.8797208382421016,2.8336407688847234,-5.914063936105923,67.20283465150658,0.1076,-0.0866
9.82401849993039,-0.5793929005789923,-0.3068719563940371,0.8785360183542471,2.3281649478285704,-5.963313690200114,64.08431556835583,0.1076,-0.0866
9.882317899959162,-0.5731401917013346,-0.28929492070538176,0.881761379149312,2.0835931135907435,-6.470810820226679,60.54014466336126,0.1076,-0.0866
15.007966000004672,-0.34422071415362004,-0.10249124010664443,0.6388056913561729,17.601332960129568,-3.830287181196871,13.464522671962213,0.1076,-0.0866
15.085914799943566,-0.32748891033800265,-0.08824183648975104,0.6934916395418693,15.713721192063302,-0.07046858987581553,12.845867842388309,0.1076,-0.0866
15.14790169999469,-0.31966277610649013,-0.08146316082906765,0.7196277852965953,14.312449097418694,1.001212353276363,12.028967502024447,0.1076,-0.0866
15.209963699919172,-0.30316068692141107,-0.07045249859512778,0.7635656665868896,13.426587077926774,2.1776513472544057,10.488256141571473,0.1076,-0.0866
15.286155699985102,-0.2869282708548414,-0.06342069008391664,0.7951642103551808,11.060508762123202,2.879865421532186,10.32725437353468,0.1076,-0.0866
15.360611199983396,-0.2768945429443699,-0.059518876166851066,0.8213259220436837,12.10316235680404,3.522953624911059,8.556691705063395,0.1076,-0.0866
15.424158799927682,-0.2633263767543456,-0.058780933115854646,0.8394797523744457,10.644069058896578,3.8238917254266735,5.48090579572582,0.1076,-0.0866
15.486034899950027,-0.25751443797670065,-0.059912561689841645,0.8465330553738872,9.753288428763174,3.215426948143132,3.857217165836124,0.1076,-0.0866
15.549190399935469,-0.25290148462317624,-0.06522890402785995,0.8489378198622317,10.0563546160156,2.008707582918148,6.014449006217157,0.1076,-0.0866
15.610968999913894,-0.24948095366043754,-0.06682619812361508,0.8480946481832672,9.710733533128645,1.340498212223068,7.00615797233999,0.1076,-0.0866
15.669098899932578,-0.24973658827168738,-0.06659748895151442,0.8518992926154494,10.580332108782807,-0.17777804867106253,4.898466498128331,0.1076,-0.0866
15.732697299914435,-0.24865030643557356,-0.06948037813939241,0.8565030439659337,2.5260515794314093,-6.276131790862013,2.26051615847501,0.1076,-0.0866
15.792858699918725,-0.24968897965044473,-0.07121669656929412,0.8577894581371828,-1.9392130948400692,-11.066120007793234,1.503945854085664,0.1076,-0.0866
15.866779599920847,-0.24869209304638962,-0.0706951370743165,0.8520329401978526,-5.394713214768552,-13.567683568197586,0.5712602547791366,0.1076,-0.0866
15.9305712999776,-0.25030766841286,-0.06934941822898825,0.8508679893985788,-4.750011327515582,-16.462490094570448,-0.7827883188303171,0.1076,-0.0866
15.988817799952812,-0.24872769687595056,-0.06739582503273446,0.8440557397923883,-8.60331760279929,-11.235288485636204,-0.02632638702590952,0.1076,-0.0866
16.047569999936968,-0.25079515084713555,-0.06866021213399738,0.8463337428930627,-8.433654549872395,-9.875083147062488,0.5210831361582575,0.1076,-0.0866
16.109093499951996,-0.2508051748645216,-0.07077712250339642,0.8465248304198805,-8.735299447668462,-9.211181842420594,0.42890595836100287,0.1076,-0.0866
16.171243699966,-0.25252983453445005,-0.07131070812018087,0.8493756325459969,-7.706757609480384,-9.466064456065487,-0.1992168404856576,0.1076,-0.0866
16.229489199933596,-0.25452894110763447,-0.0742527972023297,0.8521601061639278,-8.221815284566826,-9.233661577855584,0.29332351948541024,0.1076,-0.0866
16.28720129991416,-0.2553541469201588,-0.07652030397066757,0.8552923753986805,-7.7275693579879405,-9.709947760663693,0.508002362901395,0.1076,-0.0866
16.362603100016713,-0.25546678036615134,-0.07700379425248065,0.8573259542983527,-6.839564395321672,-8.655640546660862,-0.001254142668526357,0.1076,-0.0866
16.42154439992737,-0.25544210106663495,-0.07760677400078214,0.8589220805609633,-7.564604917414253,-9.297419658293851,0.376520815571842,0.1076,-0.0866
16.495856199995615,-0.2544217022045929,-0.07855304257871659,0.8570102364526833,-7.491041955899114,-6.936119616287174,1.2107367641308873,0.1076,-0.0866
16.56861039996147,-0.25522971075620215,-0.07798063820191747,0.8587635023858392,-7.934811878418083,-7.912894825697377,1.4368278759637105,0.1076,-0.0866
16.643039399990812,-0.2552486724038773,-0.07745276081852553,0.8604055094394684,-7.570858598227162,-7.601241109955666,1.9714900554297117,0.1076,-0.0866
16.705399099970236,-0.2546196424032317,-0.07717384112402716,0.8608375197691048,-7.690383016658482,-8.611162159963056,1.8148351110746292,0.1076,-0.0866
16.76569309993647,-0.25588513367093896,-0.07798696110404169,0.8629326366016968,-7.115041056231516,-10.060555199307002,2.2344152737244567,0.1076,-0.0866
16.830742899910547,-0.25539956898178345,-0.07765604391724355,0.8587985099914552,-8.001914355973364,-8.850942438172508,2.172479481185335,0.1076,-0.0866
16.896108399960212,-0.2560795572205987,-0.07727777834024976,0.8610718676939897,-7.592279575565245,-10.252272246659233,2.0800399707394828,0.1076,-0.0866
16.959671700024046,-0.25612198788983115,-0.0767235542985382,0.8629428862739141,-6.675786648991784,-10.76894301534956,2.018173514765672,0.1076,-0.0866
17.019922900013626,-0.25532350833923184,-0.0766232097084682,0.8615077168814423,-7.522884616719199,-10.60475700398055,1.9787829421475363,0.1076,-0.0866
17.081611300003715,-0.25470413620804255,-0.07638012938210255,0.8618119139127459,-7.1974978072488645,-11.177328692274457,1.296451914307437,0.1076,-0.0866
17.144939100020565,-0.2539580506178241,-0.07635090297433746,0.8609264172248201,15.765387939695103,-24.613868370778434,-0.1875967222293715,0.1076,-0.0866
17.211036099935882,-0.25375479167622017,-0.07625472446821861,0.8600379736908291,15.885390025079898,-24.896170087325782,-0.09197545859958718,0.1076,-0.0866
17.27129279996734,-0.2539733978973067,-0.07664259862966091,0.8588986945683413,-8.161509443307006,-11.202717174790186,1.5148706155890563,0.1076,-0.0866
17.334862199961208,-0.2541396129680592,-0.076722920096978,0.8598748257148545,-7.239399402476923,-10.578534832003347,1.6299270381933504,0.1076,-0.0866
17.39740209991578,-0.25414084970937684,-0.07649841193522046,0.860342340675187,15.479438797431433,-24.012205989719735,0.40799445329562195,0.1076,-0.0866
17.465511200018227,-0.25397127287236154,-0.07645335635450702,0.8597918626198459,15.571916946640107,-24.509386298676816,0.2613453344335126,0.1076,-0.0866
17.528978999936953,-0.2540042194335034,-0.07644754975807173,0.8599440350067817,15.896448703846666,-24.53536788456657,0.2842477338376839,0.1076,-0.0866
17.591709499945864,-0.2538222236135281,-0.07644979077227335,0.8597253621403093,15.911863301489285,-25.17488715067611,0.1079838446025881,0.1076,-0.0866
17.653955699992366,-0.2525374490618571,-0.07691765923057656,0.8595055712153737,-7.976148912042019,-11.321643548739527,2.048521920665182,0.1076,-0.0866
17.716389199951664,-0.25361155298573085,-0.07739760811157914,0.8608732852524195,-7.531110776410542,-10.55922265229072,2.9947679909833913,0.1076,-0.0866
17.779311699909158,-0.2538512821520817,-0.07729754711468831,0.8623627247438259,14.17794237139937,-25.64903329857833,1.760170128020384,0.1076,-0.0866
17.841172299929895,-0.25419427595108807,-0.07718999658869777,0.8629426677313936,13.997367735361847,-25.436227587090634,1.578963769655525,0.1076,-0.0866
17.903546700021252,-0.255532393159676,-0.07714451541146469,0.865517116943397,13.044829417665571,-22.941143332133183,1.3635103766348002,0.1076,-0.0866
17.965189900016412,-0.2556650724809336,-0.07721228711368758,0.8662218174300081,12.77005124200591,-22.68502658832736,1.3927128005567573,0.1076,-0.0866
18.042133699986152,-0.2543884719815171,-0.07704767155094913,0.8618954658417444,-7.417965006643425,-10.735043939256544,2.181634107159577,0.1076,-0.0866
18.104285100009292,-0.25484568396867585,-0.07693755347470949,0.8636007761643844,14.215541510729317,-23.096511501580817,1.119057380935528,0.1076,-0.0866
18.17753069999162,-0.25459554693015635,-0.07685947578055544,0.8627472655437658,14.556106573831837,-23.77859107296836,0.9912949382173216,0.1076,-0.0866
18.236852300004102,-0.25438843814418877,-0.07703041938819763,0.8618269434447536,-7.329728020953362,-10.947604875798534,2.1871416443075513,0.1076,-0.0866
18.31608299992513,-0.25413456770884163,-0.07701982072356346,0.8622497439364684,14.544731602731655,-24.07241796349545,1.5247235244470263,0.1076,-0.0866
18.380169000010937,-0.25418243172940436,-0.07718818358490571,0.862910681069785,13.887981357471734,-23.824136557860808,1.9175037313472707,0.1076,-0.0866
18.443813399993815,-0.2536287267578659,-0.07746211649654067,0.8613607483975515,-6.822117356876788,-10.019638321247994,3.425781880258662,0.1076,-0.0866
18.50584469991736,-0.2529791152335088,-0.07700394091736476,0.8598578404456789,15.110547615443865,-24.685205410137804,2.088984305186906,0.1076,-0.0866
18.571532299974933,-0.2525990732155284,-0.07696048446685938,0.8586105142863412,15.47688944178917,-25.602744577695066,1.8978564126487005,0.1076,-0.0866
18.634417499997653,-0.2531954616535025,-0.07727628023333334,0.8604676863447573,-7.756445957331164,-10.502647185348657,3.2438824841995184,0.1076,-0.0866
18.698560599936172,-0.25334164870174597,-0.07730517775610903,0.8613309480071941,-7.199499487767454,-11.354085448263374,3.0946797791113587,0.1076,-0.0866
18.759789199917577,-0.2542689217674702,-0.07705917826171117,0.8632738547798533,14.204120690753301,-23.685159564911775,1.4665879089102447,0.1076,-0.0866
18.824074000003748,-0.2543616233389284,-0.07711562326446801,0.8614067077050584,-7.5531045788618165,-11.519205574456441,2.450792446258205,0.1076,-0.0866
18.885281199938618,-0.2542919954704947,-0.07708732627261272,0.8611064763846115,-7.308833640956178,-10.32054573625582,2.4145709430619875,0.1076,-0.0866
18.947869999916293,-0.2542910895174795,-0.07708246156945908,0.8611258068956946,-7.5290765512826425,-10.469878510607646,2.353984293913097,0.1076,-0.0866
19.00708399992436,-0.2543542827027322,-0.07710017473531375,0.8612614053452978,-7.683861268649866,-11.045424454898503,2.3760957079656193,0.1076,-0.0866
19.064989499980584,-0.25407539307834387,-0.07699751836329029,0.8603130846267332,-7.908541633536704,-10.552132086767916,2.3009878432205864,0.1076,-0.0866
19.140924699953757,-0.25402960043456013,-0.07698673664055018,0.8601204550807785,-7.894158301451885,-10.071214861984874,2.3240600112876098,0.1076,-0.0866
19.216589299961925,-0.2539983737770341,-0.0769568815443721,0.8600508017741523,-7.7923853889674,-10.018322249805758,2.332813860939829,0.1076,-0.0866
19.278412099927664,-0.2541977258129293,-0.07703303937583808,0.8607526890152806,-7.655289210078237,-10.050774316362695,2.3463622596696023,0.1076,-0.0866
19.342202899977565,-0.2536673863086405,-0.0768438513654589,0.8588628223260698,-8.172735841818612,-9.778652164989724,2.325728643774729,0.1076,-0.0866
19.40618019993417,-0.253903210697197,-0.07694803065346095,0.8597272223595817,-8.159721914661638,-9.970752540914557,2.338102189675196,0.1076,-0.0866
19.47182380000595,-0.2543512572532985,-0.07706622393180436,0.8612501513534121,-7.439270307930261,-10.866222233008617,2.3170741046482703,0.1076,-0.0866
19.534041399951093,-0.2540525070895955,-0.07696794492607045,0.8601942520328013,-7.661155291469657,-10.187151941322055,2.3246738246098877,0.1076,-0.0866
19.5953364999732,-0.2541251369103623,-0.07699622310829683,0.8604898540821961,-7.763192343898728,-10.16846744584198,2.333312904424981,0.1076,-0.0866
19.658654799917713,-0.2537211787554087,-0.07687071767767877,0.8589172369847299,-8.02769624344393,-10.25515697537547,2.2970934908899423,0.1076,-0.0866
19.722979599959217,-0.2538813740770428,-0.07693206870645074,0.8596730937943986,-7.923516189409183,-9.990506842915408,2.297334420299658,0.1076,-0.0866
19.785656200023368,-0.2540641300354592,-0.0769831286088584,0.8602284919531261,-8.38026441582063,-10.459170213494131,2.363135009107347,0.1076,-0.0866
19.84919560002163,-0.2542106027684413,-0.07702932090057638,0.8607846278872042,-7.93713288392567,-11.064168568942009,2.2588723903122383,0.1076,-0.0866
19.913700299919583,-0.25403837129262763,-0.07698029148150104,0.8601547187888527,-8.137645420244883,-10.23147316453511,2.3000616633625963,0.1076,-0.0866
19.97470209992025,-0.25463163436244574,-0.07713198476915203,0.8621379051930086,-7.196080498148066,-11.29227444978574,2.286705243554028,0.1076,-0.0866
20.038324199966155,-0.25444244041997716,-0.07708171767311586,0.8615531974837394,-7.50006181585297,-11.38445755069968,2.286644632462406,0.1076,-0.0866
20.10081699991133,-0.2544991103526453,-0.07710938475136278,0.8616931216410305,-7.7805074547660364,-11.46474591796524,2.3468706956854324,0.1076,-0.0866
20.162874699919485,-0.2538528797087462,-0.0768883668648521,0.859393427561795,-8.49345151720034,-10.586566186045605,2.3053085133624114,0.1076,-0.0866
20.2308707999764,-0.253946070860487,-0.07690744144237649,0.8596119894789163,-8.129809443272862,-10.891980202466288,2.322203781457836,0.1076,-0.0866
20.295364799909294,-0.25464559112675483,-0.07711510890348061,0.8622099767114957,-7.490027918044052,-12.100556515789338,2.3313224776959496,0.1076,-0.0866
20.36260809993837,-0.2542423152336866,-0.07701020070738702,0.860781054484544,-8.001067114094477,-11.961493403692987,2.339309756054619,0.1076,-0.0866
20.429616599925794,-0.2542395027475872,-0.07700274162883414,0.8607716923087781,-7.834473332307647,-11.3325892856111,2.304428850710059,0.1076,-0.0866
20.507412099977955,-0.2549881398239801,-0.07724359442770351,0.8634218035849351,-7.047848017662737,-12.137123314078858,2.297978817573078,0.1076,-0.0866
20.57557360001374,-0.25458203698618126,-0.07710880116130957,0.8619141323226432,-7.583500920638997,-12.518981538355758,2.335197394706449,0.1076,-0.0866
20.635160699952394,-0.25470464251873426,-0.07694605877596117,0.86278121244933,14.64327788293812,-23.71123205415005,1.233905807373068,0.1076,-0.0866
20.698817999917082,-0.2548162362960548,-0.07718159325721968,0.862811374440359,-7.433351498023841,-12.200566447527853,2.3781306520260608,0.1076,-0.0866
20.764446399989538,-0.25424530541077645,-0.07701735548560476,0.8608406870120171,-7.791133772706128,-10.24702110358968,2.252482571262908,0.1076,-0.0866
20.825347399921156,-0.2541382525873381,-0.07700038809183066,0.8604467089360643,-7.962995368242192,-10.50196598953601,2.34783553840891,0.1076,-0.0866
20.8859841999365,-0.25451858898347685,-0.07710697830816814,0.8618223081049778,-7.776978052470199,-11.319437327620463,2.3875305792937116,0.1076,-0.0866
20.947316900012083,-0.25436981674211134,-0.07706651243970689,0.8612714826701796,-7.7352544154449845,-10.432491123722864,2.279081337988547,0.1076,-0.0866
21.011365399928764,-0.25452550245899713,-0.07711568012372155,0.8619173354782942,-7.491669677891095,-11.004452408603974,2.3015388859678265,0.1076,-0.0866
21.07453240000177,-0.25448672389417487,-0.07709817598008706,0.8617510010581177,-7.625398469780459,-11.418009853556857,2.3685775817477324,0.1076,-0.0866
21.13638479996007,-0.2546577299743259,-0.07715287797574462,0.8623692786843115,-7.27521412837465,-11.353918153524969,2.3353076970683566,0.1076,-0.0866
21.197901099920273,-0.2545421464801198,-0.0771106441482381,0.8619629539833702,-7.264437266171552,-10.94640288601164,2.3276069875531484,0.1076,-0.0866
21.2587328000227,-0.2544063740465573,-0.07707200513900468,0.8614871865594985,-7.2387649971380625,-10.525038941139991,2.2708087324357655,0.1076,-0.0866
21.320426399935968,-0.2539974911537251,-0.07693542587155311,0.8600595280043583,-7.946501373751959,-10.544591707237556,2.3291972716572835,0.1076,-0.0866
21.38123059994541,-0.25502195008782425,-0.07721836070219912,0.8635900091737619,-6.247319280563301,-12.780446977691685,2.4348119162904607,0.1076,-0.0866
21.44199620001018,-0.2541815005173467,-0.0769919916335113,0.8606734105387963,-7.369114909139875,-10.959995715189843,2.31483599777187,0.1076,-0.0866
21.518839399912395,-0.25402846286943526,-0.07694142958233616,0.860140262000449,-7.382900413460334,-10.358242730192808,2.2565387975277664,0.1076,-0.0866
21.598509799921885,-0.25392767122594456,-0.07690765502544347,0.8598018143413788,-6.786347288801708,-9.079082029436579,2.240832497723415,0.1076,-0.0866
21.66219139995519,-0.25483741169563673,-0.07717870644307633,0.8630387284022626,-6.085690906852656,-12.037269567266481,2.4008899473030922,0.1076,-0.0866
21.725749099976383,-0.25454066231695555,-0.07711819863734212,0.8620702862596665,-6.301495286582631,-11.140019486807281,2.3848024668964958,0.1076,-0.0866
21.78822480002418,-0.25374085068885266,-0.07691466581003631,0.8593000185707462,-7.365098402876791,-9.371837556476803,2.3161900028266764,0.1076,-0.0866
21.855576499947347,-0.2541293363640407,-0.07700124266713368,0.8606164494011636,-6.821670625889672,-10.325968766720417,2.3394139618313137,0.1076,-0.0866
21.920982399955392,-0.2540336066664336,-0.07678479250075204,0.8608018682375298,14.355627516045317,-24.104012554834178,1.1385037432671214,0.1076,-0.0866
21.99298929993529,-0.25443490758981585,-0.07708889286393864,0.8617305946897581,-6.553328713941069,-11.196012049934106,2.3931335975667354,0.1076,-0.0866
22.055275599937886,-0.2543821806842278,-0.07707580611795198,0.8615015693976931,-6.522522417869211,-11.681468576851117,2.387538134426719,0.1076,-0.0866
22.1198564999504,-0.25370122332769174,-0.07686960801186432,0.8591618560824001,-7.220532873603031,-10.062432783633898,2.283947876271722,0.1076,-0.0866
22.189334399998188,-0.254354494620288,-0.07704800345107708,0.8614148324568306,-6.811311346573002,-12.015504543454533,2.427861258408519,0.1076,-0.0866
22.25250209996011,-0.25384046073281263,-0.07669945969713851,0.8600973102381477,14.622985958637141,-24.261137010445402,1.1999670193862004,0.1076,-0.0866
22.319564300007187,-0.25342110999501355,-0.07678871131112253,0.858182248884741,-7.54518861355652,-10.036578405356769,2.3500195700684277,0.1076,-0.0866
22.386238000006415,-0.25433481733652347,-0.07703450671656038,0.8613268982547624,-6.7728645117895505,-11.887723697724017,2.418880485052099,0.1076,-0.0866
22.452883999911137,-0.253786210501206,-0.0768843655866162,0.8594758629231543,-7.7219206030279945,-10.58179366860064,2.392057473024021,0.1076,-0.0866
22.524136599968188,-0.25421777157051106,-0.0770135136346093,0.8608921870045232,-6.830387848176457,-11.658047228500548,2.40332852528875,0.1076,-0.0866
22.59223499998916,-0.25425674090531647,-0.07700697015968339,0.8609937462948491,-7.030339877803487,-11.256554336361882,2.362206536204784,0.1076,-0.0866
22.658377600018866,-0.2541013959445075,-0.07676240932073838,0.8609344452968033,14.440841308444517,-24.113916383892246,1.198632611016021,0.1076,-0.0866
22.725872099981643,-0.2545161680132752,-0.07710244247508677,0.8619120444321229,-6.671911221334788,-11.476234217304391,2.3963603948290126,0.1076,-0.0866
22.791607199935243,-0.25448431612245215,-0.0770838335130435,0.8617986926939797,-6.7214037742052275,-11.243372275426571,2.3745116296578432,0.1076,-0.0866
22.856519200024195,-0.2546113070112095,-0.07714484106708008,0.8622792081275552,-6.6642866008713515,-12.220166124029578,2.3723764358539072,0.1076,-0.0866
22.921399099985138,-0.2545706901867153,-0.07713837353410623,0.8621411687131776,-6.240172078742705,-11.330046890917291,2.3891205078883306,0.1076,-0.0866
22.987280900008045,-0.2538929399629226,-0.0769584943613034,0.8598144148180185,-6.932416634696845,-9.893964292167173,2.321901817527045,0.1076,-0.0866
23.051182699971832,-0.254257728721492,-0.07705165616829668,0.8611105862361093,-6.487094180285234,-10.73604813998679,2.3306546111322715,0.1076,-0.0866
23.114707099972293,-0.25413872392447023,-0.07704136269807246,0.8607450496226936,-6.989452948439951,-10.98604489780802,2.3383227123963946,0.1076,-0.0866
23.178112800000235,-0.2544100965331109,-0.07711804887399046,0.8616393603595566,-6.287302359834323,-11.683345897079489,2.3780068339767726,0.1076,-0.0866
23.238577499985695,-0.2544970185701809,-0.07695770879663656,0.8623744745897773,13.932719032618644,-23.451819651789602,1.3486443227201699,0.1076,-0.0866
23.309079099912196,-0.2544303749504302,-0.07714223337996205,0.8617589659199625,-6.7695169555699,-11.086890389825184,2.393649042124108,0.1076,-0.0866
23.382853399962187,-0.2538053029157524,-0.07696255146459845,0.8595537310798158,-7.2327951082212145,-9.831378840882374,2.324081168743366,0.1076,-0.0866
23.457864700001664,-0.25457484813627373,-0.07717570166902943,0.8622237559244096,-6.739396751942252,-11.471311809723623,2.3133133704451248,0.1076,-0.0866
23.531681300024502,-0.25503931668129926,-0.07730853402051503,0.863805928619432,-6.245373988639124,-11.795473400727884,2.40197729234729,0.1076,-0.0866
23.605754500022158,-0.2551599044682634,-0.07734534869395347,0.8642103177697975,-6.222668360367203,-12.05847711877529,2.421623064296784,0.1076,-0.0866
23.681796799995936,-0.2544798397366057,-0.07716473046535645,0.8619472440602525,-7.0698557249451275,-10.637765801864779,2.303521944200058,0.1076,-0.0866
23.757035900023766,-0.2544976593575224,-0.07715840316240391,0.8619339422242792,-6.866368829481753,-10.268670257897412,2.3016776119041893,0.1076,-0.0866
23.831160599947907,-0.2542780418782577,-0.07709628127096163,0.8611777152019933,-6.966304491706513,-9.50654489353386,2.274628821392102,0.1076,-0.0866
23.906808099942282,-0.2552746151020849,-0.07737124780417715,0.8645653769021076,-5.503053640966767,-11.131757284229966,2.358814051422581,0.1076,-0.0866
23.98178269993514,-0.25468375470125426,-0.07721197813331647,0.8625649653923322,-7.00174447979026,-11.052770837633075,2.3015347061180327,0.1076,-0.0866
24.057306599919684,-0.255082912782996,-0.0771536610610409,0.8643757557509999,13.827275930670197,-22.91357172352022,1.4155552145709942,0.1076,-0.0866
24.130842700018547,-0.2547071407923272,-0.07721901847901651,0.8626949411778893,-6.993186938197281,-11.077623373128727,2.320895599018248,0.1076,-0.0866
24.203302399953827,-0.2542653860190012,-0.07709188921028517,0.861143251997951,-7.437627206207657,-10.068506140238743,2.2737786592379705,0.1076,-0.0866
24.272138500004075,-0.2545170164475833,-0.07715581327287123,0.8620140844651963,-7.091798584307037,-10.385498293477887,2.304631533407204,0.1076,-0.0866
24.365250999922864,-0.25485559814173503,-0.07726786298092209,0.8631356951241875,-6.7070008285919,-10.703126685512942,2.355228712743231,0.1076,-0.0866
24.44067709997762,-0.2544721251096343,-0.0771539692181542,0.8618301109540667,-7.196810551816955,-10.269317925295386,2.2701763730472875,0.1076,-0.0866
24.515439599985257,-0.2550112683412572,-0.0773230072185843,0.863760268867544,-6.753552958298022,-11.704587996955997,2.35030872134464,0.1076,-0.0866
24.59188500000164,-0.25451424437243886,-0.07713782519452167,0.8619840472301493,-7.043581893878184,-10.445415563233404,2.3109938876753406,0.1076,-0.0866
24.67272759997286,-0.25511166404458546,-0.07731431168816036,0.8640631981411289,-6.516114146522895,-12.225547838606193,2.3260298477998416,0.1076,-0.0866
24.74410120001994,-0.2552470441752295,-0.07737769081120435,0.8645705878294885,-6.385173118391555,-12.565185653844557,2.3636610960088036,0.1076,-0.0866
24.820896200020798,-0.2544361800373053,-0.07713949101376373,0.861716549762158,-7.22708890588592,-10.2504406223559,2.281296949074102,0.1076,-0.0866
24.89743529993575,-0.2548854605525185,-0.07729166480475715,0.8633470576948059,-6.656325916995938,-11.100615913838432,2.3457149159672306,0.1076,-0.0866
24.970408999943174,-0.25478988136870334,-0.07726266551397791,0.863002729836676,-6.515617595284071,-10.410631775304774,2.2669254414307636,0.1076,-0.0866
25.04406470002141,-0.2551146517487153,-0.0773535152374122,0.8640748071797794,-6.221136906241378,-10.914092160801095,2.346825595231777,0.1076,-0.0866
25.119446499971673,-0.254430214931465,-0.0771305623853839,0.861619595029451,-7.028457735564259,-9.36415725364712,2.264906913143667,0.1076,-0.0866
25.1946882000193,-0.2546977680785902,-0.07722583155060694,0.8626339358306108,-7.004490474912063,-11.059171324567028,2.267639938976244,0.1076,-0.0866
25.269945099949837,-0.2548408234043258,-0.07725604636702899,0.8631238634358875,-6.717280167335646,-11.13138959714543,2.295428443199311,0.1076,-0.0866
25.337140699964948,-0.2542479677681472,-0.07707750734422422,0.8610425780020229,-7.170896224495898,-9.47528565896281,2.240447830125516,0.1076,-0.0866
25.42929030000232,-0.2548413610764074,-0.07726864426369592,0.863137429284041,-6.831177240952248,-11.39846966467311,2.31111944082838,0.1076,-0.0866
25.50057759997435,-0.2548121265453261,-0.077249935002459,0.8630591965495694,-6.732890602083494,-11.161145815399884,2.3293471680492823,0.1076,-0.0866
25.5709112000186,-0.254586732053132,-0.07721161598905261,0.8622692984790454,-6.826327032896336,-10.515543495790325,2.319545778672107,0.1076,-0.0866
25.653295599971898,-0.2549917784619502,-0.07730682229169764,0.8636777787952703,-6.598251621634192,-11.33084003910556,2.359588186484555,0.1076,-0.0866
25.72825099993497,-0.25492815312631845,-0.07729794983484972,0.8634720992154703,-6.595271976605076,-10.981071125456024,2.3506664300420312,0.1076,-0.0866
25.800726899993606,-0.25503922621083713,-0.07737441290584024,0.8639446978193408,-6.086136413069762,-11.019370628632974,2.3489910404634147,0.1076,-0.0866
25.875306600006297,-0.25520463984336433,-0.07723846040601585,0.8648472135326858,13.67397157060056,-23.207114437633145,1.381860166465968,0.1076,-0.0866
25.950043799937703,-0.25460903076515434,-0.07725471503257313,0.8624425158940878,-7.1101773753549775,-10.720944008613403,2.3636878752432215,0.1076,-0.0866
26.022425499977544,-0.25471069789906037,-0.07726553596066672,0.8627930299893444,-6.246605411796183,-9.969146378993296,2.362476605811779,0.1076,-0.0866
26.093366999994032,-0.25504021109212405,-0.07736626559128043,0.8639233633088459,-5.929967259635722,-10.759016263316564,2.3935159177224308,0.1076,-0.0866
26.16760439996142,-0.2546811454199914,-0.07722236997533095,0.8625550838253503,-6.613142015229228,-10.216263181069241,2.325512486179863,0.1076,-0.0866
26.240800199913792,-0.25505508845327163,-0.07734854317605792,0.8639416890407445,-6.172279462720649,-11.153793901749276,2.3229649646199575,0.1076,-0.0866
26.314498399966396,-0.25522202402056043,-0.0773992761265611,0.8645192741793036,-6.320121642138591,-12.064536255534971,2.3947892638696855,0.1076,-0.0866
26.392148899962194,-0.254660684414011,-0.07723459380560052,0.8625580200847212,-6.927517062627207,-10.698778499654141,2.2899157810022777,0.1076,-0.0866
26.467624599928968,-0.2548549236241541,-0.07729471434940469,0.8632402324196369,-6.665130166363976,-10.8073280008479,2.311644140273442,0.1076,-0.0866
26.542339299921878,-0.25475411712192186,-0.07726822415044378,0.8628983346366863,-6.471199518499306,-10.323121158964854,2.295041031893879,0.1076,-0.0866
26.619214099948294,-0.2546356079007017,-0.07724894572889722,0.8624924655688265,-6.637795577855067,-10.472864355586111,2.3587548229937467,0.1076,-0.0866
26.697346100001596,-0.25507407455030906,-0.07736792373841697,0.864002670575966,-6.148807401730332,-10.776888954446079,2.3501178906403344,0.1076,-0.0866
26.774854199960828,-0.25458437438940557,-0.07725113511078871,0.8623595967264197,-7.10611777903079,-10.768508538443294,2.3547606717353182,0.1076,-0.0866
26.848645700025372,-0.25525582939696123,-0.0774365261519117,0.8646693182775644,-5.632462858584189,-10.772585913466393,2.4152649817775336,0.1076,-0.0866
26.923217099974863,-0.2551545086259471,-0.07742417522814925,0.8643535528194008,-6.288705415292078,-11.42880127653723,2.3666457982019,0.1076,-0.0866
26.99955890001729,-0.255357356151087,-0.07748826435683678,0.8650167747513817,-5.541552755706879,-11.668294441392405,2.380740822062925,0.1076,-0.0866
27.082321499940008,-0.2547631357153463,-0.07729077229767002,0.8629459164780041,-6.475711971414579,-10.255645609707472,2.3095106102382803,0.1076,-0.0866
27.155548200011253,-0.25485449347808303,-0.07731121902334212,0.8632532157014514,-6.486730915734273,-10.587837166329136,2.3363005456306554,0.1076,-0.0866
27.23232559999451,-0.2550221956297674,-0.07736062439575213,0.8638711954653814,-6.062939534532469,-10.564116290780234,2.238636286768078,0.1076,-0.0866
27.308527900022455,-0.25448715061957694,-0.07719746860483963,0.8620202530476989,-6.585574463152794,-9.582076566351327,2.2815530825667167,0.1076,-0.0866
27.384017599979416,-0.2551223693215449,-0.07737939277008732,0.8641703135736029,-6.4336464291838515,-11.310090541061236,2.361828888407728,0.1076,-0.0866
27.460575499921106,-0.25464322139390067,-0.07722247160587657,0.8624935633729254,-6.635030378154616,-9.85829171771299,2.267747548796948,0.1076,-0.0866
27.53286959999241,-0.2546602711385468,-0.07722523130122298,0.8625097190223622,-6.793932175069057,-10.099874911327372,2.2693923526544166,0.1076,-0.0866
27.604251899989322,-0.25478506804130086,-0.07727116663665987,0.8630265167526607,-6.73773247649127,-10.48290853145349,2.2782887665658027,0.1076,-0.0866
27.67698499991093,-0.25474081472029414,-0.07724389333222033,0.8628127026343511,-7.002996575529261,-10.890695884903009,2.2551616937039327,0.1076,-0.0866
27.7475280999206,-0.25518855688147407,-0.07738445836085042,0.8644399762143529,-6.140253888405805,-11.474459492305527,2.319228708930381,0.1076,-0.0866
27.819462599931285,-0.254465239470575,-0.07716304698471468,0.8619032969043385,-7.008320392652734,-9.715658380056851,2.2793095163620056,0.1076,-0.0866
27.88611329998821,-0.25449200480929923,-0.07717282635529465,0.8619477354291836,-7.081613259571348,-9.623918919506343,2.26162180433455,0.1076,-0.0866
27.959925399976783,-0.25486454838843764,-0.07729958672990918,0.8632585011629329,-6.560564404524062,-10.400968647352926,2.317436823549593,0.1076,-0.0866
28.029981200001203,-0.2548025329694031,-0.07727232314648808,0.8631188780388359,-6.755351017127676,-10.4361849927905,2.2846406416984117,0.1076,-0.0866
28.098405899945647,-0.25506554555782385,-0.07737876077766082,0.8640014221862093,-6.521945476462641,-10.908004193866224,2.268114636949555,0.1076,-0.0866
28.16822529991623,-0.2545857001868171,-0.07720865226396675,0.8623158894402584,-6.787664983948097,-10.022539312501314,2.2085795536424557,0.1076,-0.0866
28.238336500013247,-0.255498460466031,-0.07751076221611769,0.8655293519967205,-5.6535970294882665,-11.401059087314007,2.343228384637874,0.1076,-0.0866
28.30836929997895,-0.25446720185149935,-0.07719456884362554,0.861958033456618,-7.073306867664506,-9.851699673978429,2.3221028647412174,0.1076,-0.0866
28.37846909998916,-0.25501973556299107,-0.07734385303857931,0.863816109776747,-6.316207646444896,-10.753340756731145,2.3234711417578606,0.1076,-0.0866
28.448783100000583,-0.2547187604094544,-0.07724828141190984,0.8628458091450422,-6.564837918377776,-10.184865043831673,2.343729841765344,0.1076,-0.0866
28.51690389995929,-0.25500791760697555,-0.07731017650635043,0.8637706807822936,-5.951959615512821,-10.11750863243485,2.332285579742803,0.1076,-0.0866
28.583122599986382,-0.25517421147913616,-0.0773947218005018,0.8643505137916729,-6.165280289014965,-11.012675992857789,2.24148193366112,0.1076,-0.0866
28.656044099945575,-0.2551870848824979,-0.07739378746599515,0.8644325355350833,-6.093039468988864,-12.081159367571814,2.374700619645544,0.1076,-0.0866
28.728213700000197,-0.2545106551542792,-0.07718113403768265,0.8619968943157272,-6.583293529978973,-9.65661935253885,2.2878173926782766,0.1076,-0.0866
28.795184599934146,-0.25456188905229327,-0.07720205827101294,0.8622568801568143,-6.723911123893868,-10.529231427405804,2.3260477695850468,0.1076,-0.0866
28.882264800020494,-0.2550442746329016,-0.07733886688021549,0.86387152062259,-6.030375134497782,-10.969208802472027,2.326492068253938,0.1076,-0.0866
28.953223099932075,-0.2553161331125508,-0.07743524414396036,0.8648536252672124,-5.697628706066252,-11.593089686304998,2.3590727995272482,0.1076,-0.0866
29.020653999992646,-0.25493834052070985,-0.0773348770657336,0.8635816162239572,-6.211663845442686,-11.981640691327684,2.4350438740869214,0.1076,-0.0866
29.107823899947107,-0.2550630223366131,-0.07734876131671542,0.8640159894275544,-5.998311229464846,-11.348331858359511,2.3588229100975497,0.1076,-0.0866
29.175867300014943,-0.254746830039646,-0.07726283624498877,0.8629373132731746,-6.522721005390177,-11.102285743135749,2.3941107554177425,0.1076,-0.0866
29.250364399980754,-0.2548217738179349,-0.07728829359100708,0.8631760560613088,-6.1412884328098425,-9.988328827219672,2.3630412940787355,0.1076,-0.0866
29.322828199947253,-0.25474602270198565,-0.07726560585885664,0.862903565089166,-6.421258090609767,-10.516751916070284,2.311558421947832,0.1076,-0.0866
29.414100599940866,-0.2542430895897583,-0.07710421841953599,0.8611201797882582,-6.842936192582631,-9.394506721427897,2.2978015416391964,0.1076,-0.0866
29.486022099968977,-0.25505733119502977,-0.07734969704983678,0.8640113121926113,-6.352713223580549,-11.598526752738136,2.35533659387339,0.1076,-0.0866
29.55773160001263,-0.2544648181744721,-0.0771780651128526,0.86189567871649,-7.005779167804291,-10.22585999246127,2.311330704123582,0.1076,-0.0866
29.629792099935003,-0.255232974378265,-0.07722121389967931,0.8649926182184611,13.579866711995567,-23.021472117754286,1.3897665570433757,0.1076,-0.0866
29.702367499936372,-0.25518959079475007,-0.0773872470672158,0.864434294773274,-6.208098228558745,-11.8180111285614,2.36247901649277,0.1076,-0.0866
29.792754799942486,-0.2551575285657449,-0.07719790105891403,0.8647771147120363,13.785622529606192,-23.32335575868653,1.3415834716652506,0.1076,-0.0866
29.8641978999367,-0.2548910882590689,-0.07729675387357869,0.8634134178273729,-6.087121790951387,-9.640619276442125,2.3145764494310486,0.1076,-0.0866
29.938439899939112,-0.25505031931641226,-0.07735905093631401,0.8639232977657079,-6.604527288767034,-11.114293827583733,2.3072268022041413,0.1076,-0.0866
30.01024949993007,-0.2549819564443502,-0.0773444232594117,0.8637314354686787,-6.479852759073175,-11.04073296516106,2.3613412014290125,0.1076,-0.0866
30.084305799915455,-0.25455181467478893,-0.07721621738888611,0.8621673238458484,-6.790146762752179,-9.755320233332455,2.2487046481314885,0.1076,-0.0866
30.1569703000132,-0.2551348562151647,-0.07737287132700878,0.8642136408370925,-6.19638270691132,-10.895709218884603,2.3239913364776004,0.1076,-0.0866
30.231327599962242,-0.25492774790695005,-0.07729551367057372,0.8634919253473139,-6.316995018989168,-10.69876086822127,2.2581496697203134,0.1076,-0.0866
30.30412979994435,-0.2548541757764757,-0.07729429918351183,0.8632976993735022,-6.387417742525538,-10.506791381991539,2.339543719262154,0.1076,-0.0866
30.37975879991427,-0.254905566880314,-0.07730551298406048,0.8634065203275522,-6.394012445262354,-10.22020841821533,2.3617403074390286,0.1076,-0.0866
30.4548599999398,-0.2552730693596312,-0.07741715274334615,0.8647365398250989,-6.108653508558387,-11.88688579777939,2.3352933436326895,0.1076,-0.0866
30.532160899951123,-0.2546652667342251,-0.07724553504909336,0.8626138220168269,-6.285294107768131,-9.762814611155708,2.2950939658429013,0.1076,-0.0866
30.600246099988,-0.25487358260824533,-0.07729996443708373,0.863301377108113,-6.47165913880035,-10.402109977008193,2.3140869074881696,0.1076,-0.0866
30.674818399944343,-0.2550452048635672,-0.07734633500214291,0.8639247043070495,-6.210216688258071,-11.135010210918724,2.2873413062082233,0.1076,-0.0866
30.769397199968807,-0.25463436503543446,-0.0772291462902555,0.8625004023047684,-6.605828549159817,-9.713016416228966,2.3054142725757583,0.1076,-0.0866
30.84281269996427,-0.2551502620511592,-0.07737922978389201,0.8642824178358278,-6.0759695278356,-11.140422496999378,2.3090864096599533,0.1076,-0.0866
30.91405349993147,-0.2548494208887068,-0.07728494253545411,0.8632596747948267,-6.143741828654206,-10.320405939638437,2.315465291191406,0.1076,-0.0866
30.98842449998483,-0.25522416998582054,-0.07741691341743781,0.86464832756206,-5.98698685225019,-12.163887512611094,2.4128105397923374,0.1076,-0.0866
31.062514699995518,-0.2553042656214585,-0.0774180857991368,0.8647352690072196,-5.599652748559575,-11.093894919643768,2.330952148493606,0.1076,-0.0866
31.138035299954936,-0.25447309744653124,-0.07717887665075435,0.8618448576678761,-6.680701061149128,-9.887916313987766,2.289700606375976,0.1076,-0.0866
31.20658429991454,-0.2542583079129726,-0.07708242493987973,0.8609572065120255,-7.401217930613399,-10.337078568498391,2.2450376880724003,0.1076,-0.0866
31.27774990000762,-0.25403019704821966,-0.07702822629955469,0.8602090760481884,-7.475701250807718,-9.967610103611703,2.2211640401978974,0.1076,-0.0866
31.348490500007756,-0.2537873340904784,-0.07689811631475692,0.8592174778207872,-7.650164470450681,-9.304273720828421,2.2334892864610407,0.1076,-0.0866
31.420781799941324,-0.2547418821491967,-0.07716454214128021,0.8625221132999479,-6.867663043890602,-11.42418236703986,2.2149620262899306,0.1076,-0.0866
31.49217929993756,-0.2546208447746025,-0.07710383960695183,0.8620282326382303,-6.973171383037562,-11.092700852044455,2.2388259645977064,0.1076,-0.0866
31.564737899927422,-0.2542786270549556,-0.07702952072111487,0.860964409671018,-7.20697890167124,-10.33454725829023,2.214148348233176,0.1076,-0.0866
31.638140699942596,-0.2542506397128742,-0.07701653450731277,0.8608489269954301,-7.49548857188929,-10.42100130568724,2.29187325469366,0.1076,-0.0866
31.729735799948685,-0.2544502551277469,-0.0770717113503555,0.8614939104023608,-7.236681997110329,-10.554231226547806,2.2785856409791427,0.1076,-0.0866
31.803900299943052,-0.2542553532972269,-0.07706455881713821,0.860957078729671,-7.0567750889321,-9.220997026465536,2.2292410699643166,0.1076,-0.0866
31.873846799950115,-0.25465646541675946,-0.0771868401098712,0.8624169681432339,-7.021099042169359,-10.836749214420433,2.2559211925022167,0.1076,-0.0866
31.942865899996832,-0.25437572823719495,-0.07708784428885511,0.8613681773962657,-7.104465623837135,-9.729965555645927,2.2354140411557704,0.1076,-0.0866
32.03215300000738,-0.2547671444008447,-0.07725653374982647,0.86284430533912,-6.963154639071998,-11.004841408093942,2.2340881701537514,0.1076,-0.0866
32.10242289991584,-0.25470078995191425,-0.07725798717852352,0.8627126506811785,-6.73248107652984,-10.065679692181181,2.259309411615334,0.1076,-0.0866
32.17069870000705,-0.25456010965412645,-0.07718534281636329,0.8621260886360843,-6.897234741553171,-9.878638316310644,2.244771893713668,0.1076,-0.0866
32.260664199944586,-0.2551392508932763,-0.07736159872283421,0.8642687211430352,-6.27860746147314,-11.000685045710117,2.336269977394207,0.1076,-0.0866
32.32033319992479,-0.25486760190406527,-0.07728511859146917,0.863353824087463,-6.291790334433012,-9.814261101545922,2.2838926009437372,0.1076,-0.0866
32.376821500016376,-0.2550184592191945,-0.07731457262182245,0.8637463700925154,-6.009302192172354,-10.59687315193891,2.318559873331297,0.1076,-0.0866
32.4456640999997,-0.2544919072642877,-0.07714533309342364,0.8618676652437286,-6.955475031098383,-9.83789086893697,2.2230303419546957,0.1076,-0.0866
32.50244519999251,-0.2546849830413471,-0.07723933706590735,0.8626835840967284,-6.4186968246410165,-9.68317970513987,2.268296488645598,0.1076,-0.0866
32.57188329997007,-0.254792058159506,-0.07726538541396633,0.8630743787286786,-6.864131072349642,-10.750865182620787,2.3432047892099517,0.1076,-0.0866
32.62794759997632,-0.25434485719939487,-0.07711996305897048,0.8614102078247785,-6.99901833061258,-9.390125837723815,2.2123299487210946,0.1076,-0.0866
32.68326590000652,-0.25449775306026845,-0.07718222086191115,0.8619873340027141,-6.686848029995204,-9.908098560619475,2.3115702864545247,0.1076,-0.0866
32.73956159991212,-0.2551268947620019,-0.07737777335990147,0.8642759167064187,-5.859475436492883,-10.715380971962354,2.3859407528157304,0.1076,-0.0866
32.799899699981324,-0.25511274091078445,-0.07737968844699271,0.8642680144618804,-5.928906109107332,-11.09288731661931,2.361292587046033,0.1076,-0.0866
32.85889029991813,-0.2544788210680092,-0.07718030483004197,0.8619793725309554,-6.249131035138587,-8.926197225599218,2.2991690736754675,0.1076,-0.0866
32.9241967999842,-0.25447699192909756,-0.07717528428216634,0.8619502472359466,-7.109048463746488,-10.584227487798513,2.2790362800711637,0.1076,-0.0866
32.980980499996804,-0.2551009429683395,-0.07737140993391711,0.8641352816321444,-6.149444289638374,-11.542960370130276,2.368110361066945,0.1076,-0.0866
33.05256889993325,-0.25516309205272975,-0.07741438163083342,0.8644028625116225,-6.015966694107588,-11.793013102778438,2.35650293643264,0.1076,-0.0866
33.112364599946886,-0.2548538757452517,-0.07731664385870536,0.8632818257555072,-6.351718502798955,-10.927217441122112,2.3057518202207117,0.1076,-0.0866
33.173736099968664,-0.25419271113534636,-0.07709919504219344,0.8609214607523662,-7.246730175956158,-9.893946393463317,2.273669892602574,0.1076,-0.0866
33.23494210001081,-0.2549502493520996,-0.0773254309260395,0.8635645691270517,-6.273019146085678,-11.049757444371089,2.320595759231831,0.1076,-0.0866
33.29438289999962,-0.25546331289070323,-0.07747813780174834,0.8654726197534476,-5.765067458826342,-11.886630207528615,2.3738038784971542,0.1076,-0.0866
33.35302109993063,-0.25520594710696026,-0.0774116857867672,0.864542814275336,-6.067897520706401,-11.851296987164814,2.3816799492292753,0.1076,-0.0866
33.41547649994027,-0.25474953598908534,-0.07725708513851401,0.8628863626436458,-6.432010356246916,-10.38305926624925,2.3314127320836673,0.1076,-0.0866
33.47494529990945,-0.2541199843260999,-0.07707801975611644,0.8606738796373418,-7.1840832926035185,-9.41819158088523,2.275527461665958,0.1076,-0.0866
33.53413929999806,-0.25467139924525223,-0.07722832595523632,0.8626318135560528,-6.560791871149724,-10.552431406300366,2.3276116745319615,0.1076,-0.0866
33.612017299979925,-0.25501557795390045,-0.07732018022487352,0.8637962213345138,-5.641879274038377,-10.663269871234682,2.371426773485577,0.1076,-0.0866
33.66887779999524,-0.2546811765782901,-0.07724381787972746,0.8626573536131841,-6.521846283822676,-10.78067288878029,2.32994652225627,0.1076,-0.0866
33.73213739995845,-0.2546382079336834,-0.0772259732280342,0.8624485161556246,-6.654839497353486,-10.967226022621013,2.3476355549118173,0.1076,-0.0866
33.792191899963655,-0.25531294636378704,-0.07742645735381737,0.8648778591976325,-5.35875406324425,-10.986456872520625,2.338131799262713,0.1076,-0.0866
33.850949899991974,-0.2545167386003453,-0.0771959854148086,0.8620889193856432,-6.640103296575422,-10.256827837886627,2.339106623777942,0.1076,-0.0866
33.90986809995957,-0.2547142869516578,-0.07725382801649147,0.8627627764137911,-6.532203223180594,-10.959826259227626,2.3721952434250793,0.1076,-0.0866
33.981688499916345,-0.25483569893094377,-0.07730754592301839,0.8632311237739688,-6.143839931741677,-10.729028655150334,2.3624610017906456,0.1076,-0.0866
34.039881599950604,-0.2549517811297029,-0.07733317896770102,0.8636919679792305,-6.28269302456347,-11.937526680378074,2.410244274379932,0.1076,-0.0866
34.09953919996042,-0.25461252006993823,-0.07723341395866826,0.8624337400722041,-6.432958788160386,-10.063536301401738,2.3557201593038455,0.1076,-0.0866
34.16904029995203,-0.2544790644254451,-0.07717890027220253,0.8619294756718048,-6.424683186250096,-9.735186851148068,2.322278379105951,0.1076,-0.0866
34.22840129991528,-0.25478746205866276,-0.07726047183597413,0.8630248505828193,-6.057711075168093,-10.863164639238224,2.3780213557890035,0.1076,-0.0866
34.28755619993899,-0.2549024073030707,-0.07733618473690329,0.8634742415338146,-5.931219568587242,-10.791062821195656,2.3393420739957005,0.1076,-0.0866
34.34414259996265,-0.25536723051139343,-0.07746750075528731,0.8651380441790034,-5.643766014210877,-12.215220908646797,2.394942148451809,0.1076,-0.0866
34.40480609994847,-0.25414454828904076,-0.07707251474981729,0.8607498205016774,-6.687259575392242,-9.250026657326174,2.289317642354059,0.1076,-0.0866
34.46644129999913,-0.25465313696150316,-0.07724573204029969,0.8625466614385133,-6.256614950533758,-9.850673959791111,2.344452840086369,0.1076,-0.0866
34.52239219995681,-0.2556014293452009,-0.07752501216328624,0.8658869565287618,-5.189684224335736,-12.063936832706656,2.391241697465349,0.1076,-0.0866
34.57872390002012,-0.2548105548440769,-0.07727909781521561,0.863129619934759,-6.410115346936183,-11.03777960030232,2.3660919237109415,0.1076,-0.0866
34.63309879996814,-0.254770997556472,-0.07726787083309497,0.8629918792202499,-6.322665483453402,-10.687352485025503,2.342507113824063,0.1076,-0.0866
34.705839599948376,-0.2546269232878039,-0.07721957654805886,0.8624618972080281,-6.126100251517097,-9.844868312125616,2.2947032676231136,0.1076,-0.0866
34.76532110001426,-0.2551309630899176,-0.077372850856838,0.864284618971157,-5.596000660945205,-11.301292992533073,2.3742571168460107,0.1076,-0.0866
34.83621719991788,-0.25430057149173324,-0.07714357585344188,0.8614009285884037,-6.832261199058775,-10.176008118076314,2.3283936418152,0.1076,-0.0866
34.89493449998554,-0.2541828774702146,-0.07710429484009597,0.8609174445609941,-6.998651906754725,-9.552490896429982,2.2201815230439754,0.1076,-0.0866
34.95551519992296,-0.2548165288004235,-0.07728586719405812,0.8631254006528133,-6.06286026139555,-10.734642418588049,2.3431603961985346,0.1076,-0.0866
35.014336699969135,-0.25524334943457316,-0.07742016045354949,0.8647275879587228,-5.641167102670014,-11.947371489312257,2.3810377588508986,0.1076,-0.0866
35.07153469999321,-0.25452569996158997,-0.07720143555199338,0.8622005944861799,-6.565090211722509,-10.674339730872843,2.3306098968391775,0.1076,-0.0866
35.127713899943046,-0.2547233196034629,-0.07710058681512953,0.8633241142860462,13.857968142813844,-24.000820685345182,1.1966018833914462,0.1076,-0.0866
35.18701649992727,-0.2546623813236789,-0.07724004244528702,0.8625920131007456,-6.110360942937393,-10.4498367028211,2.2991176791915047,0.1076,-0.0866
35.2436228999868,-0.2547524607401838,-0.07728317587444625,0.8629408872473063,-6.228348938210326,-10.638085108040883,2.33167999340907,0.1076,-0.0866
35.300053899991326,-0.2544495531933451,-0.07719125114419897,0.8619440387296127,-6.2397382021215915,-9.82144660017028,2.3438867312372595,0.1076,-0.0866
35.357495500007644,-0.25487761895946887,-0.07728348776139202,0.8633784047994163,-5.749352225236644,-10.892906505849206,2.3931034334558,0.1076,-0.0866
35.414745099958964,-0.2545847752791932,-0.07720408246915635,0.8622985076575821,-6.314513242011069,-10.327784546269871,2.3326194166584626,0.1076,-0.0866
35.472856499953195,-0.2546621365019847,-0.07723347590848949,0.8626060878377825,-6.388638360521051,-10.463047487988623,2.352101480865033,0.1076,-0.0866
35.53146430000197,-0.25529056344168444,-0.07742431007503778,0.8647883923242421,-5.380398153277409,-11.77733003105961,2.3920885841906987,0.1076,-0.0866
35.59282329992857,-0.2546584539466915,-0.07723880228396497,0.8625978162216272,-6.53999499930988,-10.753504162056613,2.36232210978026,0.1076,-0.0866
35.64869990001898,-0.25451481842222906,-0.07718194248704277,0.8621020228039427,-6.635700696584694,-9.951598114964392,2.320305478696662,0.1076,-0.0866
35.708225499955006,-0.25450648500785233,-0.07718590348263207,0.8620755479258023,-6.739186214118269,-10.84536608041526,2.3205710905046373,0.1076,-0.0866
35.76666359999217,-0.25457205455218274,-0.07720381469142769,0.8623665444733619,-6.444940642178043,-10.56129041962969,2.339456678580726,0.1076,-0.0866
35.82716879993677,-0.25420892012544094,-0.07709151705401308,0.8610641602913051,-6.851341688002898,-9.628979504444144,2.264557206866814,0.1076,-0.0866
35.88298150000628,-0.2547483847290551,-0.07727298345319045,0.8629318627510055,-6.461146797473792,-10.886623116359875,2.331257439074674,0.1076,-0.0866
35.94265169999562,-0.25463116614204795,-0.07723804247772936,0.8624982689500255,-6.30273502210144,-10.525116608712235,2.379352758788622,0.1076,-0.0866
36.00092139991466,-0.25475858566284704,-0.07728358860588111,0.8629761379766206,-6.308006502942107,-10.785334039938617,2.37781755328902,0.1076,-0.0866
36.05850879999343,-0.25471421472278194,-0.07727535812490213,0.8627589408465849,-6.139324159756836,-10.473772828425238,2.3745303563076474,0.1076,-0.0866
36.12883059994783,-0.2545677901027338,-0.07720576643645208,0.8622770847412047,-6.290952543748104,-10.183847685445897,2.31289795542783,0.1076,-0.0866
36.18825319991447,-0.2542415055393847,-0.07710525393548338,0.8611450462890371,-6.839007592044094,-9.348503269564626,2.2905888189721026,0.1076,-0.0866
36.246631899964996,-0.255181199149605,-0.07739506143430708,0.8643929012670712,-5.568644855556165,-11.371028571867837,2.4162551740917673,0.1076,-0.0866
36.303361199912615,-0.25488361761967127,-0.07730640923125483,0.863404390564766,-6.2035098003859295,-11.225994311145346,2.3217740862721663,0.1076,-0.0866
36.36094599997159,-0.2543906342285696,-0.0769516553377301,0.8621774630441037,14.456286938014928,-24.337063771660105,1.0694824837719032,0.1076,-0.0866
36.41643899993505,-0.25444425922550046,-0.0771542544141183,0.8617617990687221,-6.840115430729496,-9.94709849973579,2.3054832335132125,0.1076,-0.0866
36.47413109999616,-0.2546095384938781,-0.07719499569084375,0.8623963032459077,-6.44105099797944,-10.717019168367132,2.317789476796235,0.1076,-0.0866
36.54489569994621,-0.2542941769612373,-0.07707884871185837,0.8613096251016651,-6.603314330050569,-10.00041242203196,2.3104320775095366,0.1076,-0.0866
36.60239979997277,-0.25429985950728556,-0.0770981416045642,0.8612888772716928,-6.533693324270861,-9.115165293970408,2.2871783395234693,0.1076,-0.0866
36.66087899997365,-0.25464418799390826,-0.07720833785390349,0.8625263094045477,-6.129309185359964,-9.542767240604675,2.3192169604653103,0.1076,-0.0866
36.71816459996626,-0.2552906522137681,-0.07740489694813267,0.8647634241238111,-5.51909373899587,-11.370623998210222,2.3633578739989973,0.1076,-0.0866
36.77527209999971,-0.25457943253931437,-0.07721646175539768,0.8623470335884971,-6.582455446328547,-10.056125497585583,2.291873903874295,0.1076,-0.0866
36.834164100000635,-0.254652000818766,-0.07723579775905537,0.8625838808255964,-6.141041274443492,-9.79733303907833,2.2711384560328405,0.1076,-0.0866
36.89562039996963,-0.25412714289080823,-0.07708058530769687,0.8607194461197054,-7.148257017704034,-9.45634697650715,2.2520385984466857,0.1076,-0.0866
36.9529236999806,-0.2552512942404523,-0.07739221828155007,0.8646132021375316,-5.48634869659048,-10.679722170746036,2.37329102798996,0.1076,-0.0866
37.0098558999598,-0.2545539310543929,-0.07702331894743955,0.8627569726581823,14.164516871373491,-24.167762431809034,1.141005944866594,0.1076,-0.0866
37.083226199960336,-0.2545565259381293,-0.0772152680767356,0.8622579617424039,-6.806069289914606,-10.308387404606519,2.3532618985854525,0.1076,-0.0866
37.14185789995827,-0.25483502131160923,-0.07729340840465125,0.863221216342092,-6.363385658641793,-10.363313785181036,2.314213100596164,0.1076,-0.0866
37.199607499991544,-0.25457790900602734,-0.07720318335690676,0.8623043703736494,-6.541717784913653,-9.947914092424412,2.2545789851258418,0.1076,-0.0866
37.25748999998905,-0.25515507273018395,-0.07737617783054712,0.8643562026809296,-5.827450991360206,-10.805712135229028,2.3105782770536214,0.1076,-0.0866
37.31571019999683,-0.2549884198693045,-0.07731838225668776,0.8637380241085455,-6.384291025006931,-10.96686597134941,2.3508548785912553,0.1076,-0.0866
37.374984699999914,-0.25457860416152894,-0.07718914354286617,0.8622292130727469,-6.64560805247729,-9.971631171019832,2.2743578724644147,0.1076,-0.0866
37.43155219999608,-0.2556127125472516,-0.07748699366866951,0.8658901908523242,-5.2782022917716365,-11.954252519266864,2.3734398081973924,0.1076,-0.0866
37.48940169997513,-0.25472377947696345,-0.07725404629187746,0.8627981017897829,-6.2528124081243766,-9.742096814708734,2.2897011869451576,0.1076,-0.0866
37.54706609994173,-0.25475154597814875,-0.0772686540611439,0.8629191294493623,-6.932326576652152,-10.383511956228427,2.285310101018663,0.1076,-0.0866
37.60567859990988,-0.2546593526756671,-0.07722411395285694,0.8625115646912624,-6.195664127835434,-9.575143820809606,2.2721841001727814,0.1076,-0.0866
37.661259999964386,-0.2549754336830135,-0.07731964028322971,0.8636856518235502,-6.11692361195615,-10.028391101264585,2.2832769398842747,0.1076,-0.0866
37.71837129991036,-0.2546494447891488,-0.07723898744937152,0.8625215546324789,-6.688285590871335,-10.306365769839072,2.2175393374747974,0.1076,-0.0866
37.77701329998672,-0.25435812358303195,-0.07715774910106857,0.8615389561088823,-6.7293951924305295,-9.065074360503809,2.2308198208125223,0.1076,-0.0866
37.83531909994781,-0.2552737499638379,-0.07741637551527553,0.8647455962242391,-5.741067046175479,-10.583147018377284,2.34151296779726,0.1076,-0.0866
37.89476379996631,-0.2544596375410859,-0.07718849266914765,0.8619278864369173,-6.729576947850857,-9.440831876592771,2.270642809992333,0.1076,-0.0866
37.95207729993854,-0.2548238665512801,-0.07729074309880235,0.863145967643226,-6.407964200388985,-10.236357940285645,2.31689967060257,0.1076,-0.0866
