t,x,y,z,roll,pitch,yaw,desired_x,desired_y
4.272063400014304,-0.2650407826527793,-0.07871790535575532,0.8849779467791841,6.242088901731481,-33.44448033795498,1.9626426450817211,-0.0716,-0.0852
4.332550399936736,-0.26458946055009813,-0.07858754716481145,0.8834853405953184,6.167701097768342,-34.0024327520223,1.8900908793814637,-0.0716,-0.0852
4.404543299926445,-0.26460199178991195,-0.07858180822950334,0.883573957570125,6.263186365923104,-33.959353284710964,1.850338327559736,-0.0716,-0.0852
4.466819899971597,-0.26520624284299354,-0.07877073613533439,0.8855323909397169,6.13045036260438,-33.171285974923144,2.0425859477528006,-0.0716,-0.0852
4.526533199939877,-0.26456106384567085,-0.07856222830222154,0.8833975937666131,6.404023815007838,-34.13948452880429,1.7761263637148803,-0.0716,-0.0852
4.586832899949513,-0.26478742482145473,-0.07864063685568398,0.8841275449026659,6.138356163846918,-33.72791142458775,1.963985224564694,-0.0716,-0.0852
4.646902499953285,-0.25995387483930993,-0.07801106080732212,0.8834442074927549,5.592392532756704,-34.279480335350605,1.3078441538932841,-0.0716,-0.0852
4.707204299978912,-0.24686599574382553,-0.07650507685583938,0.8864758402574041,6.530179510777588,0.13394213162453764,1.7453440913374227,-0.0716,-0.0852
4.780576599994674,-0.2280411493357631,-0.07524156802724973,0.8837878449080683,5.634442976506417,-30.025653733748854,-4.097253468893725,-0.0716,-0.0852
4.85404619993642,-0.21290500951160954,-0.0759645211261962,0.8987964894453447,9.83382745157756,-9.915384934930367,-5.200314586768296,-0.0716,-0.0852
4.914973099948838,-0.1925251537357922,-0.0762997618118722,0.8956226337653997,10.994140263637018,-5.462626543851793,-8.095258504760793,-0.0716,-0.0852
4.973377599962987,-0.17305119829064503,-0.07834970915793282,0.8969188139053048,11.292190071756956,-5.800057091932349,-11.559442620609842,-0.0716,-0.0852
5.0330055999802426,-0.15287952076080982,-0.08105986667749682,0.8953136699145926,12.470511258602235,-9.082532679783773,-15.696837869942234,-0.0716,-0.0852
5.091467699967325,-0.13403522387786554,-0.08567307469177489,0.8970504201676471,9.960336563431479,-7.513909445758152,-18.150919074513762,-0.0716,-0.0852
5.153316200012341,-0.12450676855381766,-0.08879750611882656,0.8969320321428842,9.180545835794629,-8.564119066779075,-18.26709393061866,-0.0716,-0.0852
5.212087400024757,-0.10568556163393861,-0.09501709350384888,0.8942339714334078,10.817780983831025,-10.401980350970693,-17.070494044028397,-0.0716,-0.0852
5.272556599928066,-0.08754660922982938,-0.10100276666790714,0.8951300076519596,9.184004662471095,-6.0321118196568735,-14.289620236293525,0.1076,-0.0866
5.332804500008933,-0.06826597064727961,-0.10541022121100954,0.8876813311884423,12.069583625451953,4.371733112859854,-10.586255212732357,0.1076,-0.0866
5.395416699931957,-0.05885721399951631,-0.10828585773774249,0.8901182319377517,4.496171900743649,-9.288692029736522,-11.38912252807445,0.1076,-0.0866
5.4551363999489695,-0.03984910460278169,-0.11248357933546264,0.8884608468128908,11.777786739239472,5.487176120233612,-6.524220655310491,0.1076,-0.0866
5.5137703999644145,-0.020304144789249093,-0.11577944787822218,0.8817007403982945,0.5331619434549334,-9.31556325070909,-4.7287307236291,0.1076,-0.0866
5.57153830002062,-0.010295078296376504,-0.115494269236472,0.87063183021844,-1.0871292313175946,-6.845763223110269,-3.050477320094528,0.1076,-0.0866
5.6322399999480695,-0.00925612375414561,-0.11691807167230793,0.8800986646433159,4.006047386200345,-6.919815803569302,-2.721421563418372,0.1076,-0.0866
5.691338400007226,0.003084731233103335,-0.11833208985858995,0.8828378245512514,-1.007276992252877,-4.086606604286048,-0.832510856622498,0.1076,-0.0866
5.751780899940059,0.020219530726232116,-0.11962428839792895,0.883544123697619,2.349673974781199,-8.045656450757658,0.6653901229245359,0.1076,-0.0866
5.810181799926795,0.029345979981202648,-0.11991198240743939,0.8829531958047712,0.0969310786683258,-6.993574189308691,2.1235665775749304,0.1076,-0.0866
5.869419199996628,0.04817785661132322,-0.11980919333099178,0.88179315509115,-1.7805256740060338,-5.543286030782109,4.957540736073198,0.1076,-0.0866
5.9284681000281125,0.06781882584389924,-0.1189034272883812,0.8819487988430359,-2.140124325423928,-5.263248331500282,7.270696855419711,0.1076,-0.0866
5.9908663999522105,0.08702362361352037,-0.11721468315112933,0.8814686661901435,-1.7624273992550168,-4.836522069276958,9.94239787988296,0.1076,-0.0866
6.049903800012544,0.09673677010167302,-0.1162701302271294,0.8827789956107133,-2.0325054254961037,-4.212092645426004,11.2221824101088,0.3832,-0.0597
6.109945000032894,0.11620235058985862,-0.1132993011269939,0.8833436854049798,-1.750612899676082,-3.750441705804659,13.450267739541799,0.3832,-0.0597
6.1690517999231815,0.1350695709813052,-0.1096283774486203,0.8832511505788216,-1.8112781415082075,-4.0988096072444655,15.848351263076044,0.3832,-0.0597
6.230060199974105,0.15426137994446984,-0.10596248975770114,0.8848760353132703,-1.3249868557117779,-2.9716814516757255,19.253375063813348,0.3832,-0.0597
6.290286000003107,0.16352945861682544,-0.10341218043256165,0.882955743026332,-2.689583623974861,-2.8113679137320102,21.598999270420375,0.3832,-0.0597
6.3511684000259265,0.18195452266893847,-0.09854501264703468,0.8886153992887365,-0.4365955915588041,-4.259171858949974,25.32650472140372,0.3832,-0.0597
6.411363799939863,0.1814589537405089,-0.0981036304916378,0.8846945523742206,-1.3048322655810511,-1.3764038427850338,26.28862448884848,0.3832,-0.0597
6.474655500031076,0.19025353766948233,-0.09313481147476554,0.883761061618235,-0.6456616874180491,-2.807323608175619,24.555394011928264,0.3832,-0.0597
6.537613000022247,0.2064421334400403,-0.08522642178244735,0.8849986027293866,-1.3272052627263375,-2.3802715063069546,22.16458199815744,0.3832,-0.0597
6.601539099938236,0.22421137776274572,-0.0771855249804138,0.884445124151412,-1.388033667038403,-2.168510846844994,19.20275993841409,0.3832,-0.0597
6.6605514999246225,0.23294996126617545,-0.07339091955061315,0.8836532579069641,-1.8891096622163728,-2.076982017486376,17.57263052111428,0.3832,-0.0597
6.7206752999918535,0.2512630023443879,-0.06660353136957244,0.8835340735484543,-1.941905119484105,-1.923205495602788,14.5849794212027,0.3832,-0.0597
6.778087200014852,0.27053830585239885,-0.0607664371702403,0.8853141465140604,-1.7338190594755416,-1.1342369561190229,11.436291504324412,0.3832,-0.0597
6.833712999941781,0.28988014869053436,-0.05616629643256714,0.8874419902760393,-1.475185130099337,-0.6258777396262737,8.195838318395024,0.3832,-0.0597
6.891070200013928,0.30879448662598996,-0.052464402237353186,0.8866753079433034,-1.0355101787039245,-0.7387818285397115,4.599827474201443,0.3832,-0.0597
6.9489896999439225,0.3183590117087949,-0.051200773418182355,0.8861792746311995,-1.224746229052676,-0.9119916449069472,3.0059221793381177,0.3832,-0.0597
7.00419459992554,0.3379832022749262,-0.049543318722303234,0.8871374304324434,-1.24473881070263,-0.746672560979502,-0.19593828343480568,0.3832,-0.0597
