t,x,y,z,roll,pitch,yaw,desired_x,desired_y
0.0,-0.2721087564376402,-0.0652713187608856,0.016365360031598,0.0738236765534727,0.0019723382605805,1.5726690804510357,-0.0716,-0.0852
0.028623199999856297,-0.2721087441327527,-0.0652713188070185,0.0163653598517091,0.0738244252198379,0.0019723354699982,1.572669082474876,-0.0716,-0.0852
0.060617699999966135,-0.2721087318017552,-0.0652713188484751,0.0163653596585185,0.0738251753276923,0.0019723329433653,1.5726690844949478,-0.0716,-0.0852
0.09221849999994447,-0.265014070655625,-0.065254546466562,0.0163223704889096,0.0718266448510115,0.0022635443175689,1.5544742957768178,-0.0716,-0.0852
0.12363259999983667,-0.2580975234554993,-0.0653742430090843,0.0161957433361799,0.0736296391933355,0.0029663091454303,1.5348038543221565,-0.0716,-0.0852
0.17422959999976184,-0.2514550242660224,-0.065623521704307,0.0160204452232301,0.0861026292591595,0.0032354872352204,1.5523708755828582,-0.0716,-0.0852
0.20453660000021046,-0.2449187757210061,-0.0657366028458799,0.0158183171000144,0.1019177666426513,0.0043955770584462,1.5349292212552406,-0.0716,-0.0852
0.23542959999986124,-0.238640894288231,-0.0659715151107035,0.0156356427967566,0.1284096436097324,0.0035411367135834,1.553668445338929,-0.0716,-0.0852
0.2634400000001733,-0.2331887987296545,-0.0660637144329164,0.0155080749754467,0.1105963060355291,0.0031696372682742,1.536909745025946,-0.0716,-0.0852
0.298185900000135,-0.2276188591620102,-0.066270606973156,0.0154275170046094,0.1065383582777517,0.0022757626386384,1.520314335003348,-0.0716,-0.0852
0.3389944000000469,-0.2220560669596059,-0.0665755356615451,0.0153969459132156,0.1038147384677527,0.0009749220111327,1.5360539125609072,-0.0716,-0.0852
0.36958240000012665,-0.2164473956717718,-0.0667786521352515,0.0154323904967829,0.1030560725165155,0.0001214058289579,1.519366867891928,-0.0716,-0.0852
0.4006678999999167,-0.2107499025724254,-0.0670853808932876,0.0155223062801455,0.103739286018771,-0.0003855915286519,1.536018051872849,-0.0716,-0.0852
0.43111240000007456,-0.2050939979532663,-0.0672827523104449,0.0156593011850828,0.105681515156281,-0.0009250332460189,1.5175775638925175,-0.0716,-0.0852
0.46598519999997734,-0.1992601385370712,-0.0675957635088437,0.0158264002171434,0.1084620348655641,-0.0004477185133132,1.5343872181769345,-0.0716,-0.0852
0.5033926999999494,-0.1934646184543847,-0.0677959171938428,0.0159957084633927,0.1114627455247335,-0.0003852426925503,1.5158244821908575,-0.0716,-0.0852
0.5267611999997825,-0.1877197363727117,-0.0681069247504652,0.0161424629464548,0.1075431917361986,-5.2086962955536384e-05,1.4957660678002105,-0.0716,-0.0852
0.5547559000001456,-0.1819788576216454,-0.0685268821742116,0.0162642869951147,0.0946409571940389,0.0018657457260675,1.512970879695799,-0.0716,-0.0852
0.5953755999998975,-0.1763098073885153,-0.0688297555397777,0.0163222199503229,0.0779314859598367,0.0030504289732099,1.493040081056769,-0.0716,-0.0852
0.6262152999997852,-0.1704501552646921,-0.0692681292503561,0.0163493442880627,0.0729503985564675,0.004814135747499,1.5139677177380202,-0.0716,-0.0852
0.6568467000001879,-0.1646191032428803,-0.0695735621516786,0.016295723148506,0.0658509110753509,0.005922556791111,1.4955207536613155,-0.0716,-0.0852
0.6882753999998386,-0.1587955626770039,-0.0700029087978748,0.0161943642415158,0.0601157132066642,0.006755612011276,1.4760619049912127,-0.0716,-0.0852
0.7198653000000377,-0.1530693981341786,-0.0705545685948712,0.0160654365566462,0.0558296067381808,0.0067822884568821,1.4954104659407357,-0.0716,-0.0852
0.7501115000000027,-0.1472362631925947,-0.0709899902749015,0.0158999033766109,0.0531009687421298,0.0069920337225644,1.478771662261678,-0.0716,-0.0852
0.7808289999998124,-0.1414508252787184,-0.0715362295148528,0.0157361462005623,0.0513147109390532,0.0066064537477285,1.461164731096079,-0.0716,-0.0852
0.8227928000001157,-0.1356714909571882,-0.0721963527626051,0.0155900083969107,0.0530529354472806,0.0059069954435886,1.4427637299870542,-0.0716,-0.0852
0.8549005999998371,-0.1299543707873616,-0.0729768394220585,0.0154773985796924,0.0586461323330332,0.0050646892001752,1.4251992308325436,-0.0716,-0.0852
0.8850200000001678,-0.1237800298817146,-0.073927885384361,0.0154018589848922,0.1017844837320623,0.0031763631283865,1.4418339995167813,-0.0716,-0.0852
0.9165693999998439,-0.1185373451797194,-0.074630107744519,0.0154052914971137,0.0796892284902415,0.0020615507995033,1.425511281043896,-0.0716,-0.0852
0.9570932000001449,-0.1172910606614961,-0.0748402504745509,0.0154383971257765,0.1613098619940028,0.000973450103428,1.425773204651511,0.1076,-0.0866
0.9781039999998029,-0.1089434897456101,-0.0760881399600152,0.015518130305426,0.0521133488691846,0.0012035446449339,1.4510647247575412,0.1076,-0.0866
1.018717899999956,-0.1015257499917868,-0.0769716614509182,0.0156863595668276,0.0620346349119411,-0.0004859426111255,1.4365343463155196,0.1076,-0.0866
1.041272899999968,-0.094303510764464,-0.07796125655292,0.0158805067733165,0.0666171390370697,-0.0017650152694076,1.4536669540002791,0.1076,-0.0866
1.080347399999937,-0.0873504305729363,-0.0787872122215111,0.0160722546930436,0.0710909061551763,-0.0030625371554296,1.4348159290055138,0.1076,-0.0866
1.1119993000002069,-0.0805711285763779,-0.0797239176500475,0.0162144669152131,0.0687995378102598,-0.0024687092295385,1.4510983142959737,0.1076,-0.0866
1.1422357000001284,-0.0740267209399288,-0.0805002696488937,0.0163016092714938,0.0658250192087601,-0.0010979735388387,1.4714669028893848,0.1076,-0.0866
1.171580400000039,-0.067646803124091,-0.0811148592560739,0.0163131587589931,0.0656322690254828,-0.0001265528365922,1.4524894491090332,0.1076,-0.0866
1.2046457999999802,-0.0614440235412131,-0.0818340280535351,0.0162642035310392,0.069019444069824,0.0007658155473794,1.4734094139147238,0.1076,-0.0866
1.2353305999999975,-0.0545970728253535,-0.0824804040720892,0.0161440533898855,0.1235303792737311,0.0022333518259891,1.4564392735870044,0.1076,-0.0866
1.2668785999999272,-0.0493292787866202,-0.0830940255575504,0.0160112800910984,0.0923251616953911,0.002357332303719,1.4757543063636775,0.1076,-0.0866
1.295720699999947,-0.0439859932884693,-0.083596197592503,0.0158638933352628,0.0609679118654898,0.002320425866749,1.458667639611781,0.1076,-0.0866
1.3354613999999856,-0.0387199457834706,-0.0842098597928195,0.015709164485952,0.0353671685092573,0.001379435951666,1.4776380161069642,0.1076,-0.0866
1.3692461000000549,-0.0334527084838473,-0.0847168487291266,0.015583148666266,0.009393433317774,0.000563778778308,1.4619871001181777,0.1076,-0.0866
1.3995954000001802,-0.0282294753279619,-0.0853167338340847,0.0154734268791016,-0.0135157217379583,-0.0010360665366818,1.4800653792055334,0.1076,-0.0866
1.4410401000000093,-0.0230134535914609,-0.0858107645480695,0.0154264061354954,-0.0390131919100064,-0.0024510566878344,1.4637354671208742,0.1076,-0.0866
1.471418999999969,-0.0178258138211861,-0.0863960857835886,0.0154094816067267,-0.0653334554007198,-0.0038208582746521,1.4793076443763409,0.1076,-0.0866
1.501894099999845,-0.0126552701892143,-0.0868851891224314,0.0154468828591526,-0.0938411327497403,-0.0045473330082919,1.4955441157469136,0.1076,-0.0866
1.5333012000000963,-0.0065593423057507,-0.0873466426777068,0.0155446771775671,-0.0685690018053364,-0.0054727651474267,1.5135088209950092,0.1076,-0.0866
1.5638961999998173,-0.0005759315813952,-0.0876934685874066,0.0157003827817802,-0.0457129512780528,-0.0063031864116524,1.4953688632046829,0.1076,-0.0866
1.5938084999997955,0.0054199951361384,-0.0881493360012038,0.0158662295761655,-0.0335999464785538,-0.0062278650663878,1.5116696053170755,0.1076,-0.0866
1.6237138999999843,0.0113584925697271,-0.0884861284479734,0.016035747314146,-0.030089665312854,-0.0052565728069568,1.5295216408832617,0.1076,-0.0866
1.6539182000001347,0.0172687074014852,-0.0887151980153551,0.0161867866217596,-0.0243157681012796,-0.0048482999411194,1.5110314847740385,0.1076,-0.0866
1.6840797999998358,0.0232025821721892,-0.0890549693478164,0.0162919010591079,-0.027576154253819,-0.0033830786960192,1.528803184862991,0.1076,-0.0866
1.7177953999998863,0.0291693735787728,-0.089286943593874,0.0163418218172061,-0.0266893439112281,-0.0022680930509634,1.508659696849815,0.1076,-0.0866
1.746392399999877,0.0350919621967564,-0.0896388028103898,0.016334172329808,-0.0286694457627849,-0.0007925017626284,1.52889538067943,0.1076,-0.0866
1.8001239000000169,0.0409731213832574,-0.0898619419440298,0.0162655022407566,-0.0291240646736566,0.0001366823105093,1.5492225631209982,0.1076,-0.0866
1.8297836000001553,0.0472780543926442,-0.0899747164004197,0.016133803283994,-0.0083362697180942,0.0008779101033572,1.5326612712097192,0.1076,-0.0866
1.8604123000000072,0.0534831843335759,-0.0902179964462469,0.015958801985255,0.01651128796567,-0.0002656902515386,1.5521662918824264,0.1076,-0.0866
1.8974615000001904,0.0596993788438427,-0.0903382365505483,0.0157606734272842,0.0458079715924031,-0.0021067162635956,1.572245094464389,0.1076,-0.0866
1.930085699999836,0.0618847740926113,-0.090316507946937,0.0156995492515829,0.1844620361483209,-0.0023518633980795,1.5723716466710251,0.3832,-0.0597
1.9751240000000507,0.0681962766737821,-0.0903559409560367,0.0153146066314495,0.1060738632437936,-0.0072673615082978,1.5714741380004025,0.3832,-0.0597
1.995274800000061,0.0767118353619241,-0.0903972215120698,0.0152581833086508,-0.0251044922355602,-0.0091006331613093,1.5854464458851203,0.3832,-0.0597
2.036710299999868,0.0859593346435503,-0.0902841752014419,0.0153735434555713,-0.0941471234286161,-0.0095966377798144,1.6018961652889854,0.3832,-0.0597
2.057175399999778,0.0948628322081401,-0.0900115784183704,0.0156392484686244,-0.1636332719292657,-0.0109338859881981,1.584136402038407,0.3832,-0.0597
2.089121999999861,0.1052493442983878,-0.0898766681148891,0.0159807164606694,-0.1394429713114125,-0.0096959740103627,1.5977090435833974,0.3832,-0.0597
2.1197471999998925,0.1167686144059018,-0.0895293250559842,0.0162988698747495,-0.035478049007115,-0.007120704708341,1.6164670293870311,0.3832,-0.0597
2.1610593000000335,0.1280013787419879,-0.0889778743043695,0.0164165212848185,0.0708816962317205,-0.0048826536337789,1.6021296562502705,0.3832,-0.0597
2.181890899999872,0.1388690955921145,-0.0886313325274921,0.0163136992797691,0.1847761887032886,-0.0057414841485287,1.6213567517726963,0.3832,-0.0597
2.211989999999787,0.1464872448985142,-0.0882312870492879,0.0161303049386057,0.1230430427381609,-0.0062960189266523,1.6041548576870486,0.3832,-0.0597
2.253247900000133,0.1538473858660791,-0.0879959488597104,0.0158882853712802,0.0716872582328597,-0.0067736884387957,1.6213476798566222,0.3832,-0.0597
2.2843449000001783,0.161391337826426,-0.0876030150042922,0.0156616303012891,0.0465844301647276,-0.0067190627601491,1.6027857116390996,0.3832,-0.0597
2.3145777999998245,0.1687087280095734,-0.087372727388095,0.0154764999270557,0.0369244434538732,-0.0068966175101979,1.618302269074347,0.3832,-0.0597
2.3457171000000017,0.1759522959501484,-0.0870117038215878,0.0153879529077658,0.0388530682391416,-0.0061367914112584,1.634694413318606,0.3832,-0.0597
2.3758452000001853,0.1830229579107972,-0.0865264555169043,0.0154017152165354,0.0518056191812098,-0.0049207698379989,1.617667197502465,0.3832,-0.0597
2.407120599999871,0.1901020547986079,-0.0861894258998965,0.0155113643007595,0.0695865529123106,-0.0039339257084473,1.6344353812120471,0.3832,-0.0597
2.438150200000109,0.1970174592011699,-0.0857197242172906,0.0156881288810721,0.0961090940135755,-0.002801384860931,1.61696711702399,0.3832,-0.0597
2.4684683999998924,0.2039166068070958,-0.0853952971848225,0.0158969132739365,0.1225132928318594,-0.001359429147855,1.6344443022105382,0.3832,-0.0597
2.5092067999999017,0.2099951396278178,-0.0849826796784848,0.0160755224660932,0.1154385427749813,-0.0007686004774711,1.6168908693581951,0.3832,-0.0597
2.540671299999758,0.2159564846948485,-0.0847055495323128,0.0162213585327419,0.1015925046932878,0.0006654158580931,1.635532632680833,0.3832,-0.0597
2.5795139000001654,0.2216361818706496,-0.0843213949487824,0.0163140126324878,0.0891234962802998,0.0007336324814948,1.6179435087410765,0.3832,-0.0597
2.60073199999988,0.2272947281244731,-0.0840565954626369,0.0163536526563161,0.07076240013208,0.0012385564257509,1.6355413869739932,0.3832,-0.0597
2.6415940000001683,0.2328768183228519,-0.0836902479283073,0.0163321831805132,0.0517555447296118,0.0010302532801557,1.656008277736316,0.3832,-0.0597
2.674920999999813,0.2386092645393365,-0.0832074481722228,0.0162618320648821,0.036793773908275,-6.458224355745185e-05,1.6388435610243866,0.3832,-0.0597
2.7032862000000932,0.2442453183332433,-0.0828433964497392,0.0161320606666674,0.0239752060655738,-0.0017092412481524,1.6576885772675516,0.3832,-0.0597
2.731042100000196,0.2499645748185694,-0.0823512928273018,0.015987123690462,0.0125357716200892,-0.0028613940249192,1.6390706404790518,0.3832,-0.0597
2.7638308000000507,0.255570731660188,-0.0819921022356173,0.0158075186611487,0.0043414715140138,-0.0045395861201759,1.6561308370118388,0.3832,-0.0597
2.794908700000178,0.2611752222982546,-0.0815190496938483,0.0156362204168259,6.400992328207258e-05,-0.005795422644276,1.6737165524984574,0.3832,-0.0597
2.824801000000207,0.2668397621379739,-0.0809384609691301,0.0155067764252196,-0.0038099197602388,-0.0057950161252517,1.6548896766359804,0.3832,-0.0597
2.855630800000199,0.2724181160020786,-0.0804699243275487,0.015408569633187,-0.0034309347352313,-0.0061610327898507,1.6709500444400385,0.3832,-0.0597
2.885553399999936,0.2780019940210728,-0.0799005561477431,0.0153757609224617,-0.0075234381449255,-0.0055223361329835,1.6881828859855488,0.3832,-0.0597
2.9159915000000183,0.2834519186282662,-0.0792252334163832,0.0154019986338466,-0.0113654357664775,-0.0044150148808098,1.6703761057799638,0.3832,-0.0597
2.9607603999998,0.2889200340121724,-0.0786718415198168,0.0154860363612023,-0.0243486856166706,-0.0029395908756616,1.6874375715054852,0.3832,-0.0597
2.9915728000000854,0.2943308749178102,-0.0780182044700297,0.0156152893376421,-0.0434644972853529,-0.0009603453954087,1.706297186086862,0.3832,-0.0597
3.022304300000087,0.2995320098146876,-0.0772744380104334,0.0157597988373983,-0.0693255118974791,-0.0004382264871637,1.689843136762498,0.3832,-0.0597
3.0532202999997935,0.3047632851969115,-0.0766437068996564,0.0159162588997663,-0.1063241416737249,0.0010967515407718,1.708803079490993,0.3832,-0.0597
3.084716599999865,0.3098310134914577,-0.0759202458688299,0.0160620112968904,-0.1471041193139259,0.0006662506871859,1.6918164128760496,0.3832,-0.0597
3.1168963999998596,0.3160065446532372,-0.0751769304906896,0.0162065415009612,-0.1315048158129801,0.0009388225813568,1.7110859449524376,0.3832,-0.0597
3.151766800000132,0.3222171872454859,-0.0743056170696647,0.0162973733570912,-0.1160068270069915,0.0005193545065363,1.7319127506646796,0.3832,-0.0597
3.1870668000001388,0.3283836177260564,-0.0733141886238465,0.0163195160586713,-0.0944950047500876,-0.001226888554732,1.7535581190408254,0.3832,-0.0597
3.210714800000005,0.3346965850287193,-0.0721803833196416,0.0162999889584236,-0.0683726885970877,-0.0036641032644186,1.7368169001416376,0.3832,-0.0597
3.241743999999926,0.3410621611604789,-0.0711625994835537,0.0161867125594996,-0.0331152103063816,-0.0071988685252997,1.7548529891596891,0.3832,-0.0597
