t,x,y,z,roll,pitch,yaw,desired_x,desired_y
15.005336200003512,-0.2649426372106384,-0.07425805344855843,0.8653323774888068,0.8098096583848315,1.2465521083665063,-0.7046967456522848,-0.0716,-0.0852
15.065764699946158,-0.2671868952422963,-0.07480748671184585,0.8727515803912839,0.563540695438625,-1.4449507091455651,-0.7955983543668056,-0.0716,-0.0852
15.12167809996754,-0.2661976380827931,-0.07451397106126442,0.8694087504551661,0.9941537714835066,0.6764104101670549,-0.6527013105306312,-0.0716,-0.0852
15.180171299958602,-0.2668040773112068,-0.07468253208722614,0.8713376849206833,0.35079444317243497,0.3086251974427218,-0.8349079932771901,-0.0716,-0.0852
15.241706799948588,-0.26684613218910364,-0.0746025595130495,0.8713798521798732,0.14653632354295626,0.7146134664209116,-0.9377439780455565,-0.0716,-0.0852
15.29996500001289,-0.26707250295131263,-0.0746386016675838,0.872132263889394,-0.02740019181893485,0.7846332972163278,-0.9714423448852487,-0.0716,-0.0852
15.371146799996495,-0.2676280610698757,-0.07470390955387822,0.8738545997748096,-0.2641790038544244,0.7705990255530905,-1.0000540250914252,-0.0716,-0.0852
15.429923999938183,-0.2684197524144159,-0.07502015794338936,0.8772533827149293,-0.14459174010885473,0.3114362545358498,-0.9507929428185067,-0.0716,-0.0852
15.494627799955197,-0.25967154441460055,-0.07499629375724032,0.8825447973192088,0.7075152769787286,-0.8729811865499416,-2.678896677018505,-0.0716,-0.0852
15.55527350003831,-0.24404026496438241,-0.07499983631152173,0.8854238080494903,0.5349618004506506,-1.7907133281479228,-5.712655039017475,-0.0716,-0.0852
15.62158419995103,-0.22478302637135464,-0.07558557479185982,0.8824348862223161,0.4293934869131094,-0.7721580582905679,-8.699591200888426,-0.0716,-0.0852
15.684354600030929,-0.20642107785880207,-0.07765615896701134,0.8857234122133625,13.376109598531903,-21.989025555168162,-14.712039044511156,-0.0716,-0.0852
15.748581000021659,-0.18784315041089672,-0.08098539579675397,0.8871558263776456,0.19237374402560217,-2.7911577444312456,-15.339603886624943,-0.0716,-0.0852
15.813649300020188,-0.16863652352022265,-0.0852821031395756,0.8858772362718594,-0.7068976501858601,-1.950077286267602,-18.125844938365223,-0.0716,-0.0852
15.878125999937765,-0.1495956638717601,-0.09144553368617137,0.8848887238677643,-2.0765965894734335,-3.866534607689621,-18.004372003420155,-0.0716,-0.0852
15.940466500003822,-0.13082775614164466,-0.09804535615851759,0.8821467648743287,-3.055242479795268,-2.7623098929583283,-15.582242416548375,-0.0716,-0.0852
16.00732390000485,-0.12177244573365023,-0.10115352083799302,0.8814562199044479,-3.2747209823906,-2.611827882033878,-14.120699204395121,-0.0716,-0.0852
16.072051899973303,-0.10323144961835415,-0.10654306416971901,0.8805453371367884,-2.3456310552909865,-0.9860167798817833,-11.380037577136509,-0.0716,-0.0852
16.13613500003703,-0.08453371884913059,-0.11135621890856295,0.8803575943547739,-3.0286931520441898,-2.716761078233745,-8.946161361154198,0.1076,-0.0866
16.202573099988513,-0.06558471615005176,-0.11535759465851181,0.8782108983857051,-4.023221936210083,-3.703564802838575,-5.520502233557965,0.1076,-0.0866
16.269828399992548,-0.04649743532640643,-0.11859883779421895,0.8784421722410489,-3.401720397945534,-3.3587003483401072,-1.527045533063276,0.1076,-0.0866
16.33197439997457,-0.026901994200618423,-0.11991274231417744,0.8760250836421404,-4.41364643835827,-3.9778509086647262,2.3912490000594917,0.1076,-0.0866
16.406523499987088,-0.007786016757366069,-0.12033523931653485,0.8749800017093909,-4.9670559921182775,-3.0100283498644296,6.376150344093838,0.1076,-0.0866
16.46946549997665,0.009662720162477044,-0.11908718965808879,0.8719061223829364,-3.7391845014772063,-5.884720022231832,9.276278121572993,0.1076,-0.0866
16.534195799962617,0.010764251483327566,-0.11912452897010165,0.8731373313572409,-4.038954151246892,-2.149700288196987,9.899647282790426,0.1076,-0.0866
16.59734999993816,0.01738691830267336,-0.11910037384731775,0.8741195571939008,-5.216259249747096,-1.9972342396029756,12.289513618182225,0.1076,-0.0866
16.663380400044844,0.03295803721699028,-0.11701295982271594,0.875560950968389,-4.519331177387499,-2.5192492178374155,14.662245378442714,0.1076,-0.0866
16.727170999976806,0.050831902619122606,-0.11393477391280836,0.8773502997225188,-4.396010016247725,-0.3253376948196173,17.41012608075913,0.1076,-0.0866
16.789376199943945,0.06900973897272451,-0.10892307667482583,0.8764305297988702,-4.325652051706158,0.25479610973918604,20.031073709248247,0.1076,-0.0866
16.848593199974857,0.08733204898114465,-0.1030682046860622,0.8770314825532523,-4.1711482529458666,-0.27411289546608086,22.183044006252455,0.3832,-0.0597
16.92503789998591,0.10532971921708859,-0.09662963705935704,0.8762532151688548,-3.6965070032034046,-1.2065177330641812,24.806921665592547,0.3832,-0.0597
16.987129400018603,0.11404410080177753,-0.09281093407812363,0.8738025969723757,-4.693659668577536,-0.8421493199317517,26.048648924812326,0.3832,-0.0597
17.04754719999619,0.14034579210762613,-0.0808693051993763,0.871432859775469,-4.783342909335931,-0.7634112233603001,30.005851487223335,0.3832,-0.0597
17.11231029999908,0.15742199448506736,-0.07159751284478819,0.8712103736577608,-4.1480148149472615,-0.41664801766339643,31.353496911991453,0.3832,-0.0597
17.178270400036126,0.16684561978906515,-0.0642763972782108,0.8672016985634902,-4.902623009712986,-2.173094108790676,29.5125305891726,0.3832,-0.0597
17.252855199971236,0.19090756234160133,-0.04898834223549053,0.8680355581907714,-4.068689538041839,-2.2204365922858695,23.18341028989003,0.3832,-0.0597
17.31568839994725,0.21654261977354922,-0.03781885617188285,0.871991444243873,-3.7334333115307103,-1.476354301051164,19.349443809175618,0.3832,-0.0597
17.38224209996406,0.25185665497900644,-0.025441202624915896,0.8748987064826138,-3.433792178893652,-0.6805636507160338,14.349644376594581,0.3832,-0.0597
17.447097299969755,0.2747727978603053,-0.01855994496710005,0.877892447678569,-2.7967877239714,-0.5121073650174585,10.355818526543144,0.3832,-0.0597
17.51020649995189,0.29690081487205444,-0.013752010039588047,0.8799680625596259,-2.2818551299265777,-0.42373039268376517,5.611116133382474,0.3832,-0.0597
17.574021499953233,0.3077919641657467,-0.01185653969857974,0.8815280703127976,-1.5324006192222381,-0.5717584602730744,2.9190460220699164,0.3832,-0.0597
17.637222499935888,0.3294813381017077,-0.010235758880669679,0.8871144264374917,-1.0158466738976424,1.1134579839796126,-0.532569945977453,0.3832,-0.0597
17.702316600014456,0.3478337038523445,-0.00966744528614679,0.8839845621890337,-0.796916531086219,0.17821220649098507,-3.549911942373612,0.3832,-0.0597
17.768071900005452,0.36734530406887383,-0.009764395699460015,0.8839363218323824,-0.9934626574198632,0.2596417559367025,-7.226114748792275,0.3832,-0.0597
17.843850999954157,0.3872871163921951,-0.010900693781346605,0.8851154746831967,-0.37228731875390125,1.0496665586797134,-11.887420869353793,0.3832,-0.0597
