t,x,y,z,roll,pitch,yaw,desired_x,desired_y
3.064407200086862,-0.2703319778098077,-0.07267849150369879,0.8877238431124113,1.6539772541850322,-1.8720766503568762,0.24045912320300183,-0.0716,-0.0852
3.126851200009696,-0.2729773676844722,-0.07335297923376931,0.8963956658955009,4.446577698830998,-7.76793415480689,0.12014311558599894,-0.0716,-0.0852
3.1929306000238284,-0.2686421587460216,-0.07222475707472036,0.8830763054249672,9.512791957315876,-33.04645461915174,-2.8373884552861433,-0.0716,-0.0852
3.257689099991694,-0.2700097800620306,-0.07256266271873767,0.8864565464116629,1.964247215711781,-1.8688576643952377,0.1933800029925107,-0.0716,-0.0852
3.3219520000275224,-0.268593039088255,-0.07222320452459566,0.8830777262367357,9.608766664612363,-33.56931332128078,-2.9071699657457404,-0.0716,-0.0852
3.386083999997936,-0.26888372546144756,-0.07229389660106507,0.8838923792429687,9.211001225360961,-33.53435756288715,-2.871232447778695,-0.0716,-0.0852
3.450742100016214,-0.27245234694609466,-0.07322899248975742,0.8945770082407056,3.1221048391149324,-6.266751478323811,0.10371328858836913,-0.0716,-0.0852
3.516873300075531,-0.2701544240722512,-0.07262026238934104,0.886980754526079,1.0660420388994774,-1.477717129278002,0.10021345878862703,-0.0716,-0.0852
3.5806978000327945,-0.27037896042521015,-0.0726781375411072,0.8877297475913084,1.290976810339361,-1.8793152168603886,0.09834479923954964,-0.0716,-0.0852
3.6429983000271022,-0.27079937024649287,-0.07279137064897792,0.8891686156383284,1.297139801267823,-2.5339723197393424,0.10437069694422214,-0.0716,-0.0852
3.70834840007592,-0.27069203531508734,-0.07276568187699393,0.8887039754434307,1.826815896879736,-3.019816650145532,0.1429551396997102,-0.0716,-0.0852
3.774449000018649,-0.27006931984878596,-0.07261058638512292,0.8867991782779421,0.8912273448579239,-1.5567777763845667,0.13118741087692865,-0.0716,-0.0852
3.840547800064087,-0.2705605324755522,-0.07273788415858481,0.8884470524665379,1.3909030364179422,-2.1305306756817286,0.1880357412880998,-0.0716,-0.0852
3.9233613000251353,-0.2689519133504911,-0.07231867658730441,0.8841674320774472,8.935621112276012,-33.1618376406791,-2.839742017481602,-0.0716,-0.0852
3.9923821000847965,-0.26887482253644224,-0.07228059072281366,0.8837837164725002,9.366703242648942,-33.03893622967069,-2.852474391319326,-0.0716,-0.0852
4.059783000033349,-0.270175009544693,-0.07261621967404452,0.8870692206325539,1.5263532626367957,-1.5743736748974535,0.13806639121610412,-0.0716,-0.0852
4.1264159000711516,-0.27040657484005604,-0.07267208008304028,0.887697736328456,1.8297075694431963,-2.238384042110038,0.16293485097964605,-0.0716,-0.0852
4.190264099976048,-0.27011441982364187,-0.07261247578515578,0.8869024051574972,0.9221516163425719,-1.6117212337828954,0.06244764481452691,-0.0716,-0.0852
4.254956400021911,-0.26420829308966354,-0.07190035123562033,0.8824215207739751,8.429700986754643,-33.74976550284093,-3.838811378428001,-0.0716,-0.0852
4.320782600087114,-0.2515215770553652,-0.07139961094748623,0.8847540620070159,3.5869663120149737,-0.09313392694820308,-2.925545803760557,-0.0716,-0.0852
4.385823099990375,-0.2339747783016858,-0.07110705923677593,0.8828426914571311,10.263069149400462,-28.69027810835615,-9.605708099520353,-0.0716,-0.0852
4.448589600040577,-0.21773994263574037,-0.07237069325621025,0.8851199070861214,3.456713222031643,-0.15050324873634985,-8.975606640318041,-0.0716,-0.0852
4.514024600037374,-0.2005088469380214,-0.07427356435144894,0.8855344958884389,3.1039011578046263,-0.41207942344688253,-12.126837506005852,-0.0716,-0.0852
4.579994900035672,-0.18319624259262213,-0.07725990679891741,0.886854871381029,13.086613007177736,-18.255034128836094,-17.658472580908153,-0.0716,-0.0852
4.645596400019713,-0.17585466840527833,-0.07965797150251183,0.8922947036325826,4.360343672079574,-7.344185525427906,-17.31769077030085,-0.0716,-0.0852
4.7104839000385255,-0.15128933334740885,-0.0852071344424582,0.8898384633795793,2.752509746650195,-8.143725593522133,-21.85968107852006,-0.0716,-0.0852
4.7746475000167266,-0.13660125566294112,-0.09050898857563394,0.8854413136571381,-0.611023261739107,-6.615141891913121,-21.258583988532536,-0.0716,-0.0852
4.84049099998083,-0.12391272748458156,-0.09660084506966492,0.8843794073508513,-1.504221112746609,-2.0191944928364247,-17.869533036354415,-0.0716,-0.0852
4.903638500021771,-0.11088889944736195,-0.10204999889048855,0.8850199213884914,-1.1097115857060496,-2.8509950293879402,-15.064652338835751,-0.0716,-0.0852
4.971165299997665,-0.09720691895950274,-0.1063183252339275,0.8820080982086814,-3.0548967426424203,-3.600099278186451,-12.525492052355672,0.1076,-0.0866
5.041811799979769,-0.0905566390388586,-0.10871819919741568,0.8831330074643596,-1.6806533754207902,-3.435836337750181,-10.9496911311935,0.1076,-0.0866
5.117193600046448,-0.07701488064232455,-0.11301692250485605,0.8835180534051015,-1.6089091014297632,-3.541901512377154,-7.0383111427268,0.1076,-0.0866
5.182324600056745,-0.056599313760583074,-0.11731538792753723,0.8826113881817739,-1.920330002259944,-2.5877290683802383,-0.9007896163141844,0.1076,-0.0866
5.24945620005019,-0.0430731908287844,-0.11749792318491237,0.8736211230881,-3.63286760867985,-6.001698951512811,1.8896930717577962,0.1076,-0.0866
5.313415199983865,-0.04117695307057255,-0.11770494610549294,0.8735749659220488,-2.9944620612593904,-4.67821383243337,2.8634241152277538,0.1076,-0.0866
5.3808447000337765,-0.03723385605312278,-0.11883058892380102,0.8790041623339302,-3.4029712869655646,-4.253485912099379,4.4114383570972056,0.1076,-0.0866
5.448334800079465,-0.03087229408626589,-0.11878058924279519,0.8800228185799589,-3.2947915835793213,-3.6097514233226367,5.556082148320792,0.1076,-0.0866
5.516151100047864,-0.008687660939735855,-0.1180179368991435,0.882056382179822,-3.0201053987751365,-4.08915947652517,9.060526203500777,0.1076,-0.0866
5.580731000052765,0.006173594289810263,-0.11680513935136254,0.8802192312763608,-4.07361081677809,-4.3929215882266375,12.234555096378175,0.1076,-0.0866
5.644288000068627,0.020290359877769382,-0.11503250378798156,0.8821169425354476,-3.6758698635730105,-3.647307454372155,15.031399561287326,0.1076,-0.0866
5.724543099990115,0.034303187522425546,-0.11226127195246392,0.8819550931496793,-4.540731358561188,-2.2998465378135426,17.537037257625702,0.1076,-0.0866
5.793724199989811,0.04842169448996803,-0.10927310318754731,0.883313998124814,-4.12865924765123,-2.2508668479830685,20.210841778947017,0.1076,-0.0866
5.85961370007135,0.06187483744982594,-0.10540571736492606,0.8813085880896431,-4.488183358301309,-2.583125605227615,23.123747803239453,0.1076,-0.0866
5.922133499989286,0.07519121847359422,-0.10078429042484982,0.8825712346836821,-3.7411758636257573,-2.106261568273403,25.625430415660187,0.3832,-0.0597
5.991279600071721,0.08819320743880092,-0.09403123803530256,0.8818646558767823,-3.6279786977305775,-3.1541242842551958,24.55356112655077,0.3832,-0.0597
6.05421590001788,0.10098519802135082,-0.08725273786501833,0.8823728470150901,-3.137743973075444,-3.648297425943039,22.03326363222389,0.3832,-0.0597
6.132149900076911,0.11350043013708982,-0.08082938764059304,0.8809754426612848,-3.8387910769623605,-3.3432747566592025,19.192752393491762,0.3832,-0.0597
6.20347980002407,0.1268576229817965,-0.0752324873769211,0.8826050519092089,-2.947940615542391,-2.974101778320379,15.886765343930598,0.3832,-0.0597
6.270997400046326,0.1441502668008402,-0.06900558557626706,0.8827684656966581,-1.8095771007979897,-4.887906856299418,10.841760696877847,0.3832,-0.0597
6.335447299992666,0.17083572043989734,-0.06165648471562083,0.882563789777264,-2.251451670769995,-6.210735373185476,2.922425682565098,0.3832,-0.0597
6.401745300041512,0.1987767606554904,-0.059258714691120665,0.8850786797022696,-2.31259055291826,-4.441976396529414,-2.13204835381079,0.3832,-0.0597
6.46649120002985,0.2245847684890049,-0.060088608763588944,0.8867841450247363,-1.946903498801025,-3.5885982553036477,-4.793255687949932,0.3832,-0.0597
6.532173700048588,0.24839451057867468,-0.06114406755581508,0.8864403760770487,-2.1971795545978265,-3.1629077523810274,-8.056769357893529,0.3832,-0.0597
6.5971007000189275,0.2729748651354167,-0.06393465189031261,0.889731686058295,-1.690275180772281,-2.2362576042671196,-11.681228225834461,0.3832,-0.0597
6.664163700072095,0.29625572481116713,-0.06893490699086875,0.8929109747229975,-1.3625351163667387,-1.752490608821583,-13.046342246200911,0.3832,-0.0597
6.74195639998652,0.3154435035885978,-0.0747218804551648,0.8931262530798652,-1.3234242831609415,-0.7698838990385247,-10.642553165526676,0.3832,-0.0597
6.804457799997181,0.3313985931164162,-0.07916869164065242,0.8917665724572026,-0.7170414604269824,-0.6073363664459405,-7.435041212300128,0.3832,-0.0597
6.870911900070496,0.35095313009986245,-0.08310283442969599,0.8910752880608022,-0.33120560679359734,1.1455047259634674,-3.3956328561833438,0.3832,-0.0597
