t,x,y,z,roll,pitch,yaw,desired_x,desired_y
3.0970443000551313,-0.2631651491682793,-0.08177391968649907,0.8811750936257473,8.79752594154623,-29.655638053212854,-1.2100705454081047,-0.0716,-0.0852
3.161892000003718,-0.26285670760192736,-0.08165951712560032,0.8801669242922465,9.16005055924983,-30.310259527531397,-1.3612494077106514,-0.0716,-0.0852
3.2240447000367567,-0.26310957422718734,-0.08174842575982891,0.880966158580655,8.8356597877863,-29.720022287230346,-1.233323741813091,-0.0716,-0.0852
3.2892032000236213,-0.2629587114666244,-0.08168471215276246,0.8804708509866562,8.951745089211371,-30.048878218524493,-1.291703362785443,-0.0716,-0.0852
3.3522436000639573,-0.26318426509481,-0.08176941772217629,0.881231580910262,8.449455079326007,-29.65423204573853,-1.162452474344905,-0.0716,-0.0852
3.413367100059986,-0.26276336069173356,-0.08164286599844273,0.8798492641278038,8.911157093770528,-30.249551891766707,-1.3682930781049685,-0.0716,-0.0852
3.477646499988623,-0.2561377078086016,-0.0821468001406792,0.8805578328663879,2.9864522985443447,-2.3528947630512977,2.380972211246434,-0.0716,-0.0852
3.5406327000819147,-0.24226775787231078,-0.0822484390261474,0.8836027202696366,5.3077217154457355,-3.932703527314222,3.490704236184563,-0.0716,-0.0852
3.6017220000503585,-0.22366308346114744,-0.08049252250690736,0.8805401858913977,6.948572416140893,-2.833284345938093,1.7857811941591222,-0.0716,-0.0852
3.66273410001304,-0.21612084996980763,-0.08046460262780086,0.8885164443349653,7.523318039016527,-10.538073686386637,-0.4636475601089936,-0.0716,-0.0852
3.7342461000662297,-0.19529871998903067,-0.07884067051442711,0.8831810555327164,8.300223813641258,-4.33598925710967,-2.9221734250668376,-0.0716,-0.0852
3.7947440000716597,-0.17640565964080293,-0.07957828742350416,0.886653018303723,7.110982580885936,-8.413752201510398,-6.265259240294047,-0.0716,-0.0852
3.854133400018327,-0.1560503378979485,-0.08051710929824535,0.885219760078914,7.421908912270044,-9.717952232303986,-9.727219389768608,-0.0716,-0.0852
3.919479600037448,-0.13683108440206374,-0.08255583801824647,0.8852869531774188,10.023332662043583,-11.276328409989908,-13.535783398553217,-0.0716,-0.0852
3.9809357000049204,-0.11764788881395419,-0.08682396970189839,0.8843513474123853,0.6964025478459311,-3.8750863964436206,-13.111888966973252,-0.0716,-0.0852
4.040391699993052,-0.09821051052728053,-0.09159570185447052,0.8804029678230622,-2.561727071311558,-4.730992140120388,-11.196424549446963,0.1076,-0.0866
4.101623499998823,-0.07953366085614302,-0.0964287476204388,0.8822002277688149,-1.9092111766897348,-3.5514262749005394,-8.551491733436047,0.1076,-0.0866
4.161003099987283,-0.06032054656179386,-0.10039825943057958,0.8831344613528942,-0.5288980661585976,-4.6243591961253925,-5.941752359847479,0.1076,-0.0866
4.223391200066544,-0.050483562940840984,-0.10150447999592718,0.8803651725888234,-1.9964308137549713,-6.770654924276772,-4.6737847757830435,0.1076,-0.0866
4.283927500015125,-0.03128466354258618,-0.10386909787044016,0.8797047048930724,-3.4726179532083874,-5.640973160315195,-2.1416027998599505,0.1076,-0.0866
4.347253100015223,-0.01190564047975229,-0.10590738555300754,0.8801364757896666,-3.626227718869858,-3.6625546677005425,0.7094805553564907,0.1076,-0.0866
4.407285900088027,0.009010434619824495,-0.10738060277622052,0.8830543088056763,-2.5218990262909946,-4.908803547830216,5.459659634716004,0.1076,-0.0866
4.469013800029643,0.03028551527627789,-0.10669920473144268,0.8818668488293692,-3.616026477904324,-5.774784996534339,9.752248987890379,0.1076,-0.0866
4.528891800087877,0.05031678206037859,-0.10467212684321292,0.8837890254992327,-2.8557760879168126,-4.871512545547287,13.252167459234556,0.1076,-0.0866
4.588674600003287,0.05993230807473173,-0.10298817879372102,0.88446642698655,-4.057236145092478,-2.4989187315297787,14.382719973335407,0.1076,-0.0866
4.64895190007519,0.07936036994166959,-0.09898322581775346,0.8844486910337843,-3.2222581602541767,-3.995724780443384,16.89803608419559,0.1076,-0.0866
4.713968700030819,0.09853166554025919,-0.09462794157478731,0.8863902093926088,-3.5911212578179734,-2.934913971730441,19.720481575922307,0.3832,-0.0597
4.776105800061487,0.1176808254655281,-0.08890816328371057,0.8869535596343552,-3.3300714629642356,-3.313031033039787,22.37331512875055,0.3832,-0.0597
4.837574800010771,0.1365526574518908,-0.08215870752416204,0.8886351302141392,-2.1967550400764977,-3.177610359049451,24.61840538484608,0.3832,-0.0597
4.912360800080933,0.15456465433025013,-0.07490480351379199,0.8876122901351832,-2.2808146320865053,-3.61801281297053,27.261444865978174,0.3832,-0.0597
4.973862400045618,0.16868931877934426,-0.06853452046701941,0.8882558012254883,0.3713333107419455,-6.151260183185434,28.30064696272532,0.3832,-0.0597
5.033497299998999,0.17046149736572622,-0.06810609273430232,0.8921881912826007,1.0659993619926549,-5.793132286417938,28.34905565915992,0.3832,-0.0597
5.095872700097971,0.17288564810630594,-0.06481812914205137,0.8860613031350786,-2.1823466344803593,-2.4391303019327193,25.839003213930322,0.3832,-0.0597
5.162133300094865,0.19091672801855197,-0.05515246822079304,0.8883388575856117,-1.194052717388197,-4.206884970683262,21.583942183075763,0.3832,-0.0597
5.225944200064987,0.21086869618759657,-0.04638262339409861,0.8887404669762073,-1.5200331729186334,-3.9987980508541177,18.27166340586109,0.3832,-0.0597
5.288695199997164,0.23125488241847342,-0.03869733175146778,0.8887098673950881,-1.8487474120006056,-3.3891526212164798,15.120139167009727,0.3832,-0.0597
5.352262700092979,0.2521570173224632,-0.03230834285394337,0.8893765225921618,-1.0847956925609046,-3.2209604765525324,11.854843645272227,0.3832,-0.0597
5.413943300023675,0.2729149730845325,-0.02710994721405697,0.887430215012532,-0.9641089475197547,-3.2142071835865287,8.484601633009202,0.3832,-0.0597
5.473282300052233,0.2939993768303304,-0.023101663070494362,0.8866859452837245,-0.8511916640167292,-3.046776920768253,5.292034266467709,0.3832,-0.0597
5.545790700009093,0.3162165203822331,-0.020311799466954925,0.8870410534021538,0.06553245187568157,-2.794129575608267,1.7274477463998354,0.3832,-0.0597
5.606949200038798,0.3276400694326006,-0.019719022827052658,0.8892600730798089,-0.040505606852468665,-1.7571348841928711,0.5066821014310594,0.3832,-0.0597
5.669530600076541,0.3589994559943467,-0.018501547250809942,0.8870479765645933,-0.09780673601233787,-0.9500476718360213,-4.560643067125743,0.3832,-0.0597
