t,x,y,z,roll,pitch,yaw,desired_x,desired_y
3.102200699970126,-0.26413365816345447,-0.0687490800107781,0.8798504741021089,10.188979028425393,-31.776624618202604,-3.117622349420562,-0.0716,-0.0852
3.162186099914834,-0.26583418657223534,-0.06926032741442677,0.8845257605420878,1.526978019999574,-2.4449519352987164,-0.2633308951349402,-0.0716,-0.0852
3.2214044999564067,-0.2652196963844278,-0.06906635871483657,0.882468240210894,-0.6428050000860775,-2.9289685469185023,-0.577144765716221,-0.0716,-0.0852
3.2815389999886975,-0.2659952449995507,-0.0693120288113665,0.8850784443721296,1.012155069047771,-2.97853954638561,-0.3689051550579817,-0.0716,-0.0852
3.352832399890758,-0.2660694363117113,-0.06932918659384046,0.8852987165294016,1.2021246851563376,-3.078463784907105,-0.3311734843891128,-0.0716,-0.0852
3.415551699930802,-0.2642511737509614,-0.06878220555846279,0.8802421548988706,10.216179920091113,-31.645648644655353,-3.043254236650001,-0.0716,-0.0852
3.4756181999109685,-0.26095719813104695,-0.06909973936331079,0.8840979369895163,1.045753440906843,-1.8452896987978755,-0.7086553404836842,-0.0716,-0.0852
3.5359078999608755,-0.24741885709921382,-0.06852762798084354,0.8851556955133562,0.41810550458024903,-2.087836049292773,-3.318925144359376,-0.0716,-0.0852
3.6067880999762565,-0.2302101356940217,-0.0687185633401331,0.8864533733628291,0.8294662627045783,-2.3589847394919823,-6.4439142868620625,-0.0716,-0.0852
3.67045989993494,-0.22040279805257573,-0.06917819983230368,0.8851678311114538,-0.04981570208106673,-1.8302911886407547,-8.028426873132135,-0.0716,-0.0852
3.7346506998874247,-0.1913451904887109,-0.07203045867190254,0.883013152291568,0.6811721868379667,0.15801788932418306,-12.049396174720801,-0.0716,-0.0852
3.8019453999586403,-0.18252967087242367,-0.07437904816810818,0.8869932958603628,0.6599609953981818,-2.2462339780487235,-12.384704958680231,-0.0716,-0.0852
3.8626905999844894,-0.16319031518525887,-0.07933471761045122,0.885116991682016,-1.798804382544474,-5.0781523163740045,-10.701553978783265,-0.0716,-0.0852
3.9214996999362484,-0.14468508503210858,-0.08364307756989481,0.8856813882044408,-1.9956780661361841,-4.802843838503122,-7.974048032169105,-0.0716,-0.0852
3.9813800998963416,-0.12529502806589227,-0.08694622613083922,0.8834973229873045,-3.159998815351464,-6.041493301021054,-5.801665598195466,-0.0716,-0.0852
4.045292199938558,-0.10616644142634896,-0.08997424992999288,0.8835124838123266,-3.018831970900484,-6.027910764576076,-3.1027509377105544,-0.0716,-0.0852
4.105763199971989,-0.08663790297998993,-0.09139569397500397,0.8802479273265146,-3.767606530264033,-6.775680238832849,-0.4927016049592434,0.1076,-0.0866
4.166748799965717,-0.06696306395743075,-0.09252879373476615,0.8804345627056814,-3.277791555189075,-7.9540442944998375,1.894926819094325,0.1076,-0.0866
4.224555699969642,-0.05731248299305135,-0.0925857913413994,0.879490995871682,-4.500972504245983,-5.883800864110574,3.4641975773173135,0.1076,-0.0866
4.284396299975924,-0.03826691781311556,-0.09228440844963068,0.8794096877325925,-3.9582804968787664,-7.175408675111616,5.771673295506439,0.1076,-0.0866
4.345795199973509,-0.01909654620821015,-0.0911023858827203,0.8790493081131417,-3.4718879181251943,-5.1461858649949095,8.228503632412195,0.1076,-0.0866
4.4193691998953,-0.009109310175105696,-0.08942531804403747,0.8727885112111817,-4.219309566883518,-5.844808001528019,9.444557617572478,0.1076,-0.0866
4.480637199943885,-0.00847839889140029,-0.09000558723235424,0.8764376720194846,-4.992414836628887,-3.2025162794207214,10.257206160622161,0.1076,-0.0866
4.544456999981776,0.004345049569292614,-0.0886384127304406,0.8790850344489415,-3.8715461322885356,-6.498929729930787,11.657671863730844,0.1076,-0.0866
4.605408799950965,0.012564396666638536,-0.0869976969483067,0.879937859927012,-3.8874761341347304,-5.552128508760649,11.136205703190686,0.1076,-0.0866
4.6650251999963075,0.030484065002220655,-0.08258881742277296,0.879714183421595,-3.287851984542373,-5.639053565332656,8.88252583491502,0.1076,-0.0866
4.7273525999626145,0.04926526306484871,-0.07875869454675127,0.880951369418801,-2.180029097844372,-5.468786121309365,5.804943476430249,0.1076,-0.0866
4.789034899906255,0.0681803468129813,-0.07585591429848193,0.8789976623093319,-2.905181821597541,-5.957145282018168,3.01400666338113,0.1076,-0.0866
4.850862499908544,0.08766038145100949,-0.07395902648693506,0.879258359771127,-2.7640463674213627,-5.6198415414653775,-0.34653551676368755,0.3832,-0.0597
4.912525899941102,0.10721606469527252,-0.07336404728735066,0.8804883509915464,-2.1965576417147243,-5.220895483349663,-3.3767867287554134,0.3832,-0.0597
4.971827999921516,0.11712378149328302,-0.07315903360037374,0.8798473066497765,-3.0248327229294025,-5.00624856382797,-4.947187988788821,0.3832,-0.0597
5.03083439997863,0.1369648195251913,-0.07402680748505977,0.8809915490954223,-2.2575151255076933,-5.103211375718965,-8.125640882487964,0.3832,-0.0597
5.104064899962395,0.1566420209740854,-0.07614918434787657,0.8833440973909072,-2.087218284954365,-4.801259198452099,-11.160187800545577,0.3832,-0.0597
5.165657199919224,0.1767225861142253,-0.07953512906823897,0.8863237137996921,-2.479421146497642,-4.056709307470368,-13.945859983284585,0.3832,-0.0597
5.225487399962731,0.20119908980168705,-0.08638927777058297,0.8883871686244785,-2.2005730253519022,-4.926608189249034,-13.65878328697419,0.3832,-0.0597
5.28753339999821,0.22801778499389844,-0.09383941599290557,0.8900586684658843,-1.9156353689176966,-4.318066396690123,-11.411739165878533,0.3832,-0.0597
5.347193699912168,0.25230074955140347,-0.09982824151930154,0.8889177178716046,-1.4435227846071557,-3.7723698593301664,-8.964439406530147,0.3832,-0.0597
5.405349199892953,0.2744346840047456,-0.10424730511834678,0.8889233409295849,-1.2741265994624669,-2.548978863195302,-6.029408894999528,0.3832,-0.0597
5.4670259999111295,0.28564559612669665,-0.10632490654990902,0.8899126766288491,-0.9730293108967463,-2.128485641005454,-4.540445546493734,0.3832,-0.0597
5.537665899959393,0.30521744175776994,-0.10927768202994806,0.8867767286602986,-1.080932811879641,-1.5624940519175268,-0.3614689328345439,0.3832,-0.0597
5.600130099919625,0.3254204070956951,-0.11105600411650723,0.88822693405756,-0.9611346074542897,-0.8260122638956672,3.673331212335266,0.3832,-0.0597
5.6628949999576434,0.34494386694758183,-0.1106468828050943,0.8885281967648996,-0.8033564630860441,0.2837418329263124,6.27991001559591,0.3832,-0.0597
5.723545499960892,0.3640860573998988,-0.1099339827042054,0.8885624528788486,-0.339867260101146,0.6313793637777733,9.929436421852216,0.3832,-0.0597
5.78618319996167,0.38302031934043007,-0.10806997024875059,0.887840749358475,-0.17339354565042223,0.7521740096394223,13.776069188707307,0.3832,-0.0597
