t,x,y,z,roll,pitch,yaw,desired_x,desired_y
3.0816978000220843,-0.2822096813943085,-0.07137836499089112,0.8830915124101808,3.5942071990239235,0.34600937472008103,3.23511111583063,-0.0395,-0.1
3.1342504000058398,-0.2827392756055862,-0.07150014267014776,0.8847448010130404,3.9612893192226473,-0.11356303228980758,3.2545994964721956,-0.0395,-0.1
3.188077900034841,-0.282200495531681,-0.07137369962774003,0.8830452874472805,3.8384720193085298,0.38601183511503523,3.2679900192714224,-0.0395,-0.1
3.255756400001701,-0.28135283666320116,-0.07123245480663593,0.8815963910059622,4.578035871251111,-36.768979861030644,0.45306687735867857,-0.0395,-0.1
3.308109100034926,-0.2822142609084887,-0.07139115102991662,0.8831463418769256,3.3542850494567813,0.3580099737673108,3.2122651173629744,-0.0395,-0.1
3.360865500057116,-0.2824292148995669,-0.07143660028874452,0.8837781188402765,3.757757942963035,0.008672568607778016,3.247478882182938,-0.0395,-0.1
3.4124496000004,-0.280463917094519,-0.0710480507476907,0.8837673489480602,4.847943995839289,0.7312713921358476,2.6337664723561582,-0.0395,-0.1
3.465843100042548,-0.2674837826057457,-0.06993047183041869,0.8847384842405865,5.957711150330985,1.1075611929947502,0.4902536209522533,-0.0395,-0.1
3.519987100036815,-0.2560833922333278,-0.07010071022769651,0.8818982671348804,6.712248122153979,-32.55565622243178,-3.6281544028566013,-0.0395,-0.1
3.57110590004595,-0.23579556540642913,-0.06968203849352334,0.8816202625802968,6.821019943122631,-31.026886808775284,-5.968804410074322,-0.0395,-0.1
3.624018900038209,-0.2151895806266499,-0.07008643159913017,0.8829866296820639,7.725304305918145,-27.68395201363506,-8.720865359924899,-0.0395,-0.1
3.6767318000202067,-0.2074907693028247,-0.0715058376945613,0.8952163188980896,9.44883169364961,-9.437996290971602,-8.169231333009243,-0.0395,-0.1
3.731805500050541,-0.18580225918728557,-0.07367587959603646,0.8942544859496591,6.549558681961639,-5.494028955009351,-10.733463423598215,-0.0395,-0.1
3.7865213000332005,-0.1749703901044931,-0.07518269516564205,0.8946328233111822,6.157153247370183,-5.646706264577138,-12.221846019967785,-0.0395,-0.1
3.8428492000093684,-0.14897858319726784,-0.07788947531365152,0.8753064400437692,-1.2770479815367302,-10.394370790799307,-14.019859515100103,-0.0395,-0.1
3.9016128000221215,-0.141713932848646,-0.08027739327558321,0.8778828239056725,1.0719579781634552,-8.019455706231826,-12.965744116028773,-0.0395,-0.1
3.9572647000313736,-0.13049536579311324,-0.08616142386099866,0.8808635575702772,-1.4975287191206617,-0.9563031774485073,-7.946469748577887,-0.0395,-0.1
4.015432700049132,-0.11879631913917231,-0.09059922562894804,0.8839289510149639,0.7037339512863857,-2.8200301014241433,-3.3615717593909427,-0.0395,-0.1
4.071801100042649,-0.1045532886612026,-0.09197448822328164,0.8801574007607788,10.851458224733733,-12.553564857340524,-1.5266669567959565,-0.0395,-0.1
4.125982700032182,-0.0881674270914363,-0.08847114337838517,0.8681047944792686,-3.536283005309735,-8.540991652682251,-2.136326303353286,-0.0395,-0.1
4.179307000013068,-0.08239734567711071,-0.08883012371487536,0.8693451893989971,-4.302879020821678,-6.869838505990658,-1.952407136462504,-0.0395,-0.1
4.232321300019976,-0.07334282534194525,-0.09160018622420509,0.8830540585224729,5.360242908093524,-0.6608662195538554,0.7033589444607609,0.3445,-0.0912
4.287150800053496,-0.0656243977249908,-0.09269779375308575,0.8791912362425645,-3.543493143231,-3.051209412630543,1.9528230807707951,0.3445,-0.0912
4.345461900054943,-0.050189306616636495,-0.09211281666146659,0.8768446846931236,-1.9488696924280928,-4.292994698601807,2.745980159578707,0.3445,-0.0912
4.401206800015643,-0.036892298450093404,-0.09059928161242645,0.8769991294854339,-2.7175648823882286,-4.914575836878712,0.19972802320515706,0.3445,-0.0912
4.4558928000042215,-0.029877944472270053,-0.08993274567913562,0.877174815591106,-1.053591870260438,-7.237758280950913,-1.1621625606775592,0.3445,-0.0912
4.5098773000063375,-0.012775804741567481,-0.09103515011253654,0.8812340147856605,-0.7258458499396044,-6.355450847217881,-2.106808655653713,0.3445,-0.0912
4.564137900015339,0.015893203721025876,-0.09383780145100547,0.886437987585254,-2.7320279417061917,-6.002806107500443,-2.5258845318414935,0.3445,-0.0912
4.630545900028665,0.03276630448140953,-0.09438108630295673,0.8820867713289319,10.902072173081569,19.772961096220662,0.23788224916091882,0.3445,-0.0912
4.682371100003365,0.06642579820581886,-0.09218955190181832,0.8826450334335818,0.43250481632593624,-10.22838440639661,-6.402430120078477,0.3445,-0.0912
4.735050300019793,0.0996868603309542,-0.09620084473368298,0.8825734404529458,-0.6006990123743139,-11.166846882902917,-8.710523251183899,0.3445,-0.0912
4.788510300044436,0.11591850524513149,-0.09912648672130611,0.882582656769022,-1.05547682742671,-9.863078808409503,-7.863272006918894,0.3445,-0.0912
4.840945700008888,0.1492723146572361,-0.10378049104527054,0.8831372788273069,-0.17765296687602905,-8.724891346472104,-6.036795460432502,0.3445,-0.0912
4.89258320000954,0.17918115138979548,-0.10893025261505965,0.8803019603795749,-0.7302941056442311,-5.877651717654301,-2.4577570420757233,0.3445,-0.0912
4.945448800048325,0.19316074292653737,-0.10913703742243791,0.8850001532702265,1.144852655366303,-10.30172308223231,-4.206749707124418,0.3445,-0.0912
5.002640600025188,0.21745172658469591,-0.1119533676398568,0.8847909813767979,-0.055093108524929976,-5.289425410751471,-4.12267814485539,0.3445,-0.0912
5.055206800054293,0.22790800776743925,-0.11197172649412068,0.8866347087606724,-0.004739656041357096,-3.517351981658222,-3.350258496426779,0.3445,-0.0912
5.110369300004095,0.24548073962635777,-0.1117219811039181,0.8867879183052508,0.06619574762981517,-0.7341812612745042,-3.0634246891275705,0.3445,-0.0912
5.163794300053269,0.26302962170424504,-0.1141036551005973,0.88722073001574,-0.974507019092524,-0.2295533875493405,-0.8776886369608169,0.3445,-0.0912
5.215596900030505,0.27283478953920687,-0.11600589831892162,0.8877337123790225,0.1322172360087507,-2.2863272619479496,0.9107032299115901,0.3445,-0.0912
5.267256300023291,0.28933601423072036,-0.11699023811368194,0.8875533493071203,0.8910120155613994,-2.8662464183280867,4.237063007601031,0.3445,-0.0912
5.318436500034295,0.30292255171204413,-0.11743218888923468,0.8895512439512403,0.40749728509643623,-0.14824976316989694,7.029543311234756,0.3445,-0.0912
