t,x,y,z,roll,pitch,yaw,desired_x,desired_y
5.3744884000043385,-0.274330551412482,-0.08202441372313068,0.8818856266470592,4.531565099424459,-2.672648889456455,0.9579736256897775,-0.0395,-0.1
5.427787799970247,-0.2726669661595709,-0.0815408262175605,0.8775558626046587,9.226586437815342,-33.47925873804574,-2.480424067482386,-0.0395,-0.1
5.48924739996437,-0.27398086070322586,-0.08191841401437573,0.8807376143844297,3.545456853125792,-1.9752421567995164,0.9238909883154407,-0.0395,-0.1
5.544456799980253,-0.2734781012810945,-0.08179650285378719,0.8792454155361217,3.0200806562112565,-1.5105396914808968,0.8442172815486588,-0.0395,-0.1
5.599214899993967,-0.27337239935496543,-0.08176342302751012,0.8788277214439209,2.9955835434680402,-1.2192675798239585,0.9265011392662914,-0.0395,-0.1
5.652020499983337,-0.27317256246574645,-0.08183970551068194,0.8789661041863222,3.214508726733597,-1.2933487713835277,0.950481438423188,-0.0395,-0.1
5.709905099996831,-0.2679234912432893,-0.08122500762263657,0.8769665813186858,8.207482188748317,-34.4626625532772,-3.089993648384797,-0.0395,-0.1
5.762884899973869,-0.2547668055908931,-0.08279768213632432,0.8819148294263132,2.974540297146445,2.4604429603670694,0.08241435215951791,-0.0395,-0.1
5.813331199984532,-0.24483818462922338,-0.08244635383209828,0.8800929951048354,9.4589107951602,-33.691422567061316,-4.76346123541763,-0.0395,-0.1
5.865111099963542,-0.22516841319108194,-0.07899629829175334,0.8814772933625655,7.793444549010296,-26.897972500834804,-8.97500815369837,-0.0395,-0.1
5.917507799982559,-0.2180108834125729,-0.07922279204251599,0.8877031802388513,7.708540787218461,0.8232742697820504,-8.248393235524635,-0.0395,-0.1
5.96728169999551,-0.19823789347939458,-0.08118841481227866,0.8866602233533838,9.33807214473966,-25.171412567336457,-15.541311511764135,-0.0395,-0.1
6.016979200008791,-0.17715820996288623,-0.08639864422753381,0.8899920395367571,11.21429188262635,-15.736414689196211,-16.35182049365912,-0.0395,-0.1
6.067791599954944,-0.1676444120365965,-0.08874014714348756,0.8929876004979522,5.937454701722638,-11.746018784350127,-16.843310444340887,-0.0395,-0.1
6.11925849999534,-0.14507670229786668,-0.09430937780120655,0.8786229256149986,-1.3188190291551412,-10.138908984467541,-13.937323013131602,-0.0395,-0.1
6.170067899976857,-0.1359976995756671,-0.09698800752982958,0.8785194790073256,0.4361278749565064,-10.740066072842227,-12.768119188492147,-0.0395,-0.1
6.221160699962638,-0.12673297892234556,-0.09448624136290328,0.869684124327944,18.446088442071076,-9.112786420197486,-14.370806206685446,-0.0395,-0.1
6.272987300006207,-0.13035844793525106,-0.09479609091172223,0.8800979968332836,16.939478690652873,-8.39766362987257,-16.275395665560037,-0.0395,-0.1
6.3280194999533705,-0.124630752451583,-0.09842600767148096,0.8818867863086863,-1.6797075697510226,-3.724120979807321,-13.354552659609684,-0.0395,-0.1
6.382797300000675,-0.1207133129459265,-0.10118820641139195,0.8819702233910967,-1.647393168144731,-3.3490657083647815,-10.631310845458612,-0.0395,-0.1
6.437482499983162,-0.11067116581555349,-0.10550904032478521,0.8799592244623976,-0.9635837659284892,-2.4738713700493933,-5.635158581254318,-0.0395,-0.1
6.499571299995296,-0.09561977111486811,-0.10599567623092601,0.8749786955558765,-0.3979449967726342,-8.514404635731136,-4.609839960259151,-0.0395,-0.1
6.55149469996104,-0.08917934511954705,-0.1069152028253997,0.8765294816938367,-0.18531785730065883,-7.530389938034149,-3.5995722112003916,-0.0395,-0.1
6.616000799986068,-0.0764871726806333,-0.10876265508448159,0.8762449588272403,-2.4505461686313987,-4.155490300138994,-0.6862578153786995,-0.0395,-0.1
6.668924800003879,-0.06366490383098529,-0.11051897437535547,0.8773436663498959,-3.0704925772522444,-2.146708626750405,2.773222849153363,0.3445,-0.0912
6.7217647999641486,-0.05275404552799679,-0.11367831586349593,0.8812621856237092,-1.8388275556411953,-2.2175731125790974,8.344668441965867,0.3445,-0.0912
6.7744693999993615,-0.04658864962188901,-0.11266559851517173,0.8834868672299969,5.282890424014341,-6.924093961113852,9.07591994004344,0.3445,-0.0912
6.827461799955927,-0.033843521164970705,-0.10881597065313552,0.8785036875263595,-3.3255998249516883,-4.055856917257754,8.723665204586348,0.3445,-0.0912
6.878990800003521,-0.019270392115845386,-0.10769892666173524,0.8747815762008109,-1.9520302115989125,-8.387005232955666,10.906118927503455,0.3445,-0.0912
6.93221459997585,-0.01716783729506621,-0.10796260793688751,0.878495583535608,4.480252864605142,-4.030896965335197,11.402179182937004,0.3445,-0.0912
6.989814199972898,-0.017381090003271173,-0.10765517091358556,0.8745033172862835,-2.944134660875419,-4.903658351549446,11.608272083141177,0.3445,-0.0912
7.047518899955321,-0.006023551151721681,-0.10622883151649384,0.8832740748772018,-1.8454016021790898,-5.1369786151894665,9.504014755583693,0.3445,-0.0912
7.102935599978082,0.02237216242779856,-0.10258251929549682,0.8886752995657466,-1.3078670142134923,-3.074268296516635,8.607002946293521,0.3445,-0.0912
7.161219700006768,0.05252380784248421,-0.0920185156078957,0.8779257309573163,1.6792471281494126,-9.325049224470273,2.2269396744298287,0.3445,-0.0912
7.214153999986593,0.06335569859306901,-0.09017671926544496,0.8813692796709518,12.51823689298307,14.693799092315475,1.7320927200310785,0.3445,-0.0912
7.266739499988034,0.09344508808079711,-0.08953922703426292,0.8793705497939942,-0.04839129701353392,-10.622016627666525,-5.6498997089991,0.3445,-0.0912
7.321395199978724,0.1270583484837962,-0.0933175669357991,0.8822364609564778,0.6205602325384266,-13.122275546727726,-8.201374049147853,0.3445,-0.0912
7.373923999955878,0.1439697519428793,-0.0959589285298251,0.8864572947976013,-0.6689852646930365,-9.351669188252401,-7.861630256537862,0.3445,-0.0912
7.42648119997466,0.16716929950455175,-0.10062692036241946,0.8803977239492814,-0.6577167257120389,-5.918646595510724,-5.332716301039613,0.3445,-0.0912
7.480209000001196,0.18250276239462104,-0.10072987021463466,0.8831583228919079,0.42935720359052315,-6.331489030016203,-6.437935040148546,0.3445,-0.0912
7.534059999976307,0.203471026716522,-0.10135059636854325,0.8854481999171644,1.083746417640339,-3.842217226636261,-8.018556194300581,0.3445,-0.0912
7.585550499963574,0.2270175423046327,-0.10654152109731022,0.8885462541819568,-0.29267005219160636,-4.167573702388533,-6.163184994907016,0.3445,-0.0912
7.638196199957747,0.237500330253948,-0.10820850377462603,0.8872088226688251,0.2873007630550716,-4.129514516682174,-4.873476629544135,0.3445,-0.0912
7.69388529995922,0.24658043277118538,-0.10760762770516014,0.8868190307895578,1.1992767847789625,-3.281893219151135,-5.232413763235823,0.3445,-0.0912
7.746470899961423,0.2614381124674658,-0.111390538568624,0.8890425038805719,-0.3120103046063917,-0.6104000196783812,-1.8438045001048922,0.3445,-0.0912
7.802795599971432,0.2759861834291274,-0.11289778492193805,0.8870444133875961,-0.25964627581054567,-0.1404146519725475,1.1530468564835188,0.3445,-0.0912
7.855237399984617,0.2829386282819158,-0.1134238519047524,0.8870205618927609,0.1942912951577219,-0.011266084542365365,2.373002308292281,0.3445,-0.0912
7.910872199980076,0.2976720545359118,-0.11440010722687005,0.8893790042966803,0.5693429140129217,0.34857772789404556,5.364785085223167,0.3445,-0.0912
7.976213099958841,0.3144541927747776,-0.11608446427795682,0.8901916233996331,0.8739970580581388,-4.175590632710776,10.23767351829194,0.3445,-0.0912
