t,x,y,z,roll,pitch,yaw,desired_x,desired_y
3.078684199950658,-0.26772698555230895,-0.08202213348257148,0.87292911697705,1.1386072565589056,-1.3522031202006182,3.1345307043325805,-0.0716,-0.0852
3.1305048000067472,-0.2684461499836691,-0.08225219996931854,0.8753711701287762,1.4002373937705,-2.3818452660669314,3.167017104723304,-0.0716,-0.0852
3.182689999928698,-0.26693183887982486,-0.08181325852508636,0.8715840609429646,9.438209461210267,-33.54022042063593,0.2644115935998275,-0.0716,-0.0852
3.2341141999932006,-0.26688978528110097,-0.08181981622143766,0.8714638170735496,9.548592658657961,-33.56920773942272,0.17157537015060192,-0.0716,-0.0852
3.2860096999211237,-0.26831075124527315,-0.08221360729917462,0.8750349383664914,1.4308482551656585,-2.3271499993585296,3.1187005366566813,-0.0716,-0.0852
3.335528500028886,-0.26587082292115133,-0.08158950904099863,0.8750335540862569,2.5562193493970784,-1.564387166660848,1.896798343778045,-0.0716,-0.0852
3.3851896999403834,-0.25424663447843965,-0.08122404416332538,0.8850772096836327,4.04519747169862,-6.267072822318177,-1.0439144604909294,-0.0716,-0.0852
3.4376238000113517,-0.24369616923482074,-0.0802957587404927,0.8790425739158071,3.4549911738602126,-2.358854534576531,-2.3940136492824085,-0.0716,-0.0852
3.490533599979244,-0.22580510998474462,-0.08032448237609925,0.8782117127632438,3.269654305840609,-1.6118085974879537,-5.133076487470514,-0.0716,-0.0852
3.5406924999551848,-0.2182441683083738,-0.08110310120527801,0.8841566991191493,6.19916346045907,-5.838568353368137,-6.747050699086308,-0.0716,-0.0852
3.592600899981335,-0.19812101277487768,-0.08132409753938195,0.8765212638344485,13.422109469567774,-22.052750999897036,-12.94264530438905,-0.0716,-0.0852
3.642335799988359,-0.18402451205764495,-0.08568281316527218,0.8872263300173102,7.693993172377589,-10.086505529275543,-10.599949012212289,-0.0716,-0.0852
3.6930788999889046,-0.17465791103243347,-0.08723342237877857,0.8812789857973921,12.418895018330867,-16.857029859777686,-10.387389440286805,-0.0716,-0.0852
3.7427300999406725,-0.15989822150007754,-0.09090726239691757,0.8844684582661047,5.206070365608608,-9.86949590596013,-6.927377500975627,-0.0716,-0.0852
3.7922338999342173,-0.15217711821667676,-0.0921271612701621,0.8823092960352332,2.3856224071105996,-8.665961454070503,-5.685256321209888,-0.0716,-0.0852
3.8424383000237867,-0.1455243127287385,-0.09331471253372246,0.8815101343565269,3.032532759658858,-1.8716352630207518,-3.777618664791403,-0.0716,-0.0852
3.891431499971077,-0.1312571135761873,-0.09554533507735717,0.8812905742896308,1.2570183403674082,-9.114212242662596,-1.4542149784133815,-0.0716,-0.0852
3.9410817999159917,-0.11701852294442258,-0.09669176721344758,0.8794839014862083,2.9633236592121857,-0.5862946216577768,1.7743524419420902,-0.0716,-0.0852
3.9917101999744773,-0.1099550320678437,-0.09721163001769668,0.880899136244734,0.8983904359845704,-5.960516892360588,2.6240562727223162,0.1076,-0.0866
4.043150499928743,-0.09540664060085464,-0.09709961713976856,0.8790193106594064,0.3882598080783061,-5.34360714789835,5.072614965220477,0.1076,-0.0866
4.0942936999490485,-0.08824462220431284,-0.09686680054880081,0.8793081596226421,2.398283477879056,-5.218596634581761,6.117636871787912,0.1076,-0.0866
4.142261500004679,-0.07372769717277296,-0.09640930849723997,0.8796244790703938,1.7973514562288184,-4.070665956408798,8.641320526009247,0.1076,-0.0866
4.191955599933863,-0.06648994871016824,-0.09561424051178048,0.8772290634700819,-1.059374916506553,-4.698444619815052,9.898634340771224,0.1076,-0.0866
4.243756699957885,-0.059456613327749055,-0.09414584266781459,0.8702666389995855,-3.4265996498810503,-5.743068467199698,10.661733346989884,0.1076,-0.0866
4.297494099941105,-0.05533460833571204,-0.09368640195363423,0.8698083806416446,0.6426427955435154,-9.511672413362984,11.408699797401084,0.1076,-0.0866
4.346392699982971,-0.05394175922294106,-0.09385186598269447,0.8781903446063262,3.2596415198684756,-8.320294904605893,10.233084841164022,0.1076,-0.0866
4.397430000011809,-0.04830928870047495,-0.092187324162335,0.8771953940476521,1.3177995876612907,-8.321738689974996,9.056012874325873,0.1076,-0.0866
4.453781999996863,-0.034597666212503986,-0.08891604895432359,0.8751776827502225,-0.833181727200912,-7.559240686274261,6.225260350905372,0.1076,-0.0866
4.503242000006139,-0.027311008643506846,-0.08754823217762371,0.8758326598367968,0.9566962243788368,-7.322374098875796,4.823550403327835,0.1076,-0.0866
4.5516873999731615,-0.012955086275469152,-0.08527853555467288,0.8738498139616329,1.1427143851165895,-8.174461095715568,1.9809600848814657,0.1076,-0.0866
4.600249300012365,-0.005972018893854148,-0.08427721066806299,0.8730186425782683,-1.9169691412823915,-6.079997719282156,0.8301497854130971,0.1076,-0.0866
4.652758699958213,0.00835337496832842,-0.08262650913680572,0.8730977690140163,-1.120042049533925,-6.765112462225829,-2.6540002125262223,0.1076,-0.0866
4.7013937999727204,0.015475776499498767,-0.08221205250672253,0.8727257539108144,-2.7035297187528675,-5.632357191188994,-4.164342975963979,0.1076,-0.0866
4.752736900001764,0.029678187248949033,-0.0835530103325808,0.8754644558100033,-2.693613128011477,-2.642608029700629,-4.496773191559264,0.1076,-0.0866
4.80442870000843,0.03636178835854797,-0.0844836277151409,0.8726040875834922,-3.6240115987207777,-4.871915410978312,-3.167548125343796,0.1076,-0.0866
4.853581100003794,0.050560404927555744,-0.08670122149956948,0.8777538619005021,-0.40525290056755475,-1.8854520276423783,-0.5703819711053495,0.1076,-0.0866
4.903505999944173,0.06418058992194627,-0.08767616307775758,0.8739845784411286,-3.766238297261729,-3.236819348762695,2.0780375758906144,0.1076,-0.0866
4.954076800029725,0.07124736015231105,-0.08807579024610314,0.8734382728881128,-4.060669266768993,-3.803150084817115,3.376571972560758,0.3832,-0.0597
5.008019499946386,0.07818220386046962,-0.08832814759279177,0.8734141028587132,-4.276960969435725,-2.971318134327526,4.846257639471317,0.3832,-0.0597
5.057805299991742,0.09216085893720843,-0.0885923054494972,0.8747664097648102,-4.2070026031536285,-2.690617030242545,7.550896559509919,0.3832,-0.0597
5.109909899998456,0.09934498631612576,-0.08827939646078904,0.8763696260015678,-3.423235054881375,-3.101809292661587,8.630092305597195,0.3832,-0.0597
5.1607759000035,0.11349765098914961,-0.08590052352237251,0.8765344367015931,-1.910322192505191,-3.2267500998504777,8.125230320272307,0.3832,-0.0597
5.212288799928501,0.1298459925719607,-0.08304066167505345,0.8772407705708577,-3.2477949792150813,-4.602202849593975,5.959269428661914,0.3832,-0.0597
5.265536600025371,0.14243666503499597,-0.08218425702895005,0.878635476931493,-3.343393585809946,-4.667905379625636,6.190807149232378,0.3832,-0.0597
5.320758100016974,0.1714690977460112,-0.07933074407915355,0.8797168288698168,-2.192247697474977,-5.512855133327601,6.774734142220578,0.3832,-0.0597
5.375852499972098,0.1852846958674209,-0.07726380061146253,0.878201476002784,-2.388892460345191,-5.06485047458379,5.622884038938027,0.3832,-0.0597
5.427692199940793,0.2116792240563984,-0.07360480718874812,0.8775690209938867,-1.7546560898534227,-5.096569994311091,2.4383770681621058,0.3832,-0.0597
5.480065200012177,0.22422505605793858,-0.07196034445819859,0.8773974174731186,-1.2855496883696345,-4.269400859266725,0.3602436582614832,0.3832,-0.0597
5.530580700025894,0.2504998099813473,-0.07141385722206328,0.8789383993243961,-1.4078597516076015,-3.577191017219171,-2.704245400110278,0.3832,-0.0597
5.581759999971837,0.2735910870802427,-0.07178396796981504,0.8811302415031074,-1.8292627420817802,-2.2494210585169068,-6.18406615779307,0.3832,-0.0597
5.633711399976164,0.2844527062207548,-0.0727850048204478,0.8821450920594949,-1.7603536226004501,-1.6251904452063852,-7.42369775848265,0.3832,-0.0597
5.6879101999802515,0.3040992046408869,-0.07468885977708185,0.8827866299815834,-1.5359139160570223,-0.7555547146480237,-10.201815325615911,0.3832,-0.0597
5.740198999992572,0.3145217031272586,-0.07627388893450547,0.8852663350503067,-0.7097963364639354,-1.272246417186509,-11.032227453299978,0.3832,-0.0597
5.791791999945417,0.3298422580658932,-0.07997976504476124,0.8852963261519469,-0.04868219849526905,-0.6450929874037702,-9.609025689933846,0.3832,-0.0597
5.843402300029993,0.3358248622404558,-0.08183014625906102,0.8860474268587979,-0.9795430413090663,1.4936907706382987,-8.042073453907138,0.3832,-0.0597
5.893931100028567,0.3490026646547011,-0.08497884896804628,0.8853761197586205,-0.17162849664943589,1.3909811488117338,-5.173997345807428,0.3832,-0.0597
