t,x,y,z,roll,pitch,yaw,desired_x,desired_y
3.1002455999841914,-0.26540626888356394,-0.07961662153232704,0.8698338317533914,10.013972234194174,-34.58268441104578,0.3291511067584083,-0.0716,-0.0852
3.1526850999798626,-0.26752400262425563,-0.08023478029297904,0.8755951298363296,1.7207810251255833,-1.7158147181769017,3.518999954010178,-0.0716,-0.0852
3.2078535000327975,-0.26693851474519015,-0.08007960285487269,0.8736773858971727,0.6532514048729516,-1.017604292782249,3.385263409597215,-0.0716,-0.0852
3.2624614000087604,-0.2654758432729451,-0.07963175417250654,0.8700667026907037,10.005216921142996,-34.48275671316058,0.37486544085635976,-0.0716,-0.0852
3.3146464000456035,-0.26551959075326803,-0.07966516283398238,0.8702262690571722,9.850394401945117,-34.4270382207884,0.3442277498396495,-0.0716,-0.0852
3.367248499998823,-0.2654897060633026,-0.07963750548699919,0.8700468496603605,9.92803416544327,-34.47411570396072,0.3384498725051001,-0.0716,-0.0852
3.41929870005697,-0.2637418196267871,-0.07929132114984133,0.8715423781254055,8.909820175986663,-34.05178732272021,-0.6428123547087804,-0.0716,-0.0852
3.4711737000616267,-0.25813485069554626,-0.07870690388452142,0.8725181697297618,9.002503330875198,-33.11295743674669,-1.5191499011302483,-0.0716,-0.0852
3.523346000001766,-0.24225325271375153,-0.07766058969311887,0.8727650774606172,2.0882494315792632,0.5920289409310694,-1.003616605116974,-0.0716,-0.0852
3.575591600034386,-0.23413599414334774,-0.07770900618383937,0.8768993956364596,2.8706814892597636,-1.7817172678886652,-2.4542847651924427,-0.0716,-0.0852
3.625849900068715,-0.21520603013825035,-0.0780437801438354,0.8773013814819296,2.290689984907014,-1.1823834084473814,-5.014075966844395,-0.0716,-0.0852
3.67490700003691,-0.19560442608012893,-0.07899766630837408,0.8771528301624923,4.286122797115732,-0.12284543461364913,-7.630709880767932,-0.0716,-0.0852
3.724999799975194,-0.18783506482207962,-0.08125993720335471,0.8855607225041966,1.1277139168727628,-9.805553648905176,-9.222862480759792,-0.0716,-0.0852
3.773669400019571,-0.16792874258873297,-0.08435451323306795,0.880675885542624,11.460328726135009,-16.80425738735997,-8.48833248382264,-0.0716,-0.0852
3.823665300034918,-0.15832875050188835,-0.08556509845150502,0.8804725874727651,11.378723565959973,-15.033797200133009,-8.079105706530745,-0.0716,-0.0852
3.8730882999952883,-0.14886429177395705,-0.0862825824991536,0.8805641498587674,4.899924404555086,-14.994408837883805,-8.744119842682311,-0.0716,-0.0852
3.9231013000244275,-0.1291046869821429,-0.08828468503659877,0.8792392094264764,-0.12087548417455965,-6.781737563899781,-10.066360400781978,-0.0716,-0.0852
3.9744019999634475,-0.12008611017734817,-0.09028665460952028,0.8802571998384984,0.45750067170866665,-4.793395333324261,-9.108148803515398,-0.0716,-0.0852
4.02251260005869,-0.10111802286463621,-0.09405291041400433,0.8797833708975605,0.4171281921227542,-2.9538110285059673,-6.7733414033521475,0.1076,-0.0866
4.075542700011283,-0.08152370582130052,-0.0973322069761803,0.8782861570511531,-1.0581539445744106,-5.797159900851301,-3.9871198472853706,0.1076,-0.0866
4.125115200062282,-0.07173091133068198,-0.09838758142322274,0.8762367621621976,-1.7634722213982723,-5.4006002489867,-2.855788093568398,0.1076,-0.0866
4.174964400008321,-0.0528377277726365,-0.09981654387535407,0.8757186529732636,0.008884886201414125,-10.810329477625299,-0.6511567220895353,0.1076,-0.0866
4.225693100015633,-0.04312579775209046,-0.10012329216216438,0.8733485880654054,-4.193557257161276,-5.676494485632024,0.9628730826817082,0.1076,-0.0866
4.274578100070357,-0.03367143074773375,-0.10076128882396714,0.8759603633495626,-2.1824528740794977,-6.972205821605264,2.2243536757300872,0.1076,-0.0866
4.32426280004438,-0.014098608041651561,-0.10093789692427099,0.8758987948501646,-3.523372847104824,-5.355592800219298,5.179366356787855,0.1076,-0.0866
4.375282900058664,0.007340337085170035,-0.10033993994649919,0.8751916883606373,-4.346267276543995,-4.314693717259172,9.287328455006788,0.1076,-0.0866
4.423951699980535,0.018093214586969265,-0.0995468763126399,0.8764913252340406,-4.22303143516534,-1.8536725079751968,11.501242037423781,0.1076,-0.0866
4.474834299995564,0.038226824555445585,-0.09641919778450886,0.8752976790915161,-4.281909677985329,-3.93547358912111,14.451281862537856,0.1076,-0.0866
4.525683099986054,0.0475869625005378,-0.09422109006552233,0.8747593789279284,-4.008234524161199,-3.1225798873091875,14.990320306243841,0.1076,-0.0866
4.577806400018744,0.06646976045901813,-0.08840713228936248,0.873055074209302,-3.732498796360272,-5.101584765957618,13.214406092478514,0.1076,-0.0866
4.626523999962956,0.07544899658060678,-0.08599569950280953,0.8737017042650181,-4.002350594273811,-4.47780199549619,12.28569864199747,0.3832,-0.0597
4.6809914000332355,0.08484157509811376,-0.08325912287412164,0.873503721239101,-3.369919502720162,-4.5092194358583955,10.809141133484282,0.3832,-0.0597
4.733081900049001,0.10310205571975051,-0.0790999237321801,0.8726866632818575,-4.033733802675395,-3.805879368211131,8.415529736127507,0.3832,-0.0597
4.783066299976781,0.12196645022180153,-0.07549469759677253,0.8731589958798354,-3.942571525480518,-3.8868343921004542,5.553947186150179,0.3832,-0.0597
4.83353669999633,0.13164303555165796,-0.0742923670615019,0.8743707973275522,-3.818079112381276,-3.405656145316521,4.246451415766534,0.3832,-0.0597
4.884362900047563,0.15037378543255242,-0.07180893316899624,0.8742209133303678,-3.486844061005907,-3.5270362584408383,1.177664859999484,0.3832,-0.0597
4.935110499965958,0.16182725898524686,-0.0712199178058984,0.8746095870420425,-2.320932672676151,-5.554700807380323,-0.570006745733999,0.3832,-0.0597
4.986103700008243,0.1904258918745154,-0.07050552074264733,0.8755324241913359,-2.6148699666928428,-5.939239634385662,-4.646754589652311,0.3832,-0.0597
5.0376329000573605,0.206324479983134,-0.07143424675770313,0.8780006629916638,-2.9254865435718904,-4.9504789301468515,-6.019070807223574,0.3832,-0.0597
5.0901135000167415,0.23328852287798277,-0.07545590639619958,0.8779614041214133,-1.9482306865097738,-3.88254904216588,-3.9105908522068296,0.3832,-0.0597
5.141150300041772,0.2451164050422272,-0.0767778186952101,0.8781844935839002,-1.9598756447050507,-2.7314517242527288,-2.573967271449657,0.3832,-0.0597
5.19290759996511,0.26689876725134976,-0.07855308613419316,0.8781463349648991,-1.9094220637566799,-1.7266563627723885,0.15343751104676467,0.3832,-0.0597
5.245010299957357,0.28800997668981204,-0.07971994258099417,0.8801721678774644,-1.8295925786763594,-0.8979351479344974,2.451086671685431,0.3832,-0.0597
5.296192100038752,0.2978941297191862,-0.07992324355376944,0.8801524132051606,-1.8274413278830102,-0.17887338353254176,3.722161904021856,0.3832,-0.0597
5.350022500031628,0.3174421717578696,-0.08013519782315408,0.8811625135146689,-1.439308992534627,0.4347522676930625,7.151820029308738,0.3832,-0.0597
5.416134000057355,0.32672009388221146,-0.07954037435788663,0.8803867775781873,-1.7812084373315114,-0.22657583228198114,8.266335595942804,0.3832,-0.0597
5.472775700036436,0.3458038643656707,-0.07795743484166902,0.8815815420772111,-1.1147673582714153,1.137977892310697,10.509988866369447,0.3832,-0.0597
