t,x,y,z,roll,pitch,yaw,desired_x,desired_y
19.423998299986124,-0.25659515000503635,-0.07617571963347487,0.8655753940774,0.37669080180533393,-2.96057374482711,-2.5069234890386367,-0.0716,-0.0852
19.47598620003555,-0.25488196595591395,-0.07566421286126804,0.860810856982075,12.650387859931987,-31.557241811610105,-5.921663182294626,-0.0716,-0.0852
19.52973499998916,-0.2561427360162858,-0.07602302256941006,0.8639197989018667,0.24957882575941048,-2.1278554350549834,-2.428174745322874,-0.0716,-0.0852
19.58435170003213,-0.25638231796017896,-0.07608969980848025,0.8647196017509687,0.863916015125755,-2.079058081466061,-2.39813199729294,-0.0716,-0.0852
19.654000999988057,-0.256832245359846,-0.07620245644058826,0.866243418465769,0.8013238770684556,-2.9951196272255705,-2.4482158197568475,-0.0716,-0.0852
19.70891190005932,-0.2559657854512063,-0.075896861353904,0.8631602112153501,0.2999870054215893,-1.7089436248842673,-2.3907600862994642,-0.0716,-0.0852
19.76338590006344,-0.25510634074741884,-0.0755131921473153,0.8612067477240694,12.003755538285665,-31.691400373906163,-5.753305358458839,-0.0716,-0.0852
19.818704699981026,-0.2516899371042298,-0.07553708313171908,0.8624447011853089,0.10568746102860409,-1.7251231359281474,-3.6091923143485856,-0.0716,-0.0852
19.88399520004168,-0.2456627253895296,-0.0752388767895265,0.8611145169885914,0.41171145081851446,-1.4140043138598626,-4.748523752414951,-0.0716,-0.0852
19.937270399997942,-0.2324741827149292,-0.07581472634387383,0.8635415948395486,1.7437062425592247,-1.8375710957769662,-7.494549447609996,-0.0716,-0.0852
19.990506600006483,-0.2162821251242746,-0.07692398292693178,0.8611623616238884,0.7805898102823949,-1.6950573011015182,-10.468708271188373,-0.0716,-0.0852
20.042326100054197,-0.20787959617699384,-0.07766642504132623,0.8598318093543016,-0.02783887969963868,-1.5174184395621013,-11.96908455578334,-0.0716,-0.0852
20.095333000062965,-0.19127995711263798,-0.07981432157076401,0.859344972916876,0.5488906547411274,-2.6420661444167215,-15.300618393578688,-0.0716,-0.0852
20.149060900090262,-0.1845861543558039,-0.08167555261139982,0.8643753279130071,15.032934528039268,-15.305146955695221,-18.52354861907681,-0.0716,-0.0852
20.201740100048482,-0.1700301680987588,-0.08548408408252024,0.8650794285210635,1.2376967623521868,-8.592143584645672,-19.794060666512877,-0.0716,-0.0852
20.25463540002238,-0.15561801459388452,-0.09049589040300203,0.860533176726277,-2.1189717093247733,-5.62070271297963,-18.345091190755284,-0.0716,-0.0852
20.30957360006869,-0.1498104339432896,-0.09327145814850525,0.8626745564927785,-1.978749437243357,-5.601124257576729,-17.195662518521836,-0.0716,-0.0852
20.361794300028123,-0.1370971060164709,-0.0984136623156667,0.863696294401399,-2.2007638552309676,-4.125295232414765,-14.649280017701457,-0.0716,-0.0852
20.415952300070785,-0.1303630538719988,-0.10059063117016698,0.8623697375507772,-2.5086677208237913,-3.560317462356653,-13.253350039293556,-0.0716,-0.0852
20.469930100021884,-0.11707803460303683,-0.1046527944385104,0.8628770027432117,-2.2045943563014263,-1.4922489000435397,-10.782988053846669,-0.0716,-0.0852
20.521744800033048,-0.10362470625061614,-0.10828393926428881,0.8667365628953203,-1.8258536799116092,-7.3404003431394464,-8.88391834111193,0.1076,-0.0866
20.574810500023887,-0.09623115814893186,-0.10951129358617642,0.8645380955342765,-1.1261182488804815,-6.657558268420676,-7.714913803297734,0.1076,-0.0866
20.628777000005357,-0.08250155190599655,-0.11238632359454839,0.8663069015660991,-1.9268976913104154,-6.326439895322057,-5.262632296414514,0.1076,-0.0866
20.68091670004651,-0.07576945107122852,-0.11384466307956237,0.8667213230778649,-2.3781414247764325,-4.987805099827816,-3.388961963293719,0.1076,-0.0866
20.732155399979092,-0.06204532023523879,-0.11627641418589943,0.8665780938130663,-2.4774862426986983,-6.791851495347394,0.8485661250535159,0.1076,-0.0866
20.782934900023974,-0.05530915054824017,-0.1170709072416817,0.8671767726867892,-3.3148736871296554,-3.3426605529636166,2.6933635256966246,0.1076,-0.0866
20.836270799976774,-0.038829161543459306,-0.11842806262727698,0.868982453185939,-2.436051497379131,-6.100589171764645,7.517750861259553,0.1076,-0.0866
20.89350850007031,-0.0185829620030276,-0.11737307697814578,0.864992772631488,-4.946349225284075,-2.395101075676635,14.009437312202557,0.1076,-0.0866
20.9446437000297,-0.009226600852195519,-0.11597532146831832,0.8647002436278016,-4.978822552314596,-1.5455911305587822,16.565826006038247,0.1076,-0.0866
20.995608300087042,0.007157153490226018,-0.1118260050742858,0.8649815954696644,-3.5155924315632743,-4.3976051790783055,18.845242797271805,0.1076,-0.0866
21.04653200006578,0.014489593306433547,-0.10903573473839374,0.8629727286395693,-4.586882807764447,-2.473298573925094,18.701641547282964,0.1076,-0.0866
21.096543300081976,0.028320864889835005,-0.10308446816963278,0.859579598391987,-4.651118939792487,-5.139577897638552,16.45792456755571,0.1076,-0.0866
21.148073800024576,0.034884241931497195,-0.10080705933707787,0.8619970321719708,-4.362591291550054,-2.472759730036859,14.819611749435838,0.1076,-0.0866
21.19768570002634,0.047894169013485484,-0.09610151134355169,0.8598168294333908,-4.919448478368848,-2.3346636576670337,12.056612678729737,0.1076,-0.0866
21.24831100006122,0.06109527957794019,-0.09180069676596869,0.8586407541770941,-5.423982930538366,-1.7872424601072625,8.923674870036887,0.1076,-0.0866
21.298819200019352,0.06803630929525907,-0.09020368964736801,0.8583667904273109,-5.489982324777766,-2.1743863047473186,7.705769087882742,0.3832,-0.0597
21.355636200052686,0.08142079681716559,-0.08734180343449223,0.8580017085036795,-5.860842749561795,-1.4057707361171727,5.0444332684448705,0.3832,-0.0597
21.4223358000163,0.0883264599542128,-0.08623172708600478,0.8593472547758199,-5.340188979751474,-1.99587244084476,3.5796757156439596,0.3832,-0.0597
21.478650900069624,0.10149478850369917,-0.08360063590156011,0.8558466637296372,-6.630608367323846,-0.03888780177456081,0.3729340901596876,0.3832,-0.0597
21.54934480006341,0.1157438337640113,-0.08379902351944273,0.8649283375168159,-2.052468537461224,-4.570161318911811,-1.4853360159489482,0.3832,-0.0597
21.60745480004698,0.11660936545932683,-0.08377189712892644,0.8654785739943078,-1.4628936012241043,-4.5595721323763065,-1.6359283336876256,0.3832,-0.0597
21.66066910000518,0.1295996145346294,-0.08359570122823894,0.8657800228425293,-4.882589179885651,-2.1168250124051595,-3.698219359537316,0.3832,-0.0597
21.71436680003535,0.14270155883975444,-0.08467740037280594,0.871145548722082,-4.301458953575153,-2.654464492238983,-4.720659423290502,0.3832,-0.0597
21.768986399983987,0.16859933221663242,-0.08804472589935881,0.8757529564000842,-4.286894035539868,-2.1871694087919016,-3.5569929471406674,0.3832,-0.0597
21.838245399994776,0.19485395159620209,-0.09054653270170943,0.8778523641404752,-2.919622962459603,-2.1697318934141947,-1.942287536529458,0.3832,-0.0597
21.89446640003007,0.20672612258944356,-0.0913052249855736,0.8776028442263195,-2.645781403442027,-2.3970277665392383,-0.7246813934431318,0.3832,-0.0597
21.950207800022326,0.23062591452127376,-0.09311856689387482,0.8797870408927275,-2.90961024409678,-1.5999633606679555,2.437079497061575,0.3832,-0.0597
22.003339700051583,0.25389067893807155,-0.09310353512224591,0.8798528492253149,-2.052524366207898,-0.6376357738752646,4.800081151611955,0.3832,-0.0597
22.060950300074182,0.27711123963708656,-0.09251696754991078,0.8797272448096927,-1.8420976486325613,-1.3417958470461058,7.721026604563929,0.3832,-0.0597
22.114743100013584,0.2869510941286535,-0.09180467873586946,0.8797093737581743,-2.053926882606263,0.05781522834212052,8.902470487510898,0.3832,-0.0597
22.168322800076567,0.30523171983298825,-0.08982958019850458,0.8804666484246668,-1.2262437965889716,-0.09448468240198964,11.465191903066964,0.3832,-0.0597
22.22367730003316,0.3134356835833678,-0.08865242642827789,0.8809134584457101,-1.284502663418164,0.31361052371337556,12.372583621027065,0.3832,-0.0597
22.280194999999367,0.32929952819186564,-0.08649867524634831,0.8821405689495576,-0.73658606507171,1.200388305636532,14.991193923030638,0.3832,-0.0597
22.33335079997778,0.34425720228784706,-0.08419245377623444,0.8825018313905741,-0.8734874566886227,1.7418567830107767,18.602826714530995,0.3832,-0.0597
