t,x,y,z,roll,pitch,yaw,desired_x,desired_y
7.395244800020009,-0.2719462794078985,-0.07154676505659462,0.8705829758441459,9.190247728329252,-34.74720708952621,-0.9126748703099902,-0.0716,-0.0852
7.445831199991517,-0.2718082246413244,-0.07147969167724527,0.8700953693924095,9.055110487074954,-34.84822111317244,-0.8659571024872499,-0.0716,-0.0852
7.497094999998808,-0.27182008225835685,-0.07149697465805865,0.870191764588492,9.386922302074952,-34.84882894177422,-0.9471765936247,-0.0716,-0.0852
7.546657299972139,-0.2772623016254327,-0.07288627007747209,0.8867920191248906,5.000184623542223,-8.91603328393415,2.1003443028033772,-0.0716,-0.0852
7.5966541999951005,-0.2768856999867114,-0.07276043145567557,0.8855191919031892,4.455731354663769,-7.948022729046665,2.0845528820636967,-0.0716,-0.0852
7.649164199945517,-0.2766795991840602,-0.07272174555137395,0.8848911102469728,4.505012427307027,-7.588600686283804,2.1202080291181344,-0.0716,-0.0852
7.697683100006543,-0.2767725743273788,-0.07276543903866303,0.8851422478116489,4.274225276540082,-7.54020696365989,2.108498222566151,-0.0716,-0.0852
7.7466210999991745,-0.27606572303079074,-0.0725534690913634,0.8828232572972181,3.9083216158057423,-6.08111942233613,2.1984162792443356,-0.0716,-0.0852
7.795683900010772,-0.2725043406745518,-0.07173011705710276,0.8767148749295066,1.6513182554123524,-2.493999160275527,1.1162760105267422,-0.0716,-0.0852
7.845720599987544,-0.26493124780168403,-0.07063205623581924,0.8695824730326164,8.883163045740348,-34.50690170243093,-3.137930547719135,-0.0716,-0.0852
7.895205399952829,-0.25141023656264927,-0.06991446220332904,0.8727252824841387,9.487848812819653,-31.74589256440884,-5.774357067808354,-0.0716,-0.0852
7.946113800047897,-0.23465557372168094,-0.07008621825870444,0.873745642761247,10.39995142213976,-28.819953108361002,-8.688580227334926,-0.0716,-0.0852
7.993869900004938,-0.22913035535413628,-0.07147081376191344,0.8872787761619116,7.06341366042558,-12.846013824314559,-7.846021837629791,-0.0716,-0.0852
8.055298799998127,-0.2100433378987192,-0.07310698149233746,0.8864756644685586,9.621969502155318,-11.795047802563658,-10.881544592955871,-0.0716,-0.0852
8.104617499979213,-0.19825392777284562,-0.07355089475124682,0.8762553987332108,11.160020347610256,-23.029976738331587,-14.052558490151858,-0.0716,-0.0852
8.154111900017597,-0.18237228382329546,-0.07718259918345184,0.8854818599948057,5.1611755827894505,-8.727912176699105,-14.705447223668882,-0.0716,-0.0852
8.20405119995121,-0.17309688358462247,-0.07825892308684583,0.8813916873101336,4.1846711957814655,-0.8303647462269748,-15.269566208945912,-0.0716,-0.0852
8.254713200032711,-0.15820014365656201,-0.08326428130057503,0.8830241072158559,1.9535570154468103,-8.318776067302315,-14.726207424504942,-0.0716,-0.0852
8.304099799948744,-0.15036318667876497,-0.08552946469707011,0.8796460289113537,0.888334956390423,-3.78384349614647,-13.021945627880038,-0.0716,-0.0852
8.354264399968088,-0.13674983148187503,-0.09002702576032733,0.881768293872604,3.834692090520778,-9.56172566290127,-10.6686396640407,-0.0716,-0.0852
8.403187799965963,-0.1298623325193318,-0.09177925431828016,0.8814071364181785,1.8540241486667457,-7.5769683486203245,-9.122519468927594,-0.0716,-0.0852
8.453809899976477,-0.11523040330318729,-0.09452260319676507,0.8791723787684159,0.5456923558078005,-5.841083968621343,-6.832985238558774,-0.0716,-0.0852
8.505361099960282,-0.10830115553084778,-0.09620837098372707,0.8807977258321136,1.7800684791695174,-4.617046895286108,-5.598273346848874,0.1076,-0.0866
8.561378799960949,-0.09342411764272743,-0.09827460924220338,0.8760875514896302,-0.8993807905244511,-5.517368489989128,-2.8912027434304193,0.1076,-0.0866
8.612127500004135,-0.08643850250520968,-0.09917417682781697,0.8759915263497835,-0.8942563593264653,-4.383052984889155,-1.4657321763019542,0.1076,-0.0866
8.664707500021905,-0.07252817851136306,-0.10065603691518706,0.8775969643729746,-0.4385584519616022,-7.161468383260059,0.5753986557971026,0.1076,-0.0866
8.717684800038114,-0.06517232437529934,-0.10053417602058178,0.8741798542627124,-3.1346716027021717,-4.889007082788214,1.7697767248522522,0.1076,-0.0866
8.76885809993837,-0.05085645156429324,-0.10111991625288937,0.8750774377526581,-2.2271293554382483,-5.575708754811286,4.256670145234071,0.1076,-0.0866
8.822279499960132,-0.03314186359559271,-0.10084751037600014,0.8766072263870033,-2.952741802845348,-5.230374681780773,7.011008278094919,0.1076,-0.0866
8.877467700047418,-0.02276247989439836,-0.10047023445323132,0.8779951671234951,-1.564233163170704,-6.435306659365737,8.610471676808105,0.1076,-0.0866
8.932000400032848,-0.0024233891538239746,-0.09818677901864825,0.8761571163911326,-3.977178989654805,-2.6103120833801023,11.858584616097838,0.1076,-0.0866
8.984047599951737,0.0061496887097615945,-0.09724728705924864,0.8785804538725495,-1.3377381608372942,-3.53499263735844,13.386206457140235,0.1076,-0.0866
9.039848100044765,0.021004292033552478,-0.09313409374164554,0.8745712583042221,-3.810080169637099,-3.6896445631681383,13.095058232054056,0.1076,-0.0866
9.105080500012264,0.034572923561969456,-0.0890771102976315,0.8741252063690235,-2.288205503963108,-5.410379253774845,10.398758448739978,0.1076,-0.0866
9.192521100048907,0.04158609263050448,-0.08713671989924907,0.8731261355784263,-2.837832056893322,-5.04159889410633,9.180074800965054,0.1076,-0.0866
9.244127999991179,0.055629066009308774,-0.08364171884830165,0.8731322669201755,-2.1658528974739806,-5.284001258125753,5.927745888067328,0.1076,-0.0866
9.295775800012052,0.07657091495414287,-0.08039521899826788,0.8729988911003207,-2.4817404493998976,-4.6217648864121825,1.9350738087079735,0.1076,-0.0866
9.344465799978934,0.08355311420913537,-0.07939374078681706,0.8731926296605668,-1.2083313372129816,-4.3154637494454,0.5909835305717209,0.3832,-0.0597
9.397275499999523,0.09816029198514288,-0.07866740078894359,0.8744173220897773,-2.579606173557062,-4.220044914179393,-2.4402147211453533,0.3832,-0.0597
9.449238099972717,0.10523909739396303,-0.07846534553112595,0.8743789806421436,-3.8608238668162755,-3.2375773072578355,-3.5230628155737236,0.3832,-0.0597
9.512821999960579,0.11956217997392933,-0.07874270491436534,0.8764953907080402,-1.3433927691455467,-3.676189528514967,-6.6014022409547755,0.3832,-0.0597
9.562227600021288,0.13362562979990364,-0.0789779535880626,0.8750301362355638,-2.9574389019422203,-4.075591294966752,-9.518275067117772,0.3832,-0.0597
9.610890800016932,0.14543339347023393,-0.0807081470800572,0.8781975033618072,0.2666217731543488,-5.34755743591105,-10.847765275057828,0.3832,-0.0597
9.660454099997878,0.14562395869444597,-0.08043105232155993,0.8775424893808573,0.33370825133130083,-5.548892824008077,-11.34513591656322,0.3832,-0.0597
9.70954279997386,0.14467793514631594,-0.08053399363875552,0.8780144457299771,-2.8134256950053143,-1.200031226396134,-10.468360680010855,0.3832,-0.0597
9.759483700036071,0.157427722807121,-0.08369920575515213,0.8799060607729571,-2.71782695615458,-2.9827249950450407,-9.26652763461717,0.3832,-0.0597
9.810653700027615,0.1668914036398898,-0.08595498366569401,0.8813004487383989,-2.3154503728749645,-3.216453379158757,-8.209191233648204,0.3832,-0.0597
9.86242709995713,0.186978151500847,-0.08963104180738253,0.8797123832643967,-2.4021828514547554,-3.531690473297211,-6.063709644356408,0.3832,-0.0597
9.91351109999232,0.19903954850513617,-0.09167132015501217,0.8820511807138101,-1.9911539415552764,-3.700608835668784,-4.796915758019827,0.3832,-0.0597
9.964006099966355,0.21995017544824752,-0.09454899603884191,0.882508109754827,-1.3465354994891936,-2.8226532254898924,-2.69389262697054,0.3832,-0.0597
10.017714099958539,0.2396392492184485,-0.09607819002052265,0.8808047171010664,-1.4773399764460788,-2.51723824393319,-0.3416667393692122,0.3832,-0.0597
10.06789409997873,0.25014928754076904,-0.09665439813778932,0.8813904965518523,-1.4608971003596984,-2.4548826864927165,0.7332935134925402,0.3832,-0.0597
10.117860800004564,0.26046643588250007,-0.09675170695914569,0.8812557376408827,-1.4722268670483667,-2.1755704288045647,1.3940369620001003,0.3832,-0.0597
10.169098500045948,0.27973568985580843,-0.09763578809263378,0.8816750879491966,-1.3878884865255023,-0.9532655095385673,4.095532757391792,0.3832,-0.0597
10.22067850001622,0.2978930780593637,-0.0977995644695102,0.883267848152494,-1.2032753433927579,-0.324262675080122,6.987573763337764,0.3832,-0.0597
10.271278099971823,0.3062485569008533,-0.09732180959402091,0.8824056539947338,-1.6097215865163208,-0.5587920644361348,8.379777358009088,0.3832,-0.0597
10.323328500031494,0.3221862029920673,-0.09611034908371957,0.8839476862043059,-0.7747054889878456,0.21274467071346093,10.631470167685292,0.3832,-0.0597
10.374089999939315,0.32892751622578326,-0.095511271184961,0.8840162834544659,-0.692357713812983,1.0340453245063335,12.001849923278364,0.3832,-0.0597
10.424309500027448,0.3434145574998456,-0.09419146507691549,0.8853402779713466,-0.9039041199906381,1.4956222158940398,14.953437977115517,0.3832,-0.0597
10.474578900029883,0.3500294068128053,-0.09287405115668719,0.884641306781091,-0.3278442406710677,1.1854924873618378,16.081954507732892,0.3832,-0.0597
