t,x,y,z,roll,pitch,yaw,desired_x,desired_y
3.092334200046025,-0.2770692202178055,-0.07433771756431581,0.63617472790641,2.2798422834212397,-0.25067870590870117,-0.15573967166428962,-0.0395,-0.1
3.143578700022772,-0.27720610587302585,-0.07438495795621286,0.6365011718437821,2.5383806270512923,-0.3260756809092977,-0.12833816940790163,-0.0395,-0.1
3.1961463000043295,-0.27710128446938964,-0.07437888115536406,0.6362872144210321,2.4844052285494658,-0.4045681520724481,-0.09087201876992974,-0.0395,-0.1
3.2481661000056192,-0.27735935218994223,-0.07438195866872445,0.6368516698011053,2.5229125527129628,-0.46628082665519327,-0.10364599375158993,-0.0395,-0.1
3.3012048000236973,-0.27725188218192964,-0.07439069996573855,0.6366398268096591,2.60897220279191,-0.4210097804919752,-0.07871932811414639,-0.0395,-0.1
3.353519100055564,-0.27706358564746775,-0.07434363354679219,0.6362609033603542,2.370091186380222,-0.28691912366530226,-0.13097758736170073,-0.0395,-0.1
3.405998800008092,-0.2771705902652444,-0.0743927928337591,0.6365332633571652,2.256386021448671,-0.4216020343697468,-0.14939417908268812,-0.0395,-0.1
3.4605645000119694,-0.27275421090583135,-0.07451578449051104,0.6370359230878115,4.034416738278689,0.4425007515645234,0.4279101313993623,-0.0395,-0.1
3.51197630004026,-0.26588119569919333,-0.07418690570071354,0.6369275798192843,4.041338799168426,1.1150016724549343,-0.6926761679687284,-0.0395,-0.1
3.5670055000227876,-0.24848201266773368,-0.07397134867819616,0.637892181430465,4.622530731349088,1.8108593174309193,-3.1334514484508187,-0.0395,-0.1
3.621299500053283,-0.22876145074783197,-0.07425981649924072,0.639720808650626,5.365607451505206,1.5652919957416467,-6.135374656686913,-0.0395,-0.1
3.674171300022863,-0.21843895818705658,-0.07491023065416375,0.6406780438080684,5.5361137891456105,1.098808886863562,-7.918579124150799,-0.0395,-0.1
3.728004900040105,-0.19749446433763698,-0.07731206138799622,0.6421710056668284,5.845628876844902,0.9394385531192866,-11.038602921500612,-0.0395,-0.1
3.780589400033932,-0.1765972163389135,-0.08097134023798946,0.6442829909814622,5.928916340150025,-0.48298171498456793,-14.680605642838405,-0.0395,-0.1
3.8327695000334643,-0.16606927079550066,-0.08310007374078508,0.6446015750659574,4.445864452135762,-0.888355417173602,-16.549444586050416,-0.0395,-0.1
3.8856030000024475,-0.1558277693154757,-0.08603160408140388,0.6437703299560443,3.1836280520066884,-2.4826766612561717,-16.80332503140903,-0.0395,-0.1
3.9365211000549607,-0.13636627878015156,-0.09222622496769979,0.6435291579831742,3.0290592778535497,-3.2280139952662146,-15.076700967314723,-0.0395,-0.1
3.9889711000141688,-0.11708656822534436,-0.0973238621990944,0.6414149585337825,1.1162564935760593,-5.692534558337153,-12.80829110868823,-0.0395,-0.1
4.039390300051309,-0.10812988862620083,-0.09964540476375211,0.641245760760995,1.895591888256849,-6.1372213932941815,-11.43505942110119,-0.0395,-0.1
4.088671300036367,-0.09070434958132109,-0.10357939102932157,0.6395361757645928,0.23574058772624845,-8.479894201601631,-8.730107495107514,-0.0395,-0.1
4.138674600049853,-0.07358422498797194,-0.10661272852399017,0.6391119534235161,-0.8783381362818932,-7.018319548535174,-6.0158435084710415,-0.0395,-0.1
4.192314300045837,-0.06486983618234585,-0.10815180996584013,0.6398804493511489,-0.9323643265631333,-8.586458673587714,-4.556455751654939,0.3445,-0.0912
4.245287100027781,-0.056082167784978904,-0.10977894381692056,0.6416564413770731,-0.5486056808773718,-7.502037678730368,-2.769191667741889,0.3445,-0.0912
4.29535880003823,-0.0371806492838689,-0.11170518906571261,0.6417663483807745,-0.9320150548417027,-10.758559785988833,0.12220132265725879,0.3445,-0.0912
4.3485325000365265,-0.02717994795285657,-0.11235766469368261,0.643274289030168,-0.971661850207357,-11.227053978747822,1.5942883041523987,0.3445,-0.0912
4.401469400036149,-0.004676855386244958,-0.11372352849382816,0.6521260532977227,1.4596065458631977,-16.959546055150827,4.086248853712946,0.3445,-0.0912
4.452740100037772,0.014051392079003222,-0.11372517322108745,0.655411704297227,1.6446113052762017,-17.001936402041657,7.56415930591091,0.3445,-0.0912
4.504892700002529,0.01824377220772325,-0.11394109056839413,0.6571582287769353,1.4546269580159323,-15.873113959955903,8.869705311581427,0.3445,-0.0912
4.55580720002763,0.023817690753702058,-0.11370149162329916,0.6593442453656385,-1.2615706645500522,-10.105942860566827,10.045988392001563,0.3445,-0.0912
4.607374000013806,0.0511866610479559,-0.11141559665723455,0.6708825895850062,0.12850445033994412,-17.71292317238447,11.304700285061724,0.3445,-0.0912
4.661920100043062,0.0682883419123587,-0.10766910353224717,0.6722654833665984,-0.21744731385935073,-20.588126187686793,10.60348759171642,0.3445,-0.0912
4.715323100041132,0.08752073359211958,-0.10392559983650917,0.6775318704717707,0.13518442277998904,-23.28272944395452,8.935652699226527,0.3445,-0.0912
4.766227300046012,0.12758523946140088,-0.09663349020274273,0.6861415925823154,0.6101607473627314,-27.651864388574545,5.841400437229553,0.3445,-0.0912
4.821146100002807,0.16630023821511541,-0.0923278182450862,0.6998169271622906,1.4588061117580378,-28.978464829974243,2.659497773882146,0.3445,-0.0912
4.876657500048168,0.1850433111704668,-0.09106569505756484,0.7066440509829811,1.6556512687242029,-29.286658468888465,1.172487995416416,0.3445,-0.0912
4.9346262000035495,0.22171603920328475,-0.08933308873661293,0.7198634326341735,3.0380614329702627,-29.107683283876177,-2.722287472118466,0.3445,-0.0912
4.992284600040875,0.2565094906753372,-0.09001758381607705,0.7338658980769125,3.9267102698923875,-28.12785953530392,-5.45785518225379,0.3445,-0.0912
5.049210400029551,0.2736908525813661,-0.09114586275645989,0.7413968362391559,4.458613153650074,-27.61218530128717,-6.723535719967103,0.3445,-0.0912
5.103427699999884,0.30389650258907497,-0.09462900129236729,0.7536908517188747,4.644445687735114,-27.064837782216554,-6.730039840803233,0.3445,-0.0912
