t,x,y,z,roll,pitch,yaw,desired_x,desired_y
3.1127987999934703,-0.2794911812284577,-0.06707686235869319,0.631098206510545,2.8839560079000854,6.16365816018034,1.2881354002433303,-0.0716,-0.0852
3.1683703999733552,-0.27949731971725933,-0.06706055308458211,0.6310510876392122,2.917140969895365,6.123486012805602,1.3650055199347553,-0.0716,-0.0852
3.221125599986408,-0.2792958729675363,-0.0670057108783037,0.630568508811136,2.83759434273789,6.226317354348819,1.323519794419621,-0.0716,-0.0852
3.273252799990587,-0.27949099728775423,-0.06705073777038056,0.6310764150827083,2.932685395408568,6.097605295551895,1.3822801255773896,-0.0716,-0.0852
3.323573599976953,-0.27929543183682615,-0.06701361401465905,0.6306425583278631,2.8436669509540993,6.211942314022459,1.3138368386849026,-0.0716,-0.0852
3.377068399975542,-0.2794302427881633,-0.06704059217861988,0.6309323634053147,2.9034177185054384,6.1153620466955205,1.30767957976478,-0.0716,-0.0852
3.4356975000118837,-0.2795391295040634,-0.06707153401365157,0.6311665425219224,2.8629388033946546,6.147313165373861,1.3756456372957222,-0.0716,-0.0852
3.491424400010146,-0.2794263165927172,-0.0670545708079558,0.630981707390369,2.766882070393765,6.158384543041394,1.3578772420310739,-0.0716,-0.0852
3.5498238999862224,-0.2794836702209383,-0.06706691873557225,0.631056921716281,3.0289726530273944,6.254855872186667,1.4100713719548232,-0.0716,-0.0852
3.604993899993133,-0.2794761044647804,-0.06709856714638915,0.6311517395678686,2.8814902015766815,6.179925670541914,1.3264431364158487,-0.0716,-0.0852
3.661492899991572,-0.279398631707098,-0.06707159617050153,0.6309738891427417,2.908105541211899,6.2272973358534935,1.311090515756341,-0.0716,-0.0852
3.716934699972626,-0.2794617372886282,-0.06708534240935077,0.6311270544538462,2.943348876679946,6.2271967119360045,1.3293319932832668,-0.0716,-0.0852
3.777143499988597,-0.2786867085609193,-0.06705460809863478,0.6309217145683617,3.216540765169512,6.24311508968662,1.2973576430451834,-0.0716,-0.0852
3.8319881000206806,-0.2694716722559053,-0.0660525678919576,0.629638279149157,3.3180426310826614,6.817119573747689,-0.7905717499519833,-0.0716,-0.0852
3.8884887999738567,-0.25596485459395213,-0.0655196288242546,0.6291120250064519,3.3069969693418853,7.272056826404768,-3.5206125990526047,-0.0716,-0.0852
3.956039700016845,-0.24864421496456598,-0.06557568866114735,0.6293049226262191,3.206037827859324,7.388872447629985,-5.140539930717833,-0.0716,-0.0852
4.013550899981055,-0.232881802660871,-0.06623354155611622,0.6290043227827187,3.3086898074299596,7.318029190222034,-8.368998776923272,-0.0716,-0.0852
4.07398159999866,-0.2166745622522074,-0.06774792098669082,0.6289418327176568,3.0494271540482507,6.775570901708684,-11.720797900767064,-0.0716,-0.0852
4.131543600000441,-0.20009032480160954,-0.07056786498921076,0.6290450838936462,2.771072573205321,6.162814568942435,-15.120413298893643,-0.0716,-0.0852
4.188985000015236,-0.18374589704476346,-0.07520222210335381,0.6292904550596766,3.218158597653522,5.525866951908523,-16.271765575394813,-0.0716,-0.0852
4.2470719999982975,-0.1753816332783337,-0.07774984877856701,0.6282814253097608,3.058215335958701,5.225130186540928,-15.809826837508673,-0.0716,-0.0852
4.303608899994288,-0.15901217342455676,-0.08335142118342483,0.6284196202182176,3.3643146367609513,4.700441622561786,-14.367285570580737,-0.0716,-0.0852
4.373244800022803,-0.1419985451285452,-0.08880892320290726,0.6283789789933678,3.468714015531658,3.5580944870839057,-12.558973412175039,-0.0716,-0.0852
4.429047400015406,-0.1331273209039912,-0.09140148422640768,0.6288547100612228,3.671082642632986,2.2105663762416268,-11.643626137411074,-0.0716,-0.0852
4.482712499971967,-0.10420676245873267,-0.09773512074713163,0.6268953712099459,2.612289972861564,-1.0300875520610455,-9.229210902096828,-0.0716,-0.0852
4.536244800023269,-0.09427425432860521,-0.09983974711551886,0.626804786158711,1.9763336768045316,-3.1416763495322213,-8.196810493396242,0.1076,-0.0866
4.591980999975931,-0.07380689668259294,-0.10328197667576522,0.6269601403769669,2.550552549750306,-5.132291720767206,-6.250506633574225,0.1076,-0.0866
4.647862799989525,-0.06308757457927333,-0.104676118541881,0.62669928066837,3.3399124637198145,-4.5570034400610915,-5.145999870475639,0.1076,-0.0866
4.719057800015435,-0.04017994019602229,-0.10696353208571109,0.6246357641649586,-0.0821717122789465,-7.276069285016001,-2.99993764382447,0.1076,-0.0866
4.771323899971321,-0.016774186325437524,-0.10854211478902376,0.6223426657586866,-0.4950895840285114,-9.756586201909522,0.013139994019192533,0.1076,-0.0866
4.825639799993951,-0.0004075539272483135,-0.10767183747421345,0.6188779250708566,0.1340467745753138,-11.01851352327136,0.5488809010017307,0.1076,-0.0866
4.879652999981772,0.0040852085749780095,-0.10743420111465121,0.6204148430323926,-0.8968807833608243,-6.358026206485707,0.5476611945951739,0.1076,-0.0866
4.9311335000093095,0.012245876044279373,-0.10800407533108432,0.6228707511795907,-1.353379668093625,-8.592879975240805,1.031680576522175,0.1076,-0.0866
4.984753599972464,0.034122228066101726,-0.10941743588604945,0.6317199185567816,-0.12051379453806683,-10.121502578776987,2.974361472567087,0.1076,-0.0866
5.036631199996918,0.046785786896130145,-0.10945874980936239,0.6339181764733209,0.22061078091156658,-12.70387019637142,3.661986410308772,0.1076,-0.0866
5.088882800017018,0.07576731449922645,-0.10939010741872397,0.641742127238206,0.788738609074701,-19.931637830588404,6.028180472742981,0.1076,-0.0866
5.144295600010082,0.08975514312675226,-0.10862365096697081,0.6438798503932673,0.12658190839084998,-20.390048409862583,7.832368214383055,0.3832,-0.0597
5.198443499975838,0.1158455829872122,-0.10668972430973703,0.6514505477993209,-0.7168679780338838,-21.352833086025026,10.910828976085538,0.3832,-0.0597
5.264160999970045,0.1405611446695677,-0.10296635506718534,0.6582220596965676,-1.3297937465076966,-21.453460754131292,14.416705470212815,0.3832,-0.0597
5.316586099972483,0.1527393968312729,-0.10042167702520671,0.6611087987448124,-1.8365167532781017,-21.619101190018455,15.978182093492673,0.3832,-0.0597
5.370830299973022,0.18911155907095586,-0.09159432206130776,0.6713545834729682,-3.365783144666352,-21.383244701965236,21.424352305391796,0.3832,-0.0597
5.435511599993333,0.20120947454182592,-0.08808399614000934,0.6756088745396572,-3.8086059724454833,-21.03493967352658,23.307031800186515,0.3832,-0.0597
5.492134300002363,0.21298976420261134,-0.08386755207740902,0.6784250880197754,-4.404686805931336,-21.031614051986374,24.92390687636226,0.3832,-0.0597
5.544796700007282,0.23878957432179593,-0.0723024299553584,0.684779587189152,-4.953452660522906,-18.347563340818162,27.15758758175239,0.3832,-0.0597
5.599225600017235,0.26903257002561914,-0.057245515145502024,0.6919827063316413,-4.779824543569119,-20.703043811530886,27.478172384631435,0.3832,-0.0597
5.652874100022018,0.29523767920565436,-0.04362687998302802,0.6993259095548493,-3.708557433183027,-21.528471335401754,24.16069631917591,0.3832,-0.0597
5.70494259998668,0.3069362534596405,-0.038037310680301105,0.7024224199924697,-3.3904820338264674,-21.456252458690585,22.32102048969006,0.3832,-0.0597
5.760317599982955,0.3309818249153386,-0.027797099001608074,0.7100674934070416,-1.5813000822034557,-21.756782534165705,17.721895663915234,0.3832,-0.0597
5.813765399972908,0.34187706100839443,-0.023510390537936837,0.7123414168130842,-1.0978696667440702,-21.58891931116466,15.866566214622308,0.3832,-0.0597
5.868091800017282,0.36472387251191357,-0.016214121667272135,0.7171312158314231,-0.22424640097226428,-21.544004540045414,12.069383789194967,0.3832,-0.0597
