t,x,y,z,roll,pitch,yaw,desired_x,desired_y
3.0305344999651425,-0.29955702359745107,-0.07360676702524624,0.6324436766633177,3.347999326742739,6.296084633421163,1.9362985133657282,-0.0716,-0.0852
3.0753849999746308,-0.29940287248764874,-0.07357374523297333,0.6320984323279745,3.5315841308450056,6.377105607770144,2.038724621380059,-0.0716,-0.0852
3.1203157999552786,-0.299455322998716,-0.07357393328646047,0.6321752177254365,3.509786971482616,6.352579254598905,2.00788379041631,-0.0716,-0.0852
3.167728599975817,-0.2996780092957904,-0.0736142813454364,0.6325893174877435,3.522738045961335,6.347282858646285,1.9857720763030344,-0.0716,-0.0852
3.2125535999657586,-0.2996509016925607,-0.07361471637323588,0.6325411222169117,3.52211757314274,6.329509653109353,2.0191570489239488,-0.0716,-0.0852
3.2569713999982923,-0.29956102574208104,-0.07359843063070617,0.6323444569616596,3.698703759162879,6.38350390072582,2.0758468512315,-0.0716,-0.0852
3.3063147999928333,-0.296548906709859,-0.07345948436136876,0.6321260854475546,4.096338804228611,6.337074850971371,1.9364211383610967,-0.0716,-0.0852
3.3544748999993317,-0.2903794592777439,-0.07295842852143077,0.631824549370578,4.377817371849867,6.642895130166901,1.2438562295789248,-0.0716,-0.0852
3.3981855000020005,-0.2734819417050696,-0.0718659334921261,0.6304430111962176,4.376270721081625,7.178283443656332,-1.4602880011500114,-0.0716,-0.0852
3.444921499991324,-0.26488690422318756,-0.07145091216941273,0.6298349530743775,3.9662239563888164,7.325108848555442,-3.1376205517786877,-0.0716,-0.0852
3.492565399967134,-0.2565138758480699,-0.07134987965180727,0.6298795273948199,4.257608094811649,7.286765383830995,-4.770516268931561,-0.0716,-0.0852
3.5386438999557868,-0.23954811534329584,-0.07211502978230327,0.6292865639121151,3.802874521378251,7.445795017308042,-8.434475553124107,-0.0716,-0.0852
3.5840625999844633,-0.23144103914120304,-0.07308453456296009,0.6301849663603977,3.787785673090161,7.185303892108446,-10.035181503579715,-0.0716,-0.0852
3.6298118999693543,-0.2143573893294571,-0.07512105794243339,0.6293376369231322,3.7134969127687527,6.662745429732948,-13.618672388448053,-0.0716,-0.0852
3.6745463999686763,-0.20615856764394794,-0.07663158724672496,0.6296899137044604,3.8780229616794317,6.119492019095948,-15.403101935383171,-0.0716,-0.0852
3.7323955999454483,-0.1981449365843963,-0.07873799831245666,0.6291417678760987,3.388939089057992,6.191556337384862,-15.998349700953874,-0.0716,-0.0852
3.780951199994888,-0.18210903958584795,-0.08418115780494292,0.6283055338043202,3.2910245605445674,5.42973796073656,-14.953958702220401,-0.0716,-0.0852
3.8289723999914713,-0.1740765468321887,-0.08697712809106065,0.6285684560408121,3.3581572924663834,4.883949246393246,-14.219952306937722,-0.0716,-0.0852
3.8763904999941587,-0.1574625310334733,-0.0919938216043497,0.6285054762479058,4.062563171971221,3.722098586303923,-12.554811617950977,-0.0716,-0.0852
3.924887499946635,-0.1491784631415322,-0.0945019064456469,0.6292187480299487,4.404629747147157,2.8657860300636346,-11.663434862518356,-0.0716,-0.0852
3.986293599999044,-0.13107048859103945,-0.09865236007409252,0.626384748224007,3.798677127434032,3.0377373625657285,-9.818768227899323,-0.0716,-0.0852
4.034665099985432,-0.12186030638976529,-0.10058234040282955,0.6263045874957734,3.813272383135708,1.8245887763920279,-9.133777695592533,-0.0716,-0.0852
4.085292199975811,-0.10263037043302882,-0.10448935094734543,0.62712037892305,2.6987190586297127,-2.541825310327224,-7.738368712657172,-0.0716,-0.0852
4.1355611999752,-0.09258382103965375,-0.10618887108154451,0.6272001688251472,2.6475810211086577,-3.733915626632122,-6.811238206482058,0.1076,-0.0866
4.186525699973572,-0.07154135890876334,-0.10910380625617819,0.6254978510926272,1.638967330766064,-4.307344961896814,-4.590109230926388,0.1076,-0.0866
4.235076399985701,-0.060653584809524985,-0.10988037442622953,0.6245150621701688,1.3028973634649572,-5.500013229905926,-3.7566556842508434,0.1076,-0.0866
4.284663999977056,-0.037995514643479916,-0.11165689523492409,0.6236853292482102,0.5328899473266684,-8.88842383899793,-1.824897179123923,0.1076,-0.0866
4.334886499971617,-0.02629638939526076,-0.11287823258417903,0.6250164263734985,-0.02880015126511726,-9.655704437698022,-0.11362753355378735,0.1076,-0.0866
4.387579099973664,-0.002298263097624504,-0.11408727733773759,0.6258623998361011,-1.0630872700933687,-9.3867589539311,4.180321484122493,0.1076,-0.0866
4.440283399948385,0.01032020550092831,-0.11398445708680574,0.6269516742561484,0.11591958559255285,-13.772146152984654,5.6850179854193446,0.1076,-0.0866
4.491102699947078,0.022324974494394592,-0.1126346032902951,0.6259120479746397,0.05471912768495728,-11.61960953023837,6.621946628739027,0.1076,-0.0866
4.542366899957415,0.028759462097132756,-0.11247673659587845,0.6281532117424401,-1.9794872127649266,-7.881772813528486,7.6404198276524475,0.1076,-0.0866
4.594593099958729,0.03788665207563709,-0.11208761617023698,0.6311113061525641,-2.230667191393262,-7.632477882262947,8.807930331056491,0.1076,-0.0866
4.647545399959199,0.04935300476583966,-0.11144768066331912,0.6351137679310161,-1.2594862144345635,-10.050711618312006,9.74778023173034,0.1076,-0.0866
4.700125199975446,0.07576742164194596,-0.10905489152383502,0.6420596958028555,-0.9482010897073009,-15.770406289010102,12.188304504324526,0.1076,-0.0866
4.7502255999716,0.10407057438209007,-0.1044451635307267,0.6471322238344858,-1.5426852901101407,-19.99568668538478,15.021361744429173,0.3832,-0.0597
4.802099899970926,0.11690287301312063,-0.1019761618776518,0.6496838645557698,-2.145067949106261,-20.51348119364844,16.96063914094068,0.3832,-0.0597
4.8520105999778025,0.14060495583720123,-0.09589227716398069,0.6538083784081162,-3.4926605106281157,-20.83408193908683,20.58804479159996,0.3832,-0.0597
4.902623199974187,0.1525740026694451,-0.09226708799209427,0.6575078326688776,-3.826405563907783,-20.7688105885758,22.233759372537502,0.3832,-0.0597
4.9556007999926805,0.17548202131059434,-0.08434337008868328,0.6625547284015402,-5.040857049072997,-20.505038421111053,26.14427124917733,0.3832,-0.0597
5.004688399960287,0.1866402476222715,-0.07969394688849311,0.664820418539854,-5.358573793979869,-20.5989140343346,27.70011553091146,0.3832,-0.0597
5.053678900003433,0.20097938014011982,-0.07365968539352406,0.6698028139006883,-4.676167719593773,-19.572767058487205,27.317762644989866,0.3832,-0.0597
5.106253099977039,0.2037465500241244,-0.07225528772112931,0.6707406111902776,-4.426338978594191,-19.399327368224945,26.84499080861177,0.3832,-0.0597
5.158171099959873,0.2118071925766577,-0.06706331130984028,0.6722583575303407,-5.182624562206888,-14.61893286629719,24.851453253030932,0.3832,-0.0597
5.208780999993905,0.22268848993080448,-0.06195850828811292,0.6753471874110021,-4.633466622030464,-16.11246692678113,23.590547281766625,0.3832,-0.0597
5.261159299989231,0.25044562910396684,-0.049865684581472516,0.6827795350237368,-2.59941060135512,-22.031000364062468,19.131725071627205,0.3832,-0.0597
5.311784799967427,0.27399567458149104,-0.040923065591505006,0.6893098278658977,-1.3604021297426139,-21.534724462320042,14.50889035661959,0.3832,-0.0597
5.361251299967989,0.2856283088685262,-0.03754676189786017,0.6922630445507111,-1.2234365314775946,-21.303182586073262,13.017982424148599,0.3832,-0.0597
5.412627099954989,0.29766111062358314,-0.03442333011565019,0.6956459277715819,-0.7191837551228745,-21.189663682773134,11.595928575363383,0.3832,-0.0597
5.462763499992434,0.3214019643445839,-0.029173837381126284,0.7005288284830301,0.03744681919539407,-21.486744660889357,8.275944531754325,0.3832,-0.0597
5.5162577999872155,0.3452871680440545,-0.025156675447595003,0.7071080084121552,0.8788165306932405,-20.91140837479504,5.225565055454683,0.3832,-0.0597
5.569268899969757,0.35776784712490095,-0.023435295543631572,0.7108126938759609,1.553678206880222,-20.822720608603817,3.5183996100246486,0.3832,-0.0597
