t,x,y,z,roll,pitch,yaw,desired_x,desired_y
3.316269500000999,-0.29249151177312704,-0.06544145808042384,0.24504447946705543,-0.19255237069553638,0.010796214729032224,1.5885815820536544,-0.0716,-0.0852
3.347539599999436,-0.2924915250164629,-0.06544145841779486,0.24504447594173182,-0.1925525875712292,0.010796206647126686,1.588581583817004,-0.0716,-0.0852
3.3777480000007927,-0.29249153819515017,-0.0654414578362222,0.2450444723196806,-0.1925527991175818,0.010796238791126442,1.5885815800830028,-0.0716,-0.0852
3.4078859000001103,-0.2866042433396407,-0.06528671776029785,0.2456320673798949,-0.19426290172718577,0.012499771256813544,1.5910976549239164,-0.0716,-0.0852
3.4385240000010526,-0.279249205172116,-0.06513386395123368,0.24633907315904438,-0.19587513064768503,0.010650810424318879,1.5774716047852293,-0.0716,-0.0852
3.479194699999425,-0.2723176729053016,-0.06512112930686734,0.24698843372457274,-0.21314765089611726,0.0068750670899479895,1.5624194034395562,-0.0716,-0.0852
3.509772700001122,-0.26515252020509433,-0.06523786243909188,0.2476279654212687,-0.2038095523210333,0.002365387331186757,1.5452283553171031,-0.0716,-0.0852
3.5408048999997845,-0.25841626509867044,-0.06548030885683577,0.24816006394210957,-0.20088516307072113,0.0008380760856650857,1.5624608265136126,-0.0716,-0.0852
3.571654999999737,-0.2517914133170784,-0.06557888015956434,0.2486693220260184,-0.19814045590388124,-0.0035786346922274752,1.5436567287341696,-0.0716,-0.0852
3.6027506999998877,-0.24555256985205637,-0.06580292030700495,0.24909905922352352,-0.19487406713564853,-0.005075268416679442,1.5600073999734716,-0.0716,-0.0852
3.6329010000008566,-0.2394180062278579,-0.06589271292948347,0.24952816222191415,-0.1922328315471561,-0.008495757747624861,1.5396800813220863,-0.0716,-0.0852
3.6633794999997917,-0.23368079620788684,-0.06609404564647631,0.2499130321036319,-0.18968940831967307,-0.008475844822035644,1.55463546506163,-0.0716,-0.0852
3.6940217000010307,-0.22783172333320406,-0.06617913205867923,0.25032533547910857,-0.18776842819978082,-0.009604020362178755,1.5335869458417024,-0.0716,-0.0852
3.7254909000002954,-0.22250279355346386,-0.06635636627428494,0.25103005646120513,-0.20486008033618203,-0.005997926456498207,1.548284703769234,-0.0716,-0.0852
3.7567852000011044,-0.21671437251716225,-0.06644699780661341,0.2517134085083257,-0.2023242213321819,-0.0057065859827174735,1.5283097480829988,-0.0716,-0.0852
3.7980999999999767,-0.21108603959676903,-0.06662019600136695,0.25237071996524235,-0.20390440028541507,0.00021523178187031938,1.5459874931883926,-0.0716,-0.0852
3.828718700000536,-0.20540045191493758,-0.06669328703913069,0.2529379378297794,-0.20410130833509083,0.0024251391197398935,1.5269910416396344,-0.0716,-0.0852
3.868785700000444,-0.1997595977529444,-0.06687923557667638,0.25345742197680227,-0.20369545270126863,0.004578394336663309,1.5097211849293226,-0.0716,-0.0852
3.8996678000003158,-0.19408057927816416,-0.06717370640189653,0.253924898639997,-0.20228257960367158,0.006742667831559992,1.4926927703273682,-0.0716,-0.0852
3.930067600000257,-0.18845033328085167,-0.06758966162112222,0.25436959839599577,-0.2137430552781048,0.011385148617241613,1.5128847796793095,-0.0716,-0.0852
3.960925999999745,-0.18364464916675857,-0.06977550649601401,0.2499120483905647,-0.06385042013995171,-0.09298331605177833,1.509063217516371,-0.0716,-0.0852
3.9916678000008687,-0.18164339070014898,-0.0686249054097792,0.2528391735990957,-0.10506427754092158,-0.04619142364375227,1.4508796421585999,-0.0716,-0.0852
4.022955100001127,-0.17766079546407865,-0.06901441976273923,0.2536010010334066,-0.2141614011532099,-0.035987749305898056,1.4683344242078529,-0.0716,-0.0852
4.052804099999776,-0.17331052101447575,-0.06844298410424038,0.2532459289027164,-0.10971715663697283,-0.0004338262342078386,1.5359723621724914,-0.0716,-0.0852
4.081894099999772,-0.1668644442938965,-0.06861634866231771,0.254273984526971,-0.07555624691628669,-0.0030466262799805745,1.5166786007840627,-0.0716,-0.0852
4.124253100000715,-0.16039852024087692,-0.06889808303761319,0.254421855990465,-0.043183506663353945,-0.0030596016521252352,1.5008153004249898,-0.0716,-0.0852
4.144044799999392,-0.15268346303906571,-0.06940710226980706,0.2543658262645736,0.06598364700928858,-0.0029189323259510617,1.481885314624329,-0.0716,-0.0852
4.184964100000798,-0.1449269172980223,-0.07007745926783858,0.2540677508698062,0.18031302365838728,-0.0012789808554252398,1.459821665074693,-0.0716,-0.0852
4.215109500000835,-0.13708524291076937,-0.0709168505991266,0.25354940211418736,0.30510130515127276,0.0033369323204653256,1.435957192967524,-0.0716,-0.0852
4.245478299999377,-0.13203775058239994,-0.07156435023877167,0.25310650069786583,0.25976504942817286,0.007492061037505195,1.4137099134730315,-0.0716,-0.0852
4.275911599999745,-0.12689952026878557,-0.07230621290470861,0.25263569792275364,0.23519761872121142,0.010647976376665744,1.4283054274021814,-0.0716,-0.0852
4.306888900000558,-0.12117575033156379,-0.07304898130761789,0.2520194887174085,0.23818162437721066,0.017961942582600678,1.409334048034041,-0.0716,-0.0852
4.336326900000131,-0.11530917208582922,-0.07154818326414276,0.24529288267668725,0.2511456621926483,0.18457059585616206,1.3979811535950575,-0.0716,-0.0852
4.367377500000657,-0.11602844287439296,-0.0733044097524699,0.24752130360590466,0.17673513643402877,0.07986960758812468,1.402573219165189,0.1076,-0.0866
4.408748699999705,-0.11023935869844405,-0.07435768989689118,0.24804682999313038,-0.03700809967188614,0.09049808353947575,1.4598743648756114,0.1076,-0.0866
4.439320499999667,-0.10547572137410888,-0.07279929141272756,0.24803027680669976,0.05503984241437517,0.07606606194126204,1.559401718759121,0.1076,-0.0866
4.4692214999995485,-0.09780392647312605,-0.07290679495284651,0.24758319562242556,0.09856403533752917,0.06352081282743077,1.5548398983942329,0.1076,-0.0866
4.500079700001152,-0.08977721095465485,-0.07340330537490816,0.24700711028617267,0.16353753101743335,0.042114670346802455,1.5445313179475335,0.1076,-0.0866
4.532008100000894,-0.08225404691188791,-0.07477240962408747,0.24774330707846487,0.21132254273603504,-0.02643941718650981,1.5626255298605962,0.1076,-0.0866
4.564140000000407,-0.07560689130255904,-0.07321903814407554,0.24345303385375303,0.28716214063936846,0.10101514493978676,1.5694164762938405,0.1076,-0.0866
4.5979867999994894,-0.07534016715333758,-0.07492401789673388,0.24226923152899402,0.21033780443840977,-0.04442016174068249,1.5813339829830124,0.1076,-0.0866
4.63188319999972,-0.07058774917932717,-0.0749108536118969,0.24359450850443465,0.23004515493373576,0.0083184586633869,1.50772268733309,0.1076,-0.0866
4.66233210000064,-0.06408440118766287,-0.07530026797255658,0.2422159895762327,0.25237241298632174,0.005690088487420489,1.5095024089235294,0.1076,-0.0866
4.692827900000339,-0.05717353487532878,-0.07591289831450283,0.240565093509267,0.321636862681712,0.017391178160929898,1.4797801340072616,0.1076,-0.0866
4.723442800001067,-0.04971066809544532,-0.07649974330494742,0.23864520941504383,0.44488902535508595,0.020131424331012556,1.4905215594532648,0.1076,-0.0866
4.753987300000517,-0.04652205736933421,-0.07691217294625766,0.23797916950398396,0.3851347364326887,0.014780974792329423,1.5092333510156863,0.1076,-0.0866
4.805164200000945,-0.04133995394585411,-0.07708904067979594,0.23659883855109148,0.3606999170944509,0.023376083085176542,1.4949911263425506,0.1076,-0.0866
4.830035900000439,-0.036028744524632395,-0.07737433462679663,0.23528653587769374,0.35100378376099683,0.021612582623831127,1.5145306457583685,0.1076,-0.0866
4.859039799999664,-0.030602164329248192,-0.07768790104772111,0.2339308465162046,0.3447433717787564,0.02674453781520019,1.5011313782146813,0.1076,-0.0866
4.890035700000226,-0.025074033088584663,-0.07812261101578291,0.2326427914392566,0.34407148401340404,0.02208565420007411,1.5211922070954966,0.1076,-0.0866
4.92486099999951,-0.0196505251602205,-0.07842833727863552,0.23139549690915862,0.343720137076691,0.024853425536103223,1.5067870513162145,0.1076,-0.0866
4.9683595999995305,-0.014007235978399039,-0.07885525301900242,0.23015204164044628,0.3453780967067725,0.019259137144812807,1.5255502284467022,0.1076,-0.0866
4.989067800001067,-0.00844489753291291,-0.07916006095608928,0.2289489403919677,0.347132257304476,0.021316098425434204,1.5093955525608982,0.1076,-0.0866
5.029433400000926,-0.00268010523200662,-0.07958274649699752,0.22770180263147313,0.3498898451549638,0.01581096837208018,1.5273182887988161,0.1076,-0.0866
5.050111300000935,0.003057683070716426,-0.07988671359006574,0.2264604107563018,0.3522924516227736,0.017899161920840376,1.5110925033850642,0.1076,-0.0866
5.089293299999554,0.008901852239300827,-0.08029201804121286,0.22514941926468995,0.35454117442239247,0.012552867585990016,1.5288486055762416,0.1076,-0.0866
5.11205019999943,0.014696805558421256,-0.0805888380406481,0.22382672725315747,0.35590892162474497,0.015020458652376665,1.5120157832811105,0.1076,-0.0866
5.162538399999903,0.0204693241045924,-0.0809762222821839,0.22243695359285665,0.35636014779939884,0.009896707608115339,1.527962920478122,0.1076,-0.0866
5.192405300000246,0.026285657856184738,-0.08125125515969968,0.22100060523820964,0.3556846094670991,0.013030020558587162,1.5094243182790328,0.1076,-0.0866
5.222884700000577,0.03191101418472711,-0.08164311755017252,0.2195353283092891,0.3538350000162331,0.007490234298918086,1.5262477458914498,0.1076,-0.0866
5.253690600000482,0.03763583428572896,-0.0819169087348764,0.21802130240986894,0.3511954912487971,0.01127265404024263,1.5071972632450064,0.1076,-0.0866
5.2845142999995005,0.04390172328390655,-0.08235525454618751,0.21630916641197845,0.39603057880584097,0.005710102405542605,1.5227538089116852,0.1076,-0.0866
5.314683599999626,0.04909626989972955,-0.08260233886164106,0.21489475149411863,0.3660168671154801,0.010562674947615588,1.5036762793613438,0.1076,-0.0866
5.346768900000825,0.05441639745876493,-0.08297205088590791,0.21343723460070962,0.35687035689509944,0.006687965416131613,1.5193056554669506,0.1076,-0.0866
5.37685749999946,0.059879388516545624,-0.08323978802054285,0.21197148611519903,0.349621725001764,0.012584677677100866,1.5007195595055072,0.1076,-0.0866
5.428984800000762,0.061327950563685577,-0.0832481049491484,0.21163777325145294,0.3479864942995278,0.012612342460965254,1.5010027210639691,0.3832,-0.0597
5.459883499999705,0.07153783643429036,-0.08400306397573438,0.2089580143416736,0.1746971849149352,0.012229357235132281,1.5171706031865566,0.3832,-0.0597
5.486791000001176,0.0805433719788324,-0.08444817783097473,0.2068197082327454,0.09279304862270173,0.01129874312161423,1.5394834936740038,0.3832,-0.0597
5.521400699999504,0.09123104370611208,-0.08475399281370039,0.20441595506291468,0.13088419234651277,0.005341362560874703,1.5668197924825868,0.3832,-0.0597
5.561469700000089,0.10240495101400499,-0.08488293687553812,0.20197678280235226,0.2248489666239534,0.0011443596456947676,1.5591958871804628,0.3832,-0.0597
5.582063699999708,0.11416138980961739,-0.0851954738034651,0.19932969184401758,0.3573810205817841,-0.014438939832035877,1.5746443389766704,0.3832,-0.0597
5.622468300000037,0.12292757890775348,-0.08524989700344181,0.1972313698903177,0.29040540731129705,-0.01993643366230793,1.5733313831699556,0.3832,-0.0597
5.653877799999464,0.13241834987646087,-0.08529363604612143,0.19486507171341885,0.3321470770406799,-0.02785422462222109,1.5838529373581354,0.3832,-0.0597
5.674186300000656,0.1423096076031076,-0.08514321280612086,0.19229924230268813,0.4242848942184553,-0.032799575667678806,1.5948641602018747,0.3832,-0.0597
5.715499500000078,0.1494948080947212,-0.08487899078058571,0.19039909903396637,0.3711791601462463,-0.03363086780502034,1.609825462566895,0.3832,-0.0597
5.746502800000599,0.15717249731507488,-0.08444309652772145,0.1883530416893637,0.3595827304703081,-0.024627135111084913,1.5906930077548498,0.3832,-0.0597
5.777005400001144,0.16449108840700838,-0.0841695959049528,0.18643391015741567,0.35117222611483156,-0.023037480072629735,1.6059291306909005,0.3832,-0.0597
5.797792900000786,0.17161383863581614,-0.08377947224024064,0.1846411884848045,0.34583376028082013,-0.021300827039567018,1.625228770107675,0.3832,-0.0597
5.844172099999923,0.178481513814789,-0.0832527762525467,0.18295522065380013,0.34344335711802204,-0.012218776426192063,1.6120899971246705,0.3832,-0.0597
5.864284299999781,0.18532505622415166,-0.08288489067902789,0.18137615892026884,0.34361886021231075,-0.012858368222693827,1.6334470890845088,0.3832,-0.0597
5.905687800001033,0.19185997946342317,-0.08239629037198148,0.17988629305830486,0.34538467565914416,-0.007424921398184691,1.6211687633490288,0.3832,-0.0597
5.9457689999999275,0.19843276239565594,-0.08204443851842214,0.17842312585098896,0.34783101646344244,-0.011570184389953305,1.6424832289546585,0.3832,-0.0597
5.977382500001113,0.20466286538405792,-0.08158351425103333,0.17702694553270643,0.35052443192863,-0.009308307288443325,1.628460924880651,0.3832,-0.0597
6.008592500000304,0.21087509815599875,-0.08124751472142391,0.175592920710977,0.3517499387173413,-0.015945540366704983,1.648000991446562,0.3832,-0.0597
6.034145699999499,0.21750937789615496,-0.08076999138942742,0.1740422031804983,0.39914174105320094,-0.015302180808779719,1.6323526705496996,0.3832,-0.0597
6.065096100001028,0.2228239637807944,-0.08047718268111369,0.17272748154164408,0.3717329670342897,-0.02171146980787479,1.6479496803286633,0.3832,-0.0597
6.097010699999373,0.22849799634408052,-0.08005491622390448,0.17132137534891387,0.3654081460976478,-0.02011149838817943,1.6283463287942634,0.3832,-0.0597
6.128086099999564,0.23402688737428415,-0.07976504181385093,0.16987339119462122,0.3588838540754628,-0.026544832005272443,1.6433380816235885,0.3832,-0.0597
6.156096700000489,0.23969120203115143,-0.07933901024356324,0.1683971974249208,0.35480795746990457,-0.023100748279270396,1.622330071215408,0.3832,-0.0597
6.2029920000004495,0.24516603111109778,-0.0790520450568502,0.16691953212887709,0.3499907569166208,-0.027663556196640363,1.6361771499892115,0.3832,-0.0597
6.234059500000512,0.2506188597901231,-0.07865047764590787,0.16545854252542128,0.3462607015480868,-0.03134321337955655,1.6512544787514034,0.3832,-0.0597
6.266969000000245,0.25621732376864254,-0.0781400266322985,0.1640348027246105,0.34517834639538303,-0.025891231574644083,1.6313827804506171,0.3832,-0.0597
6.2990900999993755,0.26130475437693645,-0.07694872785162991,0.1606530480104468,0.2903927527253725,0.026928643167731255,1.6339582910179622,0.3832,-0.0597
6.328027600000496,0.2672583512766471,-0.07690178520728778,0.16022540482648479,0.3014501352124934,0.0050286013657660595,1.6447203072542544,0.3832,-0.0597
6.363700600000811,0.27366215921962694,-0.07644225543766989,0.15888079645245312,0.35259558713889544,-1.9235936161258748e-05,1.6634914962406642,0.3832,-0.0597
6.3964820000001055,0.2788651640414638,-0.07595111807666247,0.15777975500153732,0.33278928220831117,0.0023364700622624766,1.6491646513866032,0.3832,-0.0597
6.437378200000239,0.28474469625774307,-0.07552763453972046,0.15687213547563203,0.3417147481971669,-0.00408793955772029,1.6689969411815708,0.3832,-0.0597
6.457552899999428,0.28917499623108933,-0.07617892348639263,0.1531080617582845,0.2736864465504297,-0.07425919806257468,1.6499230248178787,0.3832,-0.0597
6.497745200000281,0.29242276257115674,-0.07611598310691989,0.1540145818230794,0.30721084609604027,-0.03249819888338942,1.604588516695499,0.3832,-0.0597
6.529075200000079,0.29830884424520143,-0.07587253011606986,0.1529701688968801,0.3132888473561731,-0.03146445107409065,1.6216000457037432,0.3832,-0.0597
6.551052799999525,0.3048430716031856,-0.07547177510431419,0.15170344957685697,0.3576443218219047,-0.03163510919253975,1.6414845755047769,0.3832,-0.0597
6.578186900000219,0.31037403309765343,-0.0750133388337656,0.15058234513834756,0.3416738840941508,-0.032790178342525164,1.6615131206641114,0.3832,-0.0597
6.608867000000828,0.3161662630030119,-0.07441762876616838,0.1492957632001752,0.3430729205992611,-0.03644391675095361,1.6821823336278874,0.3832,-0.0597
6.66254950000075,0.32184581051598077,-0.07372712204202113,0.14795325444279564,0.34286238636659727,-0.04259267931190548,1.7032788433510784,0.3832,-0.0597
6.693294400000013,0.3274869317147192,-0.07289596778642914,0.14667147882486564,0.34404572954302903,-0.04820005668649087,1.7238625783515242,0.3832,-0.0597
6.718969999999899,0.3329580926120282,-0.07201621349998433,0.14525583876130524,0.34021992375204924,-0.05690279218066296,1.741665107343141,0.3832,-0.0597
6.751291200000196,0.338368960682296,-0.07103745639190857,0.14384889674839682,0.3365732635926677,-0.06512539157226423,1.757361584900371,0.3832,-0.0597
