t,x,y,z,roll,pitch,yaw,desired_x,desired_y
3.365231700001459,-0.29249151177312654,-0.06544145808042458,0.24504447946705624,-0.19255237069555273,0.010796214729051918,1.5885815820536942,-0.0716,-0.0852
3.386867200000779,-0.2924915250164619,-0.06544145841779572,0.2450444759417311,-0.19255258757121302,0.01079620664714906,1.5885815838170405,-0.0716,-0.0852
3.418817300000228,-0.2924915381951494,-0.0654414578362233,0.24504447231968043,-0.1925527991175776,0.01079623879112987,1.5885815800830418,-0.0716,-0.0852
3.451029500000004,-0.2866042433396408,-0.0652867177602992,0.24563206737989415,-0.19426290172717095,0.012499771256814183,1.5910976549239548,-0.0716,-0.0852
3.4836909000005107,-0.27924920517211727,-0.06513386395123423,0.24633907315904524,-0.19587513064770626,0.010650810424335048,1.577471604785229,-0.0716,-0.0852
3.5265892000006716,-0.2723176729053036,-0.06512112930686786,0.2469884337245732,-0.213147650896206,0.006875067089981727,1.5624194034395504,-0.0716,-0.0852
3.5586460000013176,-0.2651525202050955,-0.0652378624390926,0.2476279654212699,-0.20380955232112621,0.002365387331272994,1.5452283553171078,-0.0716,-0.0852
3.5925740000002406,-0.25841626509866955,-0.06548030885683553,0.24816006394210977,-0.20088516307077858,0.000838076085781229,1.5624608265136701,-0.0716,-0.0852
3.623545100001138,-0.25179141331707633,-0.06557888015956333,0.2486693220260184,-0.1981404559039113,-0.0035786346921344242,1.543656728734263,-0.0716,-0.0852
3.6535183000014513,-0.24555256985205298,-0.0658029203070037,0.2490990592235241,-0.19487406713567412,-0.005075268416610857,1.5600073999735904,-0.0716,-0.0852
3.6846862000002147,-0.23941800622785345,-0.06589271292948122,0.24952816222191426,-0.1922328315471699,-0.008495757747542647,1.5396800813222018,-0.0716,-0.0852
3.7175984000004973,-0.2336807962078827,-0.06609404564647246,0.24991303210363178,-0.18968940831966827,-0.008475844821996535,1.5546354650617502,-0.0716,-0.0852
3.7466595000005327,-0.22783172333319945,-0.06617913205867516,0.25032533547910757,-0.187768428199766,-0.009604020362204485,1.5335869458418192,-0.0716,-0.0852
3.7811723000013444,-0.2225027935534752,-0.06635636627428029,0.25103005646120147,-0.204860080337157,-0.005997926456548917,1.5482847037693668,-0.0716,-0.0852
3.823880800000552,-0.21671437251716652,-0.06644699780660805,0.251713408508323,-0.2023242213326488,-0.005706585982753278,1.5283097480831391,-0.0716,-0.0852
3.875072100001489,-0.21108603959677122,-0.06662019600136124,0.2523707199652379,-0.20390440028569842,0.0002152317818176948,1.5459874931885198,-0.0716,-0.0852
3.905611600001066,-0.20540045191493925,-0.06669328703912379,0.25293793782977525,-0.20410130833527096,0.0024251391197013966,1.5269910416397392,-0.0716,-0.0852
3.9358995000002324,-0.1997595977529458,-0.06687923557666878,0.25345742197679905,-0.20369545270138825,0.004578394336644338,1.5097211849293966,-0.0716,-0.0852
3.9645787000008568,-0.1940805792781651,-0.06717370640188765,0.2539248986399954,-0.20228257960376095,0.006742667831572884,1.4926927703274213,-0.0716,-0.0852
3.9970422000005783,-0.1884503332808506,-0.06758966162111386,0.25436959839599566,-0.21374305527805676,0.011385148617245527,1.5128847796793492,-0.0716,-0.0852
4.028018599999996,-0.18364464916675236,-0.06977550649600663,0.24991204839056175,-0.0638504201400063,-0.09298331605180678,1.5090632175164018,-0.0716,-0.0852
4.058950600001481,-0.18164339070014537,-0.0686249054097723,0.25283917359909147,-0.10506427754117839,-0.04619142364378182,1.4508796421586583,-0.0716,-0.0852
4.088943700000527,-0.17766079546407143,-0.0690144197627326,0.25360100103340344,-0.21416140115323962,-0.035987749305904614,1.4683344242079357,-0.0716,-0.0852
4.140452800000276,-0.1733105210144666,-0.06844298410424199,0.2532459289027138,-0.10971715663698878,-0.00043382623416372113,1.535972362172536,-0.0716,-0.0852
4.181046700001389,-0.16686444429387143,-0.06861634866231875,0.25427398452696776,-0.07555624691532552,-0.0030466262799370533,1.516678600784176,-0.0716,-0.0852
4.204186900000423,-0.16039852024083343,-0.06889808303761587,0.25442185599046147,-0.04318350666125699,-0.003059601652122602,1.5008153004251519,-0.0716,-0.0852
4.234647000001132,-0.15268346303773933,-0.06940710226990279,0.25436582626454785,0.0659836470902856,-0.002918932325494571,1.4818853146245181,-0.0716,-0.0852
4.2629026000013255,-0.14492691729545812,-0.0700774592680446,0.2540677508696873,0.18031302381661266,-0.001278980854045065,1.4598216650743003,-0.0716,-0.0852
4.295911300001535,-0.13708524290693946,-0.07091685059946728,0.25354940211391913,0.3051013053903502,0.0033369323237037534,1.4359571929664414,-0.0716,-0.0852
4.32555450000109,-0.13203775057922976,-0.07156435023903171,0.2531065006976111,0.25976504962751634,0.007492061040299371,1.4137099134726647,-0.0716,-0.0852
4.3587574000011955,-0.12689952026625273,-0.07230621290487328,0.25263569792252916,0.2351976188810977,0.010647976379319258,1.4283054274024174,-0.0716,-0.0852
4.405525400001352,-0.12117575033455512,-0.07304898130707893,0.2520194887177469,0.2381816241828828,0.01796194257573591,1.409334048034915,-0.0716,-0.0852
4.433614700001272,-0.11530917209412292,-0.07154818326278917,0.2452928826775645,0.25114566163700314,0.18457059584263372,1.3979811535602722,-0.0716,-0.0852
4.4687964000004285,-0.11602844289473917,-0.07330440976466082,0.24752130358658767,0.1767351350393065,0.07986960701539929,1.4025732192728122,0.1076,-0.0866
4.501764399999956,-0.11023935872536071,-0.0743576899044116,0.2480468299851066,-0.03700810193407614,0.09049808320933853,1.45987436482358,0.1076,-0.0866
4.5424804000012955,-0.10547572140480213,-0.07279929138606803,0.24803027680152534,0.055039840715000454,0.0760660616745406,1.5594017190521416,0.1076,-0.0866
4.573267900001156,-0.0978039264983761,-0.07290679492184074,0.24758319561870176,0.09856403402222365,0.06352081265577254,1.554839898630142,0.1076,-0.0866
4.594547100001364,-0.08977721097356159,-0.07340330533985683,0.247007110284043,0.16353753002525298,0.04211467020211413,1.5445313182243117,0.1076,-0.0866
4.635916000001089,-0.08225404693014352,-0.07477240959122326,0.24774330708768402,0.21132254187221006,-0.026439417590162304,1.5626255302251846,0.1076,-0.0866
4.656483800001297,-0.07560689132247964,-0.0732190380869089,0.2434530339213839,0.28716213983258654,0.10101514400554806,1.5694164768450656,0.1076,-0.0866
4.6956693000011,-0.07534016706457963,-0.07492401787942365,0.24226923135416495,0.21033780184999576,-0.044420166985502,1.5813339872212322,0.1076,-0.0866
4.715212500001144,-0.07058774908279969,-0.07491085358583022,0.2435945084288767,0.2300451533452344,0.008318455190367882,1.5077226919457747,0.1076,-0.0866
4.746253100000104,-0.06408440108411798,-0.0753002679026658,0.24221598950847315,0.2523724116146428,0.005690085183177798,1.509502413571262,0.1076,-0.0866
4.776549100000921,-0.057173534762195374,-0.07591289820941319,0.24056509344809004,0.32163686189445134,0.017391175040078942,1.479780138576174,0.1076,-0.0866
4.812482600000294,-0.049710667969259235,-0.07649974316823963,0.23864520935370098,0.44488902503013006,0.02013142141679904,1.4905215638806857,0.1076,-0.0866
4.856510499999786,-0.04652205721998436,-0.07691217279690357,0.23797916944879813,0.38513473608514504,0.01478097206992608,1.509233354850151,0.1076,-0.0866
4.888398400000369,-0.041339953797462616,-0.07708904049998387,0.23659883849674593,0.3606999165363219,0.023376080783432025,1.4949911301218104,0.1076,-0.0866
4.932476200001474,-0.036028744375696954,-0.07737433441795968,0.2352865358263486,0.3510037830817911,0.021612580663393742,1.5145306495260693,0.1076,-0.0866
4.949521500000628,-0.03060216417772886,-0.07768790081303985,0.2339308464660139,0.3447433711586784,0.026744536162508846,1.501131382021966,0.1076,-0.0866
4.980389500000456,-0.02507403293491257,-0.07812261075572595,0.232642791391122,0.34407148340026456,0.022085652786069325,1.5211922109819618,0.1076,-0.0866
5.010884900000747,-0.01965052500295279,-0.07842833699309368,0.23139549686119237,0.3437201366725065,0.02485342429895677,1.506787055309696,0.1076,-0.0866
5.043857399999979,-0.014007235816890656,-0.07885525270783025,0.23015204159356242,0.34537809643246303,0.019259136009782938,1.5255502325418033,0.1076,-0.0866
5.083013999999821,-0.00844489736967487,-0.079160060619431,0.22894894034570468,0.3471322571277356,0.021316097341215895,1.5093955567490565,0.1076,-0.0866
5.117449600000327,-0.002680105065729288,-0.07958274613435887,0.22770180258590028,0.3498898450137981,0.015810967294072983,1.5273182930467437,0.1076,-0.0866
5.1388079000007565,0.0030576832384936053,-0.07988671320204366,0.22646041071149,0.35229245154045635,0.017899160826822837,1.5110925076682864,0.1076,-0.0866
5.168148300001121,0.00890185240968802,-0.08029201762761891,0.22514941922007795,0.3545411743501071,0.012552866467204403,1.5288486098603415,0.1076,-0.0866
5.200283000000127,0.014696805730598008,-0.08058883760167992,0.2238267272091856,0.3559089216046434,0.015020457512408932,1.5120157875470372,0.1076,-0.0866
5.245626699999775,0.020469324279352448,-0.08097622181727561,0.22243695354895318,0.35636014779686087,0.009896706457280009,1.5279629247097126,0.1076,-0.0866
5.28373830000055,0.026285658029801102,-0.08125125466858248,0.2210006051926899,0.35568460935330387,0.013030019404732123,1.5094243224697024,0.1076,-0.0866
5.317317200000616,0.031911014360885365,-0.08164311703389848,0.21953532826372207,0.3538349999249127,0.007490233159687865,1.5262477500442324,0.1076,-0.0866
5.348303400000077,0.03763583446408118,-0.08191690819301543,0.21802130236440925,0.3511954912129862,0.011272652927265593,1.5071972673691965,0.1076,-0.0866
5.378874800000631,0.04390172346474279,-0.08235525397636824,0.2163091663663077,0.39603057878499986,0.005710101322787054,1.5227538130148903,0.1076,-0.0866
5.41002970000045,0.049096270082616994,-0.08260233826873559,0.21489475144818468,0.3660168671598112,0.010562673895133727,1.5036762834589306,0.1076,-0.0866
5.441135000000941,0.05441639764366285,-0.08297205026932494,0.2134372345545345,0.35687035694703223,0.006687964387137303,1.5193056595663208,0.1076,-0.0866
5.468601300000955,0.05987938870244641,-0.08323978737977447,0.21197148606880525,0.3496217250583902,0.01258467666692409,1.5007195636135815,0.1076,-0.0866
5.499748400001408,0.06132795076768728,-0.08324810430861126,0.21163777320139293,0.347986494379339,0.012612341450058125,1.501002725174406,0.3832,-0.0597
5.531629400000384,0.07153783664777723,-0.08400306328552529,0.2089580142893149,0.17469718253339733,0.012229356445292395,1.5171706062249575,0.3832,-0.0597
5.574777600000743,0.08054337215359629,-0.0844481771098429,0.20681970818995876,0.09279304441309383,0.011298742473500515,1.539483496447617,0.3832,-0.0597
5.6056877999999415,0.09123104388990229,-0.08475399205847847,0.20441595502005927,0.13088418926270143,0.005341362171850031,1.5668197951514407,0.3832,-0.0597
5.63747180000064,0.10240495125657952,-0.08488293608495008,0.2019767827469398,0.22484896780574365,0.0011443594858093497,1.5591958900307485,0.3832,-0.0597
5.667093699999896,0.11416139012412746,-0.08519547297760272,0.19932969177350957,0.3573810268208373,-0.014438940030691861,1.5746443420593463,0.3832,-0.0597
5.7006686000004265,0.1229275791809683,-0.08524989614854821,0.19723136982891046,0.29040540904357304,-0.019936433637512057,1.5733313855130746,0.3832,-0.0597
5.7306791999999405,0.13241834930495067,-0.08529363516477922,0.1948650718551038,0.33214702619344333,-0.027854223850969008,1.5838529405709314,0.3832,-0.0597
5.764743300000191,0.14230960619885616,-0.08514321191278697,0.19229924266579684,0.4242847883107171,-0.03279957496194317,1.5948641644003811,0.3832,-0.0597
5.79910689999997,0.14949480721767,-0.08487898985260704,0.19039909924368323,0.37117908387280135,-0.03363086808863872,1.609825466332492,0.3832,-0.0597
5.8327100000005885,0.15717249687203075,-0.08444309556330098,0.18835304178828086,0.35958268042690533,-0.02462713574589166,1.590693011005044,0.3832,-0.0597
5.859609700000874,0.1644910882387305,-0.08416959491691767,0.18643391018038524,0.35117219291726387,-0.023037481001410242,1.60592913310172,0.3832,-0.0597
5.891084400000182,0.1716138386455184,-0.08377947122896007,0.1846411884621721,0.3458337384925346,-0.021300827960472474,1.6252287718685046,0.3832,-0.0597
5.9208300999998755,0.17848151391230765,-0.08325277521959465,0.18295522060999275,0.34344334236727514,-0.012218777013010414,1.6120899987809965,0.3832,-0.0597
5.9497048000012,0.18532505639873137,-0.08288488963104289,0.18137615886695926,0.3436188499329355,-0.012858368600529739,1.6334470900563183,0.3832,-0.0597
5.999643200000719,0.1918599796642725,-0.08239628931174293,0.17988629300027922,0.3453846677988305,-0.0074249214762894524,1.6211687643098727,0.3832,-0.0597
6.030617300000813,0.19843276260827725,-0.08204443744825593,0.17842312579432723,0.34783101012642437,-0.011570184275389576,1.6424832300199794,0.3832,-0.0597
6.064839700000448,0.2046628656036262,-0.0815835131705636,0.1770269454750663,0.3505244268013443,-0.009308307077214188,1.6284609261253382,0.3832,-0.0597
6.0945472000003065,0.21087509838249932,-0.08124751363152542,0.17559292065386223,0.3517499347343718,-0.015945540165678295,1.6480009928826511,0.3832,-0.0597
6.124648099999831,0.2175093781555071,-0.08076999028690421,0.1740422031161779,0.39914173997621266,-0.015302180687229291,1.6323526721712032,0.3832,-0.0597
6.1569967000014,0.22282396401752808,-0.08047718157201533,0.17272748148353811,0.37173296445429455,-0.021711469784414437,1.6479496820484048,0.3832,-0.0597
6.193698400000358,0.22849799659325074,-0.08005491510555866,0.17132137528799582,0.3654081443521271,-0.02011149851246045,1.6283463305559687,0.3832,-0.0597
6.231842500001221,0.23402688764854113,-0.07976504068500453,0.16987339114325695,0.35888385365464615,-0.026544832209281624,1.6433380833832447,0.3832,-0.0597
6.265114600000743,0.23969120230594818,-0.07933900910591357,0.16839719737052836,0.35480795717403546,-0.02310074859271356,1.6223300729272407,0.3832,-0.0597
6.293249400001514,0.24516603138570373,-0.07905204391107963,0.16691953207122537,0.3499907566720261,-0.027663556588642314,1.6361771516346786,0.3832,-0.0597
6.326970500000243,0.25061886006403294,-0.07865047649167876,0.16545854246587255,0.3462607013430509,-0.03134321379914949,1.6512544803280813,0.3832,-0.0597
6.367346400000315,0.25621732424992094,-0.07814002556844347,0.16403480297979972,0.34517835373672057,-0.025891238689411178,1.6313827802921186,0.3832,-0.0597
6.389017500001501,0.26130475663505537,-0.07694872782517823,0.16065305040083708,0.2903928296916737,0.026928565817433355,1.6339582771880703,0.3832,-0.0597
6.420047300000078,0.26725835453038976,-0.07690178468745183,0.16022540558773368,0.30145030355898156,0.005028554771265335,1.6447202973399282,0.3832,-0.0597
6.450801200000569,0.27366216373495433,-0.07644225466902109,0.15888079658276358,0.35259584429814506,-1.9274198206187142e-05,1.6634914870920618,0.3832,-0.0597
6.482480700000451,0.27886516783464177,-0.07595111727889425,0.15777975507879677,0.3327894879891044,0.002336437882171062,1.6491646454829751,0.3832,-0.0597
6.514773500000956,0.28474469857220724,-0.07552763388854704,0.1568721339403897,0.34171488557358837,-0.004087975966308757,1.6689969337736639,0.3832,-0.0597
6.567899100000432,0.28917499474969227,-0.07617891569567599,0.15310807989095526,0.27368676602170333,-0.07425870513453772,1.6499228426962045,0.3832,-0.0597
6.598987500001385,0.2924227663236269,-0.07611593696682722,0.15401458801077406,0.3072112048831511,-0.03249793244266914,1.604588416313505,0.3832,-0.0597
6.6294950999999855,0.29830885057534634,-0.0758724850435617,0.15297017297247792,0.3132894128306291,-0.03146419117120046,1.6215998166674366,0.3832,-0.0597
6.6600324000010005,0.30484308101868335,-0.0754717320154915,0.15170345160038412,0.3576451042850338,-0.03163488303100616,1.6414843423341048,0.3832,-0.0597
6.6934381000010035,0.31037404008908825,-0.07501329787925866,0.1505823468030831,0.34167452608371823,-0.03278998510254126,1.661512884235567,0.3832,-0.0597
6.723770700000387,0.31616626787210167,-0.07441759012554257,0.1492957645950736,0.34307343673000584,-0.036443749301982784,1.6821820940577028,0.3832,-0.0597
6.754629200000636,0.32184581265408074,-0.07372708556981948,0.14795325595902037,0.3428627816551826,-0.04259253705448748,1.7032786185169921,0.3832,-0.0597
6.784909400001197,0.3274869440931786,-0.07289592519526882,0.14667149907710816,0.34404651836013406,-0.04819949138728192,1.7238624606312754,0.3832,-0.0597
6.836804399999892,0.3329581014522592,-0.07201617394332291,0.14525585564961013,0.34022052555429855,-0.05690229990190255,1.7416649745862112,0.3832,-0.0597
6.857149500001469,0.3383689670341346,-0.07103741972756154,0.14384891059975743,0.3365737247808689,-0.06512497268944296,1.7573614445470553,0.3832,-0.0597
