t,x,y,z,roll,pitch,yaw,desired_x,desired_y
0.0,-0.26069928895499406,-0.058627271283026604,0.6321620253794196,2.7093695571371974,6.31727612066585,-2.096731501830966,-0.0716,-0.0852
0.053503100003581494,-0.26084234433085723,-0.05861066895826465,0.6325059000076139,2.8389794247695006,6.30419987719434,-2.0278168793830176,-0.0716,-0.0852
0.10778079996816814,-0.26069968428107587,-0.058676559763745445,0.6321756739956823,2.6989346809393395,6.307058224114025,-2.1815375739575784,-0.0716,-0.0852
0.161935199983418,-0.2608878597083445,-0.058674500532135056,0.6325946833046139,2.713101246576613,6.250086193408515,-2.1409494166419067,-0.0716,-0.0852
0.21554240002296865,-0.26086082914238334,-0.05865354569280109,0.6324921822927128,2.747425814523296,6.290395743532402,-2.122995030485453,-0.0716,-0.0852
0.2688662000000477,-0.2608015691530111,-0.058659164245528715,0.6323727269437321,2.832379271817756,6.294590138263933,-2.097739066749976,-0.0716,-0.0852
0.3242056000162843,-0.26080780050974683,-0.058663617209472434,0.63243357735659,2.731671947715827,6.299321998652916,-2.1315350605135,-0.0716,-0.0852
0.3782894000178203,-0.25923736954563315,-0.058676770456380416,0.6314498298135977,3.000632070666269,6.534627689106275,-2.3826531347144924,-0.0716,-0.0852
0.43379019998246804,-0.25029038648840407,-0.05948315637741843,0.6314333048996038,3.3875921433774283,6.937541654654976,-4.212888302578686,-0.0716,-0.0852
0.48963610001374036,-0.23700973617004842,-0.06121609315625134,0.631446149280999,3.323605448697696,6.996592625075192,-7.006344933878915,-0.0716,-0.0852
0.545102100004442,-0.22237722523395587,-0.06382669538621544,0.6313388936589303,3.339393966224506,7.247979404798533,-10.25224531246487,-0.0716,-0.0852
0.6128406000207183,-0.21484531044634692,-0.06561426888781373,0.6309734509869855,3.0585497720501302,7.289375355897078,-11.892943341063756,-0.0716,-0.0852
0.6682522000046447,-0.199815117323007,-0.06984932640328427,0.6312492525560804,3.1605970878092826,7.124999435824999,-15.22737553950066,-0.0716,-0.0852
0.7228620999958366,-0.18390067775539776,-0.07496056581742433,0.6297697099499739,2.759754401253608,6.855272100974115,-18.62703394501112,-0.0716,-0.0852
0.7772191999829374,-0.17667187652723607,-0.07802084357102754,0.6311574923548715,3.107671701477929,5.961461144792772,-19.721032271300277,-0.0716,-0.0852
0.8322009000112303,-0.16058372901164636,-0.08383021546649781,0.6286848748417545,2.6060930377401164,6.0494679808013805,-19.212334964415728,-0.0716,-0.0852
0.8857788000022992,-0.14446566354827736,-0.08943206391634898,0.6281472455398269,2.953417321156489,5.152688576564221,-17.38823722597309,-0.0716,-0.0852
0.9495885000214912,-0.13602221602636924,-0.09203296021323636,0.6274127313715209,3.037531200070455,4.755815656208094,-16.46666364378125,-0.0716,-0.0852
1.0023032000171952,-0.11950625809346144,-0.09712306942258893,0.6283561114913397,3.233644082677725,3.1092542020417326,-14.801606138140414,-0.0716,-0.0852
1.0548763999831863,-0.10152160327591706,-0.10125642907091192,0.6261641648414465,3.341224285130086,3.090434379148357,-12.92704985870834,-0.0716,-0.0852
1.110298999992665,-0.09220629399463044,-0.10326654366670664,0.6256106782287707,3.209035676834555,2.133131228343501,-12.04090291500332,-0.0716,-0.0852
1.1625723000033759,-0.07306607804660012,-0.10701470762580498,0.62524877339848,2.5731486584752297,-0.9808436490206704,-10.63379367866089,-0.0716,-0.0852
1.213933699997142,-0.052737076270769,-0.11014185819226359,0.6232617755738553,0.5329933281792212,-3.947170497254055,-8.80861596362548,0.1076,-0.0866
1.269628299982287,-0.04231974821944794,-0.1112810717262371,0.6224236901296285,0.9277782395994604,-3.3137026877625204,-7.448894508918956,0.1076,-0.0866
1.3197767999954522,-0.020752957967498063,-0.11326804376927924,0.622084437560403,0.3107073022104985,-5.341568231486067,-5.889404965644546,0.1076,-0.0866
1.372689999989234,0.001891428379746117,-0.11485112709437184,0.6221513172771622,-1.3697597525358962,-6.508839623613674,-2.679082121209955,0.1076,-0.0866
1.423872700019274,0.013802450879834418,-0.11544135013626325,0.6235589118812142,-0.945090257332932,-8.385883577652324,-0.5894322984715427,0.1076,-0.0866
1.4778862000093795,0.03647764894869014,-0.11411261160573721,0.6193958595241391,-0.5970801245254125,-12.0589410532021,2.365607176650151,0.1076,-0.0866
1.5325403999886476,0.0420677462259331,-0.11399540712684232,0.6211545104589539,0.5917480151418382,-12.692104406680368,1.84820355128774,0.1076,-0.0866
1.5959311000187881,0.047296570324587776,-0.11318562990568085,0.621217991785162,-2.506998575498612,-6.244575470686036,3.5550591634186866,0.1076,-0.0866
1.647809399990365,0.05512006638360863,-0.11390228550968473,0.627066315759001,-1.4940056369735253,-8.61450151367366,3.793759818262774,0.1076,-0.0866
1.6989119999925615,0.07743583171746629,-0.11302320016330969,0.633316852333405,-0.9333233419709878,-11.038929082533157,5.932754633168847,0.1076,-0.0866
1.7515516999992542,0.10421811270714751,-0.11072004327936683,0.6394484265373176,-0.5939261267572841,-16.848925075422432,8.022454008577563,0.1076,-0.0866
1.8020185999921523,0.1327194078746721,-0.10702965345073102,0.6474651416418843,-1.0154421475079285,-20.57134882841248,11.278040489735416,0.3832,-0.0597
1.8559951999923214,0.14520106006223954,-0.1045410859374224,0.6505691893441813,-1.5421263157035714,-20.7779154919545,13.052660782482183,0.3832,-0.0597
1.9072950999834575,0.15774415376197884,-0.10147244759073257,0.6536865837913548,-2.211854016750725,-20.85620522653992,14.973507078527874,0.3832,-0.0597
1.9588706999784335,0.1813095079120534,-0.0945925214385369,0.6600642096952025,-2.9802150041689446,-21.2055121432104,18.41764009649046,0.3832,-0.0597
2.0091786999837495,0.20524101208476245,-0.08641710478727985,0.6678715415909195,-3.706895903364002,-20.968350153821188,21.784227328149537,0.3832,-0.0597
2.063079099985771,0.21624662567777655,-0.08162734829723915,0.6698171767865313,-4.240582858132969,-20.686088636016816,23.41353525583984,0.3832,-0.0597
2.11645370000042,0.24276017485235932,-0.07122886156495802,0.6772402822158419,-3.982169502036719,-17.716303365061567,20.76898548422681,0.3832,-0.0597
2.1713021000032313,0.2591229817124428,-0.06581140757071856,0.6827039866026188,-3.492527902041527,-18.536945903452168,19.28936874148476,0.3832,-0.0597
2.22462190000806,0.2923630523340976,-0.05515015910662531,0.6892179979206988,-2.2434641568744245,-21.90882812072924,16.091916714545608,0.3832,-0.0597
2.2790969000197947,0.32090441524020724,-0.04799053624894463,0.6956317623179481,-1.365213813992938,-21.52390450749085,13.092847213905063,0.3832,-0.0597
2.334968300012406,0.33399523581369156,-0.04541517514109164,0.6988303341067879,-0.9901708391684044,-21.17368014876328,11.70201512251423,0.3832,-0.0597
2.3923910000012265,0.3587759140681646,-0.04110753956149415,0.7027537789006948,-0.3076150408157443,-21.12486535780316,8.745131732979946,0.3832,-0.0597
2.445544600021094,0.3706738807274238,-0.039573125134509814,0.705578832430034,0.2121563569083635,-20.851440244599377,7.25659992516702,0.3832,-0.0597
